{"type":"FeatureCollection","features":[{"type":"Feature","properties":{"OBJECTID":"48","Facility_N":"ACK Dispensary (Isiolo)","Type":"Dispensary","Owner":"Christian Health Association of Kenya","County":"Isiolo","Sub_County":"Isiolo","Division":"Central","Location":"West","Sub_Locati":"Bulapesa","Constituen":"ISIOLO NORTH","Nearest_To":"Isiolo","Latitude":"0.35699","Longitude":"37.57572"},"geometry":{"type":"Point","coordinates":[37.57572,0.35699]}},{"type":"Feature","properties":{"OBJECTID":"70","Facility_N":"African Muslim Agency Dispensary","Type":"Dispensary","Owner":"Supreme Council for Kenya Muslims","County":"Isiolo","Sub_County":"Garbatula","Division":"Garbatulla","Location":"Garbatulla South","Sub_Locati":"Garbatulla south","Constituen":"ISIOLO SOUTH","Nearest_To":"AMA Children Home","Latitude":"0.52541","Longitude":"38.50904"},"geometry":{"type":"Point","coordinates":[38.50904,0.52541]}},{"type":"Feature","properties":{"OBJECTID":"164","Facility_N":"AIC Dispensary (Isiolo)","Type":"Dispensary","Owner":"Christian Health Association of Kenya","County":"Isiolo","Sub_County":"Isiolo","Division":"Central","Location":"East","Sub_Locati":"Wabera","Constituen":"ISIOLO NORTH","Nearest_To":"Isiolo","Latitude":"0.33828","Longitude":"37.57018"},"geometry":{"type":"Point","coordinates":[37.57018,0.33828]}},{"type":"Feature","properties":{"OBJECTID":"230","Facility_N":"Alfalah Nursing Home","Type":"Health Centre","Owner":"Supreme Council for Kenya Muslims","County":"Isiolo","Sub_County":"Isiolo","Division":"Central","Location":"Central","Sub_Locati":"Bulapesa","Constituen":"ISIOLO NORTH","Nearest_To":"Isiolo","Latitude":"0.34842","Longitude":"37.58112"},"geometry":{"type":"Point","coordinates":[37.58112,0.34842]}},{"type":"Feature","properties":{"OBJECTID":"379","Facility_N":"Apu Dispensary","Type":"Dispensary","Owner":"Ministry of Health","County":"Isiolo","Sub_County":"Isiolo","Division":"Central","Location":"West","Sub_Locati":"Central","Constituen":"ISIOLO NORTH","Nearest_To":"Isiolo","Latitude":"0.27955","Longitude":"37.54604"},"geometry":{"type":"Point","coordinates":[37.54604,0.27955]}},{"type":"Feature","properties":{"OBJECTID":"468","Facility_N":"Badana Dispensary","Type":"Dispensary","Owner":"Ministry of Health","County":"Isiolo","Sub_County":"Garbatula","Division":"Sericho","Location":"Badana","Sub_Locati":"Badana","Constituen":"ISIOLO SOUTH","Nearest_To":"Badana","Latitude":"1.11633","Longitude":"38.9846"},"geometry":{"type":"Point","coordinates":[38.9846,1.11633]}},{"type":"Feature","properties":{"OBJECTID":"555","Facility_N":"Barambate Dispensary","Type":"Dispensary","Owner":"Ministry of Health","County":"Isiolo","Sub_County":"Garbatula","Division":"Kinna","Location":"Kulamawe","Sub_Locati":"Burambate","Constituen":"ISIOLO SOUTH","Nearest_To":"Burambate","Latitude":"0.43648","Longitude":"38.16055"},"geometry":{"type":"Point","coordinates":[38.16055,0.43648]}},{"type":"Feature","properties":{"OBJECTID":"585","Facility_N":"Basa Dispensary","Type":"Dispensary","Owner":"Ministry of Health","County":"Isiolo","Sub_County":"Merti","Division":"Yamicha","Location":"Yamicha","Sub_Locati":"Basa","Constituen":"ISIOLO NORTH","Nearest_To":"Merti","Latitude":"1.1823","Longitude":"38.58158"},"geometry":{"type":"Point","coordinates":[38.58158,1.1823]}},{"type":"Feature","properties":{"OBJECTID":"660","Facility_N":"Biliqi Sericho Dispensary","Type":"Dispensary","Owner":"Ministry of Health","County":"Isiolo","Sub_County":"Garbatula","Division":"Sericho","Location":"Sericho","Sub_Locati":"Biliqi","Constituen":"ISIOLO SOUTH","Nearest_To":"Biliqi","Latitude":"0.12423","Longitude":"39.06023"},"geometry":{"type":"Point","coordinates":[39.06023,0.12423]}},{"type":"Feature","properties":{"OBJECTID":"661","Facility_N":"Biliqo Marara Dispensary","Type":"Dispensary","Owner":"Ministry of Health","County":"Isiolo","Sub_County":"Merti","Division":"Chari","Location":"Biliqo","Sub_Locati":"Biliqo","Constituen":"ISIOLO NORTH","Nearest_To":"Biliqo","Latitude":"0.8769","Longitude":"38.39699"},"geometry":{"type":"Point","coordinates":[38.39699,0.8769]}},{"type":"Feature","properties":{"OBJECTID":"668","Facility_N":"Bisan Biliqo Dispensary","Type":"Dispensary","Owner":"Ministry of Health","County":"Isiolo","Sub_County":"Merti","Division":"Merti","Location":"Kom","Sub_Locati":"Biligo","Constituen":"ISIOLO NORTH","Nearest_To":"Merti","Latitude":"0.91232","Longitude":"38.33232"},"geometry":{"type":"Point","coordinates":[38.33232,0.91232]}},{"type":"Feature","properties":{"OBJECTID":"702","Facility_N":"Boji Dispensary","Type":"Dispensary","Owner":"Ministry of Health","County":"Isiolo","Sub_County":"Garbatula","Division":"Garbatulla","Location":"Garbatulla","Sub_Locati":"Boji","Constituen":"ISIOLO SOUTH","Nearest_To":"Boji","Latitude":"0.56748","Longitude":"38.34074"},"geometry":{"type":"Point","coordinates":[38.34074,0.56748]}},{"type":"Feature","properties":{"OBJECTID":"789","Facility_N":"Bulesa Dispensary","Type":"Dispensary","Owner":"Ministry of Health","County":"Isiolo","Sub_County":"Merti","Division":"Merti","Location":"Bulesa","Sub_Locati":"Bulesa","Constituen":"ISIOLO NORTH","Nearest_To":"Merti","Latitude":"0.95818","Longitude":"38.53321"},"geometry":{"type":"Point","coordinates":[38.53321,0.95818]}},{"type":"Feature","properties":{"OBJECTID":"898","Facility_N":"Catholic Dispensary (Isiolo)","Type":"Dispensary","Owner":"Kenya Episcopal Conference-Catholic Secretariat","County":"Isiolo","Sub_County":"Isiolo","Division":"Central","Location":"Central","Sub_Locati":"Central","Constituen":"ISIOLO NORTH","Nearest_To":"Isiolo","Latitude":"0.34256","Longitude":"37.58132"},"geometry":{"type":"Point","coordinates":[37.58132,0.34256]}},{"type":"Feature","properties":{"OBJECTID":"1292","Facility_N":"Daaba Dispensary","Type":"Dispensary","Owner":"Ministry of Health","County":"Isiolo","Sub_County":"Isiolo","Division":"Central","Location":" ","Sub_Locati":"Ngaremara","Constituen":"ISIOLO NORTH","Nearest_To":"Ngaremara","Latitude":"0.54076","Longitude":"37.74914"},"geometry":{"type":"Point","coordinates":[37.74914,0.54076]}},{"type":"Feature","properties":{"OBJECTID":"1608","Facility_N":"Duse Dispensary","Type":"Dispensary","Owner":"Ministry of Health","County":"Isiolo","Sub_County":"Garbatula","Division":"Kinna Division","Location":"Duse","Sub_Locati":"Duse","Constituen":"ISIOLO SOUTH","Nearest_To":"Duse market","Latitude":"0.39654","Longitude":"38.34946"},"geometry":{"type":"Point","coordinates":[38.34946,0.39654]}},{"type":"Feature","properties":{"OBJECTID":"1695","Facility_N":"Eldera Dispensary","Type":"Dispensary","Owner":"Ministry of Health","County":"Isiolo","Sub_County":"Garbatula","Division":"Garbatulla","Location":"Eldera","Sub_Locati":"Eldera","Constituen":"ISIOLO SOUTH","Nearest_To":"Eldera","Latitude":"0.5955","Longitude":"38.83669"},"geometry":{"type":"Point","coordinates":[38.83669,0.5955]}},{"type":"Feature","properties":{"OBJECTID":"1848","Facility_N":"Eremet Dispensary","Type":"Dispensary","Owner":"Ministry of Health","County":"Isiolo","Sub_County":"Isiolo","Division":"Central","Location":"Ngaremara","Sub_Locati":"Eremet","Constituen":"ISIOLO NORTH","Nearest_To":"Isiolo","Latitude":"0.43324","Longitude":"37.6026"},"geometry":{"type":"Point","coordinates":[37.6026,0.43324]}},{"type":"Feature","properties":{"OBJECTID":"1874","Facility_N":"Eskot Dispensary","Type":"Dispensary","Owner":"Ministry of Health","County":"Isiolo","Sub_County":"Garbatula","Division":"Garbatulla","Location":"Garbatulla South","Sub_Locati":"Garbatulla south","Constituen":"ISIOLO SOUTH","Nearest_To":"Eskot market","Latitude":"0.39654","Longitude":"38.34946"},"geometry":{"type":"Point","coordinates":[38.34946,0.39654]}},{"type":"Feature","properties":{"OBJECTID":"2030","Facility_N":"Gafarsa Health Centre","Type":"Health Centre","Owner":"Ministry of Health","County":"Isiolo","Sub_County":"Garbatula","Division":"Garbatulla","Location":"Garfarsa","Sub_Locati":"Garfarsa","Constituen":"ISIOLO SOUTH","Nearest_To":"Garfarsa","Latitude":"0.93696","Longitude":"38.58865"},"geometry":{"type":"Point","coordinates":[38.58865,0.93696]}},{"type":"Feature","properties":{"OBJECTID":"2064","Facility_N":"Garbatulla District Hospital","Type":"District Hospital","Owner":"Ministry of Health","County":"Isiolo","Sub_County":"Garbatula","Division":"Garbatulla","Location":"Garbatulla","Sub_Locati":"Garbatulla","Constituen":"ISIOLO SOUTH","Nearest_To":"Garbatulla","Latitude":"0.52697","Longitude":"38.51422"},"geometry":{"type":"Point","coordinates":[38.51422,0.52697]}},{"type":"Feature","properties":{"OBJECTID":"2306","Facility_N":"GK Prison Dispensary (Isiolo)","Type":"Dispensary","Owner":"Ministry of Health","County":"Isiolo","Sub_County":"Isiolo","Division":"Central","Location":"Central","Sub_Locati":"Central","Constituen":"ISIOLO NORTH","Nearest_To":"Isiolo","Latitude":"0.35758","Longitude":"37.58541"},"geometry":{"type":"Point","coordinates":[37.58541,0.35758]}},{"type":"Feature","properties":{"OBJECTID":"2806","Facility_N":"Iqra Medical Centre","Type":"Medical Clinic","Owner":"Private Practice - General Practitioner","County":"Isiolo","Sub_County":"Isiolo","Division":"Isiolo","Location":"Central","Sub_Locati":"Wabera","Constituen":"ISIOLO NORTH","Nearest_To":"Isiolo","Latitude":"0.35106","Longitude":"37.58317"},"geometry":{"type":"Point","coordinates":[37.58317,0.35106]}},{"type":"Feature","properties":{"OBJECTID":"2813","Facility_N":"Iresaboru Dispensary","Type":"Dispensary","Owner":"Ministry of Health","County":"Isiolo","Sub_County":"Garbatula","Division":"Sericho","Location":"Iresaboru","Sub_Locati":"Iresaboru","Constituen":"ISIOLO SOUTH","Nearest_To":"Kombola","Latitude":"1.07869","Longitude":"38.84503"},"geometry":{"type":"Point","coordinates":[38.84503,1.07869]}},{"type":"Feature","properties":{"OBJECTID":"2833","Facility_N":"Isiolo Central Medical Clinic","Type":"Medical Clinic","Owner":"Private Practice - Clinical Officer","County":"Isiolo","Sub_County":"Isiolo","Division":"Central","Location":"Central","Sub_Locati":"Central","Constituen":"ISIOLO NORTH","Nearest_To":"Isiolo","Latitude":"0.34917","Longitude":"37.58167"},"geometry":{"type":"Point","coordinates":[37.58167,0.34917]}},{"type":"Feature","properties":{"OBJECTID":"2834","Facility_N":"Isiolo County Beyond Zero Mobile Dispensary","Type":"Dispensary","Owner":"Ministry of Health","County":"Isiolo","Sub_County":"Isiolo","Division":" ","Location":" ","Sub_Locati":" ","Constituen":"ISIOLO SOUTH","Nearest_To":" ","Latitude":"0.215449","Longitude":"37.35202"},"geometry":{"type":"Point","coordinates":[37.35202,0.215449]}},{"type":"Feature","properties":{"OBJECTID":"2835","Facility_N":"Isiolo District Hospital","Type":"District Hospital","Owner":"Ministry of Health","County":"Isiolo","Sub_County":"Isiolo","Division":"Central","Location":"Central","Sub_Locati":"Central","Constituen":"ISIOLO NORTH","Nearest_To":"Isiolo","Latitude":"0.3658","Longitude":"37.58997"},"geometry":{"type":"Point","coordinates":[37.58997,0.3658]}},{"type":"Feature","properties":{"OBJECTID":"2836","Facility_N":"Isiolo Medical Centre","Type":"Medical Clinic","Owner":"Private Practice - General Practitioner","County":"Isiolo","Sub_County":"Isiolo","Division":"Central","Location":"Central","Sub_Locati":"Wabera","Constituen":"ISIOLO NORTH","Nearest_To":"Isiolo","Latitude":"0.351127","Longitude":"37.58475"},"geometry":{"type":"Point","coordinates":[37.58475,0.351127]}},{"type":"Feature","properties":{"OBJECTID":"3363","Facility_N":"Kambi Garba Dispensary","Type":"Dispensary","Owner":"Kenya Episcopal Conference-Catholic Secretariat","County":"Isiolo","Sub_County":"Isiolo","Division":"Central","Location":"West","Sub_Locati":"Central","Constituen":"ISIOLO NORTH","Nearest_To":"Central","Latitude":"0.39473","Longitude":"37.59273"},"geometry":{"type":"Point","coordinates":[37.59273,0.39473]}},{"type":"Feature","properties":{"OBJECTID":"3364","Facility_N":"Kambi Ya Juu Catholic Dispensary (Isiolo)","Type":"Dispensary","Owner":"Kenya Episcopal Conference-Catholic Secretariat","County":"Isiolo","Sub_County":"Isiolo","Division":"Central Isiolo","Location":"West Isiolo","Sub_Locati":"West Isiolo","Constituen":"ISIOLO NORTH","Nearest_To":"Isiolo","Latitude":"0.33587","Longitude":"37.56324"},"geometry":{"type":"Point","coordinates":[37.56324,0.33587]}},{"type":"Feature","properties":{"OBJECTID":"4449","Facility_N":"Kinna Health Centre","Type":"Health Centre","Owner":"Ministry of Health","County":"Isiolo","Sub_County":"Garbatula","Division":"Kinna","Location":"Kinna","Sub_Locati":"Kinna","Constituen":"ISIOLO SOUTH","Nearest_To":"Kinna","Latitude":"0.32042","Longitude":"38.20633"},"geometry":{"type":"Point","coordinates":[38.20633,0.32042]}},{"type":"Feature","properties":{"OBJECTID":"4522","Facility_N":"Kipsing Dispensary","Type":"Dispensary","Owner":"Ministry of Health","County":"Isiolo","Sub_County":"Isiolo","Division":"Oldonyiro","Location":"Kipsing","Sub_Locati":"Kipsing","Constituen":"ISIOLO NORTH","Nearest_To":"Isiolo","Latitude":"0.59842","Longitude":"37.24306"},"geometry":{"type":"Point","coordinates":[37.24306,0.59842]}},{"type":"Feature","properties":{"OBJECTID":"4847","Facility_N":"Korbesa Dispensary","Type":"Dispensary","Owner":"Ministry of Health","County":"Isiolo","Sub_County":"Merti","Division":"Yamicha","Location":"Korbesa","Sub_Locati":"Korbesa","Constituen":"ISIOLO NORTH","Nearest_To":"Merti","Latitude":"1.21253","Longitude":"38.78803"},"geometry":{"type":"Point","coordinates":[38.78803,1.21253]}},{"type":"Feature","properties":{"OBJECTID":"4884","Facility_N":"Kula Mawe Dispensary","Type":"Dispensary","Owner":"Ministry of Health","County":"Isiolo","Sub_County":"Garbatula","Division":"Kinna","Location":"Kula Mawe","Sub_Locati":"Kula Mawe","Constituen":"ISIOLO SOUTH","Nearest_To":"Boji","Latitude":"0.56725","Longitude":"38.19658"},"geometry":{"type":"Point","coordinates":[38.19658,0.56725]}},{"type":"Feature","properties":{"OBJECTID":"4886","Facility_N":"Kulamawe Nursing Home","Type":"Nursing Home","Owner":"Private Practice - Nurse / Midwife","County":"Isiolo","Sub_County":"Isiolo","Division":"Central","Location":"Waso","Sub_Locati":"Waso","Constituen":"ISIOLO NORTH","Nearest_To":"Isiolo","Latitude":"0.33721","Longitude":"37.57303"},"geometry":{"type":"Point","coordinates":[37.57303,0.33721]}},{"type":"Feature","properties":{"OBJECTID":"5087","Facility_N":"Leparua Dispensary","Type":"Dispensary","Owner":"Community","County":"Isiolo","Sub_County":"Isiolo","Division":"Central","Location":"West","Sub_Locati":"Leparua","Constituen":"ISIOLO NORTH","Nearest_To":"Isiolo","Latitude":"0.30443","Longitude":"37.4346"},"geometry":{"type":"Point","coordinates":[37.4346,0.30443]}},{"type":"Feature","properties":{"OBJECTID":"5524","Facility_N":"Malka Daka Dispensary","Type":"Dispensary","Owner":"Ministry of Health","County":"Isiolo","Sub_County":"Garbatula","Division":"Garbatulla","Location":"Malka-Daka","Sub_Locati":"Malka-Daka","Constituen":"ISIOLO SOUTH","Nearest_To":"Malka-Daka","Latitude":"0.83756","Longitude":"38.49281"},"geometry":{"type":"Point","coordinates":[38.49281,0.83756]}},{"type":"Feature","properties":{"OBJECTID":"5525","Facility_N":"Malka Galla Dispensary","Type":"Dispensary","Owner":"Ministry of Health","County":"Isiolo","Sub_County":"Merti","Division":"Yamicha","Location":"Yamicha","Sub_Locati":"Malka Galla","Constituen":"ISIOLO NORTH","Nearest_To":"Isiolo","Latitude":"1.24929","Longitude":"38.82393"},"geometry":{"type":"Point","coordinates":[38.82393,1.24929]}},{"type":"Feature","properties":{"OBJECTID":"5781","Facility_N":"matar-arba","Type":"Dispensary","Owner":"Ministry of Health","County":"Isiolo","Sub_County":"Merti","Division":"Cherab","Location":"Mata-arba","Sub_Locati":"Matar-arba","Constituen":"ISIOLO NORTH","Nearest_To":"Riga","Latitude":"1.093142","Longitude":"38.420842"},"geometry":{"type":"Point","coordinates":[38.420842,1.093142]}},{"type":"Feature","properties":{"OBJECTID":"5788","Facility_N":"Matercare Maternity Hospital","Type":"Other Hospital","Owner":"Kenya Episcopal Conference-Catholic Secretariat","County":"Isiolo","Sub_County":"Isiolo","Division":"Central","Location":"West","Sub_Locati":"Bulapesa","Constituen":"ISIOLO NORTH","Nearest_To":"Isiolo","Latitude":"0.32728","Longitude":"37.56402"},"geometry":{"type":"Point","coordinates":[37.56402,0.32728]}},{"type":"Feature","properties":{"OBJECTID":"6052","Facility_N":"Merti Catholic Dispensary","Type":"Dispensary","Owner":"Kenya Episcopal Conference-Catholic Secretariat","County":"Isiolo","Sub_County":"Merti","Division":"Merti","Location":"Merti Central","Sub_Locati":"Merti C","Constituen":"ISIOLO NORTH","Nearest_To":"Merti","Latitude":"1.10543","Longitude":"38.6332"},"geometry":{"type":"Point","coordinates":[38.6332,1.10543]}},{"type":"Feature","properties":{"OBJECTID":"6053","Facility_N":"Merti Health Centre","Type":"Health Centre","Owner":"Ministry of Health","County":"Isiolo","Sub_County":"Merti","Division":"Merti","Location":"Merti Central","Sub_Locati":"Merti C","Constituen":"ISIOLO NORTH","Nearest_To":"Merti","Latitude":"1.06678","Longitude":"38.66636"},"geometry":{"type":"Point","coordinates":[38.66636,1.06678]}},{"type":"Feature","properties":{"OBJECTID":"6256","Facility_N":"Modogashe Dispensary","Type":"Dispensary","Owner":"Ministry of Health","County":"Isiolo","Sub_County":"Garbatula","Division":"Sericho","Location":"Modagashe","Sub_Locati":"Modagashe","Constituen":"ISIOLO SOUTH","Nearest_To":"Modagashe","Latitude":"0.72978","Longitude":"39.17195"},"geometry":{"type":"Point","coordinates":[39.17195,0.72978]}},{"type":"Feature","properties":{"OBJECTID":"6442","Facility_N":"Muchuro Dispensary","Type":"Dispensary","Owner":"Ministry of Health","County":"Isiolo","Sub_County":"Garbatula","Division":"Garbatulla","Location":"Muchuro","Sub_Locati":"Muchuro","Constituen":"ISIOLO SOUTH","Nearest_To":"Gafarsa","Latitude":"0.72496","Longitude":"39.16936"},"geometry":{"type":"Point","coordinates":[39.16936,0.72496]}},{"type":"Feature","properties":{"OBJECTID":"6977","Facility_N":"Narrapu Dispensary","Type":"Dispensary","Owner":"Community","County":"Isiolo","Sub_County":"Isiolo","Division":"Oldonyiro","Location":"Oldonyiro","Sub_Locati":"Oldonyiro","Constituen":"ISIOLO NORTH","Nearest_To":"Isiolo","Latitude":"0.61001","Longitude":"36.95726"},"geometry":{"type":"Point","coordinates":[36.95726,0.61001]}},{"type":"Feature","properties":{"OBJECTID":"7183","Facility_N":"Ngaremara Dispensary","Type":"Dispensary","Owner":"Christian Health Association of Kenya","County":"Isiolo","Sub_County":"Isiolo","Division":"Central","Location":"Ngaremara","Sub_Locati":"Ngaremara","Constituen":"ISIOLO NORTH","Nearest_To":"Ngaremara","Latitude":"0.58215","Longitude":"37.6419"},"geometry":{"type":"Point","coordinates":[37.6419,0.58215]}},{"type":"Feature","properties":{"OBJECTID":"7699","Facility_N":"Oldonyiro Dispensary (Isiolo)","Type":"Dispensary","Owner":"Ministry of Health","County":"Isiolo","Sub_County":"Isiolo","Division":"Oldonyiro","Location":"Oldonyiro","Sub_Locati":"Oldonyiro","Constituen":"ISIOLO NORTH","Nearest_To":"Oldonyiro","Latitude":"0.64913","Longitude":"36.9938"},"geometry":{"type":"Point","coordinates":[36.9938,0.64913]}},{"type":"Feature","properties":{"OBJECTID":"7966","Facility_N":"Pepo La Tumaini Dispensary","Type":"Dispensary","Owner":"Community","County":"Isiolo","Sub_County":"Isiolo","Division":"Central","Location":"Central","Sub_Locati":"Bulapesa","Constituen":"ISIOLO NORTH","Nearest_To":"Isiolo","Latitude":"0.33345","Longitude":"37.57302"},"geometry":{"type":"Point","coordinates":[37.57302,0.33345]}},{"type":"Feature","properties":{"OBJECTID":"8184","Facility_N":"Rapsu Dispensary","Type":"Dispensary","Owner":"Ministry of Health","County":"Isiolo","Sub_County":"Garbatula","Division":"Kinna","Location":"Rapsu","Sub_Locati":"Rapsu","Constituen":"ISIOLO SOUTH","Nearest_To":"Rapsu","Latitude":"0.2577","Longitude":"38.24428"},"geometry":{"type":"Point","coordinates":[38.24428,0.2577]}},{"type":"Feature","properties":{"OBJECTID":"8478","Facility_N":"Samburu Complex","Type":"Dispensary","Owner":"Ministry of Health","County":"Isiolo","Sub_County":"Isiolo","Division":"Central","Location":"Ngaremara","Sub_Locati":"Ngaremara","Constituen":"ISIOLO NORTH","Nearest_To":"Ngaremara","Latitude":"0.62203","Longitude":"37.68223"},"geometry":{"type":"Point","coordinates":[37.68223,0.62203]}},{"type":"Feature","properties":{"OBJECTID":"8594","Facility_N":"Sericho Health Centre","Type":"Health Centre","Owner":"Ministry of Health","County":"Isiolo","Sub_County":"Garbatula","Division":"Sericho","Location":"Sericho","Sub_Locati":"Sericho","Constituen":"ISIOLO SOUTH","Nearest_To":"Sericho","Latitude":"1.13778","Longitude":"39.10453"},"geometry":{"type":"Point","coordinates":[39.10453,1.13778]}},{"type":"Feature","properties":{"OBJECTID":"9737","Facility_N":"Tupendane Dispensary","Type":"Dispensary","Owner":"Community","County":"Isiolo","Sub_County":"Isiolo","Division":"Central","Location":"West","Sub_Locati":"Bulapesa","Constituen":"ISIOLO NORTH","Nearest_To":"Isiolo","Latitude":"0.35328","Longitude":"37.56051"},"geometry":{"type":"Point","coordinates":[37.56051,0.35328]}}]}