{"type":"FeatureCollection","features":[{"type":"Feature","properties":{"OBJECTID":"56","Facility_N":"ADC Danisa Dispensary","Type":"Dispensary","Owner":"Non-Governmental Organizations","County":"Kilifi","Sub_County":"Malindi","Division":"Lango Baya","Location":"Chakama","Sub_Locati":"Kisiki Cha Mgiriama","Constituen":"MALINDI","Nearest_To":"Lango baya","Latitude":"-3.05351","Longitude":"39.50986"},"geometry":{"type":"Point","coordinates":[39.50986,-3.05351]}},{"type":"Feature","properties":{"OBJECTID":"63","Facility_N":"Adu Dispensary","Type":"Dispensary","Owner":"Ministry of Health","County":"Kilifi","Sub_County":"Magarini","Division":"Marafa","Location":"Adu","Sub_Locati":"Adu","Constituen":"MAGARINI","Nearest_To":"Malindi","Latitude":"-2.83976","Longitude":"39.98014"},"geometry":{"type":"Point","coordinates":[39.98014,-2.83976]}},{"type":"Feature","properties":{"OBJECTID":"71","Facility_N":"African Muslim Agency- Matsangoni","Type":"Dispensary","Owner":"Supreme Council for Kenya Muslims","County":"Kilifi","Sub_County":"Kilifi North","Division":"Bahari","Location":"Matsangoni","Sub_Locati":"Matsangoni","Constituen":"BAHARI","Nearest_To":"Matsangoni","Latitude":"-3.23366","Longitude":"39.55701"},"geometry":{"type":"Point","coordinates":[39.55701,-3.23366]}},{"type":"Feature","properties":{"OBJECTID":"84","Facility_N":"Afya Bora Medical Clinic (Malindi)","Type":"Medical Clinic","Owner":"Private Practice - Nurse / Midwife","County":"Kilifi","Sub_County":"Magarini","Division":"Magarini","Location":"Fundi Issa","Sub_Locati":"Marereni","Constituen":"MAGARINI","Nearest_To":"Malindi","Latitude":"-2.86282","Longitude":"40.1482"},"geometry":{"type":"Point","coordinates":[40.1482,-2.86282]}},{"type":"Feature","properties":{"OBJECTID":"158","Facility_N":"Ahadi Medical Clinic","Type":"Medical Clinic","Owner":"Private Practice - Nurse / Midwife","County":"Kilifi","Sub_County":"Kaloleni","Division":"Mariakani","Location":"Mariakani","Sub_Locati":"Mariakani","Constituen":"KALOLENI","Nearest_To":"Mariakani","Latitude":"-3.83283","Longitude":"39.4514"},"geometry":{"type":"Point","coordinates":[39.4514,-3.83283]}},{"type":"Feature","properties":{"OBJECTID":"222","Facility_N":"Al-Amin Medical Clinic","Type":"Medical Clinic","Owner":"Private Practice - Clinical Officer","County":"Kilifi","Sub_County":"Malindi","Division":"Malindi","Location":"Malindi","Sub_Locati":"Central","Constituen":"MALINDI","Nearest_To":"Malindi","Latitude":"-3.21457","Longitude":"40.11477"},"geometry":{"type":"Point","coordinates":[40.11477,-3.21457]}},{"type":"Feature","properties":{"OBJECTID":"295","Facility_N":"Amani Medical Clinic (Kilifi)","Type":"Medical Clinic","Owner":"Private Enterprise (Institution)","County":"Kilifi","Sub_County":"Kilifi North","Division":"Bahari","Location":"Kilifi Township","Sub_Locati":"Mnarani","Constituen":"BAHARI","Nearest_To":"Kilifi","Latitude":"-3.64157","Longitude":"39.84783"},"geometry":{"type":"Point","coordinates":[39.84783,-3.64157]}},{"type":"Feature","properties":{"OBJECTID":"297","Facility_N":"Amani Medical Clinic (Malindi)","Type":"Medical Clinic","Owner":"Private Practice - Nurse / Midwife","County":"Kilifi","Sub_County":"Magarini","Division":"Magarini","Location":"Fundi Issa","Sub_Locati":"Marereni","Constituen":"MAGARINI","Nearest_To":"Marereni","Latitude":"-2.86064","Longitude":"40.08492"},"geometry":{"type":"Point","coordinates":[40.08492,-2.86064]}},{"type":"Feature","properties":{"OBJECTID":"313","Facility_N":"Amina Medical Clinic","Type":"Medical Clinic","Owner":"Private Practice - Nurse / Midwife","County":"Kilifi","Sub_County":"Kilifi South","Division":"Kikambala","Location":"Kikambala","Sub_Locati":"Kikambala","Constituen":"BAHARI","Nearest_To":"Kikimbala market","Latitude":"-3.89126","Longitude":"39.77954"},"geometry":{"type":"Point","coordinates":[39.77954,-3.89126]}},{"type":"Feature","properties":{"OBJECTID":"322","Facility_N":"Amurt Health care Centre (Malindi)","Type":"Health Centre","Owner":"Non-Governmental Organizations","County":"Kilifi","Sub_County":"Malindi","Division":"Malindi","Location":"Malindi","Sub_Locati":"Shella","Constituen":"MALINDI","Nearest_To":"Shella","Latitude":"-3.22482","Longitude":"40.12517"},"geometry":{"type":"Point","coordinates":[40.12517,-3.22482]}},{"type":"Feature","properties":{"OBJECTID":"492","Facility_N":"Bakhita Dispensary","Type":"Medical Clinic","Owner":"Non-Governmental Organizations","County":"Kilifi","Sub_County":"Malindi","Division":"Malindi","Location":"Watamu","Sub_Locati":"Jimba","Constituen":"MALINDI","Nearest_To":"Mayungu","Latitude":"-3.17445","Longitude":"40.06918"},"geometry":{"type":"Point","coordinates":[40.06918,-3.17445]}},{"type":"Feature","properties":{"OBJECTID":"502","Facility_N":"Bamba Medical Clinic","Type":"Medical Clinic","Owner":"Private Enterprise (Institution)","County":"Kilifi","Sub_County":"Ganze","Division":"Bamba","Location":"Bamba","Sub_Locati":"Kaziani","Constituen":"GANZE","Nearest_To":"Bamba","Latitude":"-3.54347","Longitude":"39.522"},"geometry":{"type":"Point","coordinates":[39.522,-3.54347]}},{"type":"Feature","properties":{"OBJECTID":"503","Facility_N":"Bamba Sub-District Hospital","Type":"Sub-District Hospital","Owner":"Ministry of Health","County":"Kilifi","Sub_County":"Ganze","Division":"Bamba","Location":"Bamba","Sub_Locati":"Paziani","Constituen":"GANZE","Nearest_To":"Bamba Market","Latitude":"-3.545332","Longitude":"39.523595"},"geometry":{"type":"Point","coordinates":[39.523595,-3.545332]}},{"type":"Feature","properties":{"OBJECTID":"518","Facility_N":"Baobab Medical Clinic","Type":"Medical Clinic","Owner":"Private Practice - Clinical Officer","County":"Kilifi","Sub_County":"Kaloleni","Division":"Mariakani","Location":"Mariakani","Sub_Locati":"Mitangoni","Constituen":"KALOLENI","Nearest_To":"Mariakani","Latitude":"-3.85775","Longitude":"39.47657"},"geometry":{"type":"Point","coordinates":[39.47657,-3.85775]}},{"type":"Feature","properties":{"OBJECTID":"519","Facility_N":"Baolala Dispensary","Type":"Dispensary","Owner":"Ministry of Health","County":"Kilifi","Sub_County":"Malindi","Division":"Malindi","Location":"Langobaya","Sub_Locati":"Langobaya","Constituen":"MALINDI","Nearest_To":"Makobeni","Latitude":"-3.17962","Longitude":"39.78562"},"geometry":{"type":"Point","coordinates":[39.78562,-3.17962]}},{"type":"Feature","properties":{"OBJECTID":"564","Facility_N":"Baricho Dispensary (Malindi)","Type":"Dispensary","Owner":"Ministry of Health","County":"Kilifi","Sub_County":"Magarini","Division":"Marafa","Location":"Bungale","Sub_Locati":"Baricho","Constituen":"MAGARINI","Nearest_To":"Malindi","Latitude":"-3.10339","Longitude":"39.78478"},"geometry":{"type":"Point","coordinates":[39.78478,-3.10339]}},{"type":"Feature","properties":{"OBJECTID":"610","Facility_N":"Bengo Medical Clinic","Type":"Medical Clinic","Owner":"Private Practice - Clinical Officer","County":"Kilifi","Sub_County":"Rabai","Division":"Rabai","Location":"Rabai","Sub_Locati":"Simakeni","Constituen":"KALOLENI","Nearest_To":"Mazeras","Latitude":"-3.92993","Longitude":"39.56932"},"geometry":{"type":"Point","coordinates":[39.56932,-3.92993]}},{"type":"Feature","properties":{"OBJECTID":"644","Facility_N":"Better off Knowing Stand Alone VCT Centre (Liverpo","Type":"VCT Centre (Stand-Alone)","Owner":"Other Public Institution","County":"Kilifi","Sub_County":"Malindi","Division":"Malindi","Location":"Malindi","Sub_Locati":"Barani","Constituen":"MALINDI","Nearest_To":"Malindi","Latitude":"-3.22413","Longitude":"40.0883"},"geometry":{"type":"Point","coordinates":[40.0883,-3.22413]}},{"type":"Feature","properties":{"OBJECTID":"685","Facility_N":"Blue Nile Medical Clinic","Type":"Medical Clinic","Owner":"Private Practice - Nurse / Midwife","County":"Kilifi","Sub_County":"Kilifi North","Division":"Bahari","Location":"Sokoni","Sub_Locati":"Township","Constituen":"BAHARI","Nearest_To":"Kilifi","Latitude":"-3.60981","Longitude":"39.85414"},"geometry":{"type":"Point","coordinates":[39.85414,-3.60981]}},{"type":"Feature","properties":{"OBJECTID":"709","Facility_N":"Bomani Dispensary","Type":"Dispensary","Owner":"Ministry of Health","County":"Kilifi","Sub_County":"Kilifi South","Division":"Kikambala","Location":"Mtwapa","Sub_Locati":"Kanamai","Constituen":"BAHARI","Nearest_To":"Majengo","Latitude":"-3.88414","Longitude":"39.74945"},"geometry":{"type":"Point","coordinates":[39.74945,-3.88414]}},{"type":"Feature","properties":{"OBJECTID":"711","Facility_N":"Bombi Dispensary","Type":"Dispensary","Owner":"Ministry of Health","County":"Kilifi","Sub_County":"Malindi","Division":"Langobaya","Location":"Chakama","Sub_Locati":"Matolani","Constituen":"MALINDI","Nearest_To":"Shakahola","Latitude":"-3.07925","Longitude":"39.47874"},"geometry":{"type":"Point","coordinates":[39.47874,-3.07925]}},{"type":"Feature","properties":{"OBJECTID":"713","Facility_N":"Bombululu Medical Clinic","Type":"Medical Clinic","Owner":"Private Practice - Clinical Officer","County":"Kilifi","Sub_County":"Kaloleni","Division":"Kaloleni","Location":"Kaloleni","Sub_Locati":"Kaloleni","Constituen":"KALOLENI","Nearest_To":"Kaloleni","Latitude":"-3.81572","Longitude":"39.62915"},"geometry":{"type":"Point","coordinates":[39.62915,-3.81572]}},{"type":"Feature","properties":{"OBJECTID":"718","Facility_N":"Bomu Medical Centre (Mariakani)","Type":"Health Centre","Owner":"Non-Governmental Organizations","County":"Kilifi","Sub_County":"Kaloleni","Division":"Mariakani","Location":"Mariakani","Sub_Locati":"Mitangoni","Constituen":"KALOLENI","Nearest_To":"Mariakani","Latitude":"-3.87523","Longitude":"39.48301"},"geometry":{"type":"Point","coordinates":[39.48301,-3.87523]}},{"type":"Feature","properties":{"OBJECTID":"743","Facility_N":"Bore Singwaya Dispensary","Type":"Dispensary","Owner":"Community Development Fund","County":"Kilifi","Sub_County":"Magarini","Division":"Marafa","Location":"Garashi","Sub_Locati":"Singwaya","Constituen":"MAGARINI","Nearest_To":"Garashi","Latitude":"-3.05256","Longitude":"39.90663"},"geometry":{"type":"Point","coordinates":[39.90663,-3.05256]}},{"type":"Feature","properties":{"OBJECTID":"861","Facility_N":"Bwagamoyo Dispensary","Type":"Dispensary","Owner":"Ministry of Health","County":"Kilifi","Sub_County":"Rabai","Division":"Rabai","Location":"Mwawesa","Sub_Locati":"Bwagamoyo","Constituen":"KALOLENI","Nearest_To":"Mazeras","Latitude":"-3.9402","Longitude":"39.64462"},"geometry":{"type":"Point","coordinates":[39.64462,-3.9402]}},{"type":"Feature","properties":{"OBJECTID":"937","Facility_N":"Chakama Dispensary","Type":"Dispensary","Owner":"Ministry of Health","County":"Kilifi","Sub_County":"Malindi","Division":"Langobaya","Location":"Chakama","Sub_Locati":"Makongeni","Constituen":"MALINDI","Nearest_To":"Chakama","Latitude":"-3.122","Longitude":"39.63333"},"geometry":{"type":"Point","coordinates":[39.63333,-3.122]}},{"type":"Feature","properties":{"OBJECTID":"939","Facility_N":"Chalani Dispensary","Type":"Dispensary","Owner":"Ministry of Health","County":"Kilifi","Sub_County":"Kaloleni","Division":"Kaloleni","Location":"Chanagande","Sub_Locati":"Chalani-Mihingoni","Constituen":"KALOLENI","Nearest_To":"Chanagande","Latitude":"-3.75508","Longitude":"39.63076"},"geometry":{"type":"Point","coordinates":[39.63076,-3.75508]}},{"type":"Feature","properties":{"OBJECTID":"945","Facility_N":"Chamari CDF Dispensary","Type":"Dispensary","Owner":"Ministry of Health","County":"Kilifi","Sub_County":"Magarini","Division":"Marafa","Location":"Marafa","Sub_Locati":"Madina","Constituen":"MAGARINI","Nearest_To":"Marafa shopping centre","Latitude":"-3.02272","Longitude":"40.08256"},"geometry":{"type":"Point","coordinates":[40.08256,-3.02272]}},{"type":"Feature","properties":{"OBJECTID":"946","Facility_N":"Chamari Dispensary","Type":"Dispensary","Owner":"Community","County":"Kilifi","Sub_County":"Magarini","Division":"Marafa","Location":"Marafa","Sub_Locati":"Bore","Constituen":"MAGARINI","Nearest_To":"Chamari","Latitude":"-2.90266","Longitude":"39.89741"},"geometry":{"type":"Point","coordinates":[39.89741,-2.90266]}},{"type":"Feature","properties":{"OBJECTID":"962","Facility_N":"Chasimba Health Centre","Type":"Health Centre","Owner":"Ministry of Health","County":"Kilifi","Sub_County":"Kilifi South","Division":"Chonyi","Location":"Chasimba","Sub_Locati":"Chasimba","Constituen":"BAHARI","Nearest_To":"Chasimba","Latitude":"-3.73513","Longitude":"39.70028"},"geometry":{"type":"Point","coordinates":[39.70028,-3.73513]}},{"type":"Feature","properties":{"OBJECTID":"1018","Facility_N":"Chemichemi Medical Clinic","Type":"Medical Clinic","Owner":"Private Practice - Nurse / Midwife","County":"Kilifi","Sub_County":"Malindi","Division":"Malindi","Location":"Ganda","Sub_Locati":"Mere","Constituen":"MALINDI","Nearest_To":"Ganda","Latitude":"-3.13593","Longitude":"40.0175"},"geometry":{"type":"Point","coordinates":[40.0175,-3.13593]}},{"type":"Feature","properties":{"OBJECTID":"1159","Facility_N":"Chimbiriro Clinic","Type":"Medical Clinic","Owner":"Private Practice - Clinical Officer","County":"Kilifi","Sub_County":"Magarini","Division":"Magarini","Location":"Fundi Issa","Sub_Locati":"Marereni","Constituen":"MAGARINI","Nearest_To":"Marereni","Latitude":"-2.86519","Longitude":"40.08803"},"geometry":{"type":"Point","coordinates":[40.08803,-2.86519]}},{"type":"Feature","properties":{"OBJECTID":"1165","Facility_N":"Chizi Medical Clinic","Type":"Medical Clinic","Owner":"Private Enterprise (Institution)","County":"Kilifi","Sub_County":"Kilifi South","Division":"Chonyi","Location":"Chasimba","Sub_Locati":"Chasimba","Constituen":"BAHARI","Nearest_To":"Chasimba","Latitude":"-3.74677","Longitude":"39.68632"},"geometry":{"type":"Point","coordinates":[39.68632,-3.74677]}},{"type":"Feature","properties":{"OBJECTID":"1189","Facility_N":"Chumani Medical Clinic","Type":"Medical Clinic","Owner":"Private Practice - Clinical Officer","County":"Kilifi","Sub_County":"Kilifi North","Division":"Bahari","Location":"Roka","Sub_Locati":"Chumani","Constituen":"BAHARI","Nearest_To":"Matsangoni","Latitude":"-3.47405","Longitude":"39.8989"},"geometry":{"type":"Point","coordinates":[39.8989,-3.47405]}},{"type":"Feature","properties":{"OBJECTID":"1269","Facility_N":"Cowdray Dispensary","Type":"Dispensary","Owner":"Ministry of Health","County":"Kilifi","Sub_County":"Kilifi North","Division":"Malindi","Location":"Watamu","Sub_Locati":"Chembe Kibabamche","Constituen":"MALINDI","Nearest_To":"Mbarakachembe","Latitude":"-3.28859","Longitude":"40.07671"},"geometry":{"type":"Point","coordinates":[40.07671,-3.28859]}},{"type":"Feature","properties":{"OBJECTID":"1302","Facility_N":"Dagamra Dispensary","Type":"Dispensary","Owner":"Ministry of Health","County":"Kilifi","Sub_County":"Magarini","Division":"Marafa","Location":"Dagamra","Sub_Locati":"Bate","Constituen":"MAGARINI","Nearest_To":"Bate","Latitude":"-3.14893","Longitude":"39.91768"},"geometry":{"type":"Point","coordinates":[39.91768,-3.14893]}},{"type":"Feature","properties":{"OBJECTID":"1303","Facility_N":"Dagamra Medical Clinic","Type":"Medical Clinic","Owner":"Private Practice - Clinical Officer","County":"Kilifi","Sub_County":"Rabai","Division":"Rabai","Location":"Rabai","Sub_Locati":"Kaliang'ombe","Constituen":"KALOLENI","Nearest_To":"Kokotoni","Latitude":"-3.92117","Longitude":"39.53951"},"geometry":{"type":"Point","coordinates":[39.53951,-3.92117]}},{"type":"Feature","properties":{"OBJECTID":"1330","Facility_N":"Danrose Clinic","Type":"Medical Clinic","Owner":"Private Practice - Nurse / Midwife","County":"Kilifi","Sub_County":"Malindi","Division":"Malindi","Location":"Malindi","Sub_Locati":"Barani","Constituen":"MALINDI","Nearest_To":"Malindi","Latitude":"-3.23561","Longitude":"40.09756"},"geometry":{"type":"Point","coordinates":[40.09756,-3.23561]}},{"type":"Feature","properties":{"OBJECTID":"1338","Facility_N":"David Kariuki Medical Centre","Type":"Medical Clinic","Owner":"Private Practice - Clinical Officer","County":"Kilifi","Sub_County":"Malindi","Division":"Malindi","Location":"Malindi","Sub_Locati":"Shella","Constituen":"MALINDI","Nearest_To":"Malindi Old Market,behind in Kwa Jiwa area near mlimawa","Latitude":"-3.21872","Longitude":"40.12152"},"geometry":{"type":"Point","coordinates":[40.12152,-3.21872]}},{"type":"Feature","properties":{"OBJECTID":"1369","Facility_N":"Deteni Medical Clinic","Type":"Medical Clinic","Owner":"Private Practice - Clinical Officer","County":"Kilifi","Sub_County":"Rabai","Division":"Rabai","Location":"Rabai","Sub_Locati":"Mgumo wa Patsa","Constituen":"KALOLENI","Nearest_To":"Mazeras","Latitude":"-3.94773","Longitude":"39.56164"},"geometry":{"type":"Point","coordinates":[39.56164,-3.94773]}},{"type":"Feature","properties":{"OBJECTID":"1380","Facility_N":"Dida Dispensary","Type":"Dispensary","Owner":"Ministry of Health","County":"Kilifi","Sub_County":"Ganze","Division":"Vitengeni","Location":"Sokoke","Sub_Locati":"Dida","Constituen":"GANZE","Nearest_To":"Vitengeni","Latitude":"-3.42885","Longitude":"39.80529"},"geometry":{"type":"Point","coordinates":[39.80529,-3.42885]}},{"type":"Feature","properties":{"OBJECTID":"1401","Facility_N":"Doctors Worldwide Muallafatul Qulub Medical Centre","Type":"Medical Clinic","Owner":"Non-Governmental Organizations","County":"Kilifi","Sub_County":"Malindi","Division":"Malindi","Location":"Goshi","Sub_Locati":"Kakuyuni","Constituen":"MALINDI","Nearest_To":"Kakuyuni","Latitude":"-3.22333","Longitude":"39.99863"},"geometry":{"type":"Point","coordinates":[39.99863,-3.22333]}},{"type":"Feature","properties":{"OBJECTID":"1432","Facility_N":"Dr Bernad M Oduor Clinic","Type":"Medical Clinic","Owner":"Private Practice - Unspecified","County":"Kilifi","Sub_County":"Malindi","Division":"Malindi","Location":"Malindi","Sub_Locati":"Barani","Constituen":"MALINDI","Nearest_To":"Malindi","Latitude":"-3.21718","Longitude":"40.11979"},"geometry":{"type":"Point","coordinates":[40.11979,-3.21718]}},{"type":"Feature","properties":{"OBJECTID":"1438","Facility_N":"Dr Dosajee Medical Clinic","Type":"Medical Clinic","Owner":"Private Practice - Unspecified","County":"Kilifi","Sub_County":"Malindi","Division":"Malindi","Location":"Malindi","Sub_Locati":"Barani","Constituen":"MALINDI","Nearest_To":"Malindi","Latitude":"-3.13066","Longitude":"40.07114"},"geometry":{"type":"Point","coordinates":[40.07114,-3.13066]}},{"type":"Feature","properties":{"OBJECTID":"1439","Facility_N":"Dr Dz Shaudia Clinic","Type":"Medical Clinic","Owner":"Private Practice - Unspecified","County":"Kilifi","Sub_County":"Malindi","Division":"Malindi","Location":"Malindi","Sub_Locati":"Barani","Constituen":"MALINDI","Nearest_To":"Malindi","Latitude":"-3.22413","Longitude":"40.0883"},"geometry":{"type":"Point","coordinates":[40.0883,-3.22413]}},{"type":"Feature","properties":{"OBJECTID":"1525","Facility_N":"Dr Mustafa Kamani Clinic","Type":"Medical Clinic","Owner":"Private Practice - General Practitioner","County":"Kilifi","Sub_County":"Malindi","Division":"Malindi","Location":"Malindi","Sub_Locati":"Central","Constituen":"MALINDI","Nearest_To":"Malindi","Latitude":"-3.34525","Longitude":"39.96865"},"geometry":{"type":"Point","coordinates":[39.96865,-3.34525]}},{"type":"Feature","properties":{"OBJECTID":"1582","Facility_N":"Dr Yunus Clinic","Type":"Medical Clinic","Owner":"Private Practice - Medical Specialist","County":"Kilifi","Sub_County":"Malindi","Division":"Malindi","Location":"Malindi","Sub_Locati":"Central","Constituen":"MALINDI","Nearest_To":"Malindi","Latitude":"-3.20941","Longitude":"40.11346"},"geometry":{"type":"Point","coordinates":[40.11346,-3.20941]}},{"type":"Feature","properties":{"OBJECTID":"1605","Facility_N":"Dungicha Dispensary","Type":"Dispensary","Owner":"Ministry of Health","County":"Kilifi","Sub_County":"Ganze","Division":"Ganze","Location":"Dungicha","Sub_Locati":"Dungicha","Constituen":"GANZE","Nearest_To":"Dungicha","Latitude":"-3.47237","Longitude":"39.65981"},"geometry":{"type":"Point","coordinates":[39.65981,-3.47237]}},{"type":"Feature","properties":{"OBJECTID":"1610","Facility_N":"Dzanikeni Medical Clinic","Type":"Medical Clinic","Owner":"Private Practice - Nurse / Midwife","County":"Kilifi","Sub_County":"Rabai","Division":"Rabai","Location":"Ruruma","Sub_Locati":"Mleji","Constituen":"KALOLENI","Nearest_To":"Dzanikeni village","Latitude":"-3.85514","Longitude":"39.60708"},"geometry":{"type":"Point","coordinates":[39.60708,-3.85514]}},{"type":"Feature","properties":{"OBJECTID":"1611","Facility_N":"Dzikunze Dispensary","Type":"Dispensary","Owner":"Ministry of Health","County":"Kilifi","Sub_County":"Ganze","Division":"Vitengeni","Location":"Mwahera","Sub_Locati":"Dzikunze","Constituen":"GANZE","Nearest_To":"Vitenegeni","Latitude":"-3.29437","Longitude":"39.74882"},"geometry":{"type":"Point","coordinates":[39.74882,-3.29437]}},{"type":"Feature","properties":{"OBJECTID":"1612","Facility_N":"Dzitsoni Medical Clinic","Type":"Medical Clinic","Owner":"Private Enterprise (Institution)","County":"Kilifi","Sub_County":"Kilifi North","Division":"Bahari","Location":"Township","Sub_Locati":"Mnarani","Constituen":"BAHARI","Nearest_To":"Mnarani","Latitude":"-3.64227","Longitude":"39.84997"},"geometry":{"type":"Point","coordinates":[39.84997,-3.64227]}},{"type":"Feature","properties":{"OBJECTID":"1633","Facility_N":"Ebenezer Medical Clinic (Malindi)","Type":"Medical Clinic","Owner":"Private Practice - Nurse / Midwife","County":"Kilifi","Sub_County":"Malindi","Division":"Malindi","Location":"Malindi","Sub_Locati":"Barani","Constituen":"MALINDI","Nearest_To":"Malindi","Latitude":"-3.21881","Longitude":"40.1053"},"geometry":{"type":"Point","coordinates":[40.1053,-3.21881]}},{"type":"Feature","properties":{"OBJECTID":"1665","Facility_N":"Egah Medical Clinic","Type":"Medical Clinic","Owner":"Private Practice - Clinical Officer","County":"Kilifi","Sub_County":"Malindi","Division":"Malindi","Location":"Malindi","Sub_Locati":"BaranI","Constituen":"MALINDI","Nearest_To":"Malindi","Latitude":"-3.22176","Longitude":"40.11403"},"geometry":{"type":"Point","coordinates":[40.11403,-3.22176]}},{"type":"Feature","properties":{"OBJECTID":"1921","Facility_N":"Family Care Medical Centre","Type":"Medical Centre","Owner":"Private Practice - Nurse / Midwife","County":"Kilifi","Sub_County":"Malindi","Division":"Malindi","Location":"Malindi","Sub_Locati":"Central","Constituen":"MALINDI","Nearest_To":"Malindi","Latitude":"-3.21457","Longitude":"40.11477"},"geometry":{"type":"Point","coordinates":[40.11477,-3.21457]}},{"type":"Feature","properties":{"OBJECTID":"1943","Facility_N":"Family Medical Centre (Malindi)","Type":"Medical Clinic","Owner":"Private Practice - Clinical Officer","County":"Kilifi","Sub_County":"Malindi","Division":"Malindi","Location":"Watamu","Sub_Locati":"Watamu","Constituen":"MALINDI","Nearest_To":"Watamu","Latitude":"-3.21486","Longitude":"40.00404"},"geometry":{"type":"Point","coordinates":[40.00404,-3.21486]}},{"type":"Feature","properties":{"OBJECTID":"2009","Facility_N":"Fundi Issa Dispensary","Type":"Dispensary","Owner":"Ministry of Health","County":"Kilifi","Sub_County":"Magarini","Division":"Magarini","Location":"Fundi Issa","Sub_Locati":"Fundi Issa","Constituen":"MAGARINI","Nearest_To":"Gongoni Market","Latitude":"-2.92982","Longitude":"40.09493"},"geometry":{"type":"Point","coordinates":[40.09493,-2.92982]}},{"type":"Feature","properties":{"OBJECTID":"2032","Facility_N":"Gahaleni Dispensary","Type":"Dispensary","Owner":"Ministry of Health","County":"Kilifi","Sub_County":"Malindi","Division":"Malindi","Location":"Malindi","Sub_Locati":"Kijiwe Tanga","Constituen":"MALINDI","Nearest_To":"Malindi","Latitude":"-3.27017","Longitude":"40.0951"},"geometry":{"type":"Point","coordinates":[40.0951,-3.27017]}},{"type":"Feature","properties":{"OBJECTID":"2048","Facility_N":"Galana Hospital","Type":"Medical Clinic","Owner":"Private Practice - Clinical Officer","County":"Kilifi","Sub_County":"Malindi","Division":"Malindi","Location":"Malindi","Sub_Locati":"Sabaki","Constituen":"MALINDI","Nearest_To":"Malindi","Latitude":"-3.11844","Longitude":"40.06987"},"geometry":{"type":"Point","coordinates":[40.06987,-3.11844]}},{"type":"Feature","properties":{"OBJECTID":"2055","Facility_N":"Ganda Dispensary","Type":"Dispensary","Owner":"Ministry of Health","County":"Kilifi","Sub_County":"Malindi","Division":"Malindi","Location":"Ganda","Sub_Locati":"Ganda","Constituen":"MALINDI","Nearest_To":"Ganda","Latitude":"-3.21609","Longitude":"40.06558"},"geometry":{"type":"Point","coordinates":[40.06558,-3.21609]}},{"type":"Feature","properties":{"OBJECTID":"2056","Facility_N":"Gandini Dispensary","Type":"Dispensary","Owner":"Ministry of Health","County":"Kilifi","Sub_County":"Magarini","Division":"Marafa","Location":"Bungale","Sub_Locati":"Gandini","Constituen":"MAGARINI","Nearest_To":"Baricho","Latitude":"-2.577","Longitude":"40.00037"},"geometry":{"type":"Point","coordinates":[40.00037,-2.577]}},{"type":"Feature","properties":{"OBJECTID":"2061","Facility_N":"Ganze Health Centre","Type":"Health Centre","Owner":"Ministry of Health","County":"Kilifi","Sub_County":"Ganze","Division":"Ganze","Location":"Ganze","Sub_Locati":"Ganze","Constituen":"GANZE","Nearest_To":"Ganze","Latitude":"-3.542621","Longitude":"39.691999"},"geometry":{"type":"Point","coordinates":[39.691999,-3.542621]}},{"type":"Feature","properties":{"OBJECTID":"2063","Facility_N":"Garashi Dispensary","Type":"Dispensary","Owner":"Ministry of Health","County":"Kilifi","Sub_County":"Magarini","Division":"Marafa","Location":"Garashi","Sub_Locati":"Mikuyuni","Constituen":"MAGARINI","Nearest_To":"Garashi Trading Center","Latitude":"-3.13088","Longitude":"39.8913"},"geometry":{"type":"Point","coordinates":[39.8913,-3.13088]}},{"type":"Feature","properties":{"OBJECTID":"2138","Facility_N":"Gede Health Centre","Type":"Health Centre","Owner":"Ministry of Health","County":"Kilifi","Sub_County":"Kilifi North","Division":"Malindi","Location":"Gede","Sub_Locati":"Dabaso","Constituen":"MALINDI","Nearest_To":"Gede","Latitude":"-3.30853","Longitude":"40.01106"},"geometry":{"type":"Point","coordinates":[40.01106,-3.30853]}},{"type":"Feature","properties":{"OBJECTID":"2139","Facility_N":"Gede Medical Clinic","Type":"Medical Clinic","Owner":"Private Enterprise (Institution)","County":"Kilifi","Sub_County":"Kilifi North","Division":"Malindi","Location":"Gede","Sub_Locati":"Dabaso","Constituen":"MALINDI","Nearest_To":"Malindi","Latitude":"-3.34284","Longitude":"40.01311"},"geometry":{"type":"Point","coordinates":[40.01311,-3.34284]}},{"type":"Feature","properties":{"OBJECTID":"2228","Facility_N":"Giriama Mission Dispensary","Type":"Dispensary","Owner":"Kenya Episcopal Conference-Catholic Secretariat","County":"Kilifi","Sub_County":"Kaloleni","Division":"Kaloleni","Location":"Kaloleni","Sub_Locati":"Maluweni","Constituen":"KALOLENI","Nearest_To":"Kaloleni","Latitude":"-3.81442","Longitude":"39.58588"},"geometry":{"type":"Point","coordinates":[39.58588,-3.81442]}},{"type":"Feature","properties":{"OBJECTID":"2298","Facility_N":"GK Prison Clinic","Type":"Medical Clinic","Owner":"Ministry of Health","County":"Kilifi","Sub_County":"Malindi","Division":"Malindi","Location":"Malindi","Sub_Locati":"Central","Constituen":"MALINDI","Nearest_To":"Mtangani","Latitude":"-3.11752","Longitude":"40.05168"},"geometry":{"type":"Point","coordinates":[40.05168,-3.11752]}},{"type":"Feature","properties":{"OBJECTID":"2310","Facility_N":"GK Prison Dispensary (Malindi)","Type":"Dispensary","Owner":"Ministry of Health","County":"Kilifi","Sub_County":"Malindi","Division":"Malindi","Location":"Malindi","Sub_Locati":"Central","Constituen":"MALINDI","Nearest_To":"Malindi","Latitude":"-3.19691","Longitude":"40.08804"},"geometry":{"type":"Point","coordinates":[40.08804,-3.19691]}},{"type":"Feature","properties":{"OBJECTID":"2317","Facility_N":"GK Prisons Clinic (Malindi)","Type":"Dispensary","Owner":"Other Public Institution","County":"Kilifi","Sub_County":"Malindi","Division":"Malindi","Location":"Malindi","Sub_Locati":"Central","Constituen":"MALINDI","Nearest_To":"Malindi","Latitude":"-3.11808","Longitude":"40.05276"},"geometry":{"type":"Point","coordinates":[40.05276,-3.11808]}},{"type":"Feature","properties":{"OBJECTID":"2369","Facility_N":"Gongoni Health Centre","Type":"Health Centre","Owner":"Ministry of Health","County":"Kilifi","Sub_County":"Magarini","Division":"Magarini","Location":"Gongoni","Sub_Locati":"Gongoni","Constituen":"MAGARINI","Nearest_To":"Gongoni Market","Latitude":"-3.0364","Longitude":"40.13346"},"geometry":{"type":"Point","coordinates":[40.13346,-3.0364]}},{"type":"Feature","properties":{"OBJECTID":"2370","Facility_N":"Gongoni Medical Clinic","Type":"Medical Clinic","Owner":"Private Practice - Clinical Officer","County":"Kilifi","Sub_County":"Magarini","Division":"Magarini","Location":"Gongoni","Sub_Locati":"Gongoni","Constituen":"MAGARINI","Nearest_To":"Malindi","Latitude":"-3.036","Longitude":"40.13608"},"geometry":{"type":"Point","coordinates":[40.13608,-3.036]}},{"type":"Feature","properties":{"OBJECTID":"2402","Facility_N":"Gotani Dispensary","Type":"Dispensary","Owner":"Ministry of Health","County":"Kilifi","Sub_County":"Kaloleni","Division":"Kaloleni","Location":"Kaya Fungo","Sub_Locati":"Mbala Mweni","Constituen":"KALOLENI","Nearest_To":"Mariakani","Latitude":"-3.7863","Longitude":"39.54034"},"geometry":{"type":"Point","coordinates":[39.54034,-3.7863]}},{"type":"Feature","properties":{"OBJECTID":"2507","Facility_N":"Heri Medical Centre","Type":"Medical Clinic","Owner":"Private Enterprise (Institution)","County":"Kilifi","Sub_County":"Kilifi North","Division":"Bahari","Location":"Ngerenya","Sub_Locati":"Ngerenya","Constituen":"BAHARI","Nearest_To":"Tezo","Latitude":"-3.53395","Longitude":"39.87975"},"geometry":{"type":"Point","coordinates":[39.87975,-3.53395]}},{"type":"Feature","properties":{"OBJECTID":"2517","Facility_N":"Hidaya Medical Clinic","Type":"Medical Clinic","Owner":"Private Practice - Clinical Officer","County":"Kilifi","Sub_County":"Malindi","Division":"Malindi","Location":"Malindi","Sub_Locati":"Barani","Constituen":"MALINDI","Nearest_To":"Malindi","Latitude":"-3.13066","Longitude":"40.07143"},"geometry":{"type":"Point","coordinates":[40.07143,-3.13066]}},{"type":"Feature","properties":{"OBJECTID":"2582","Facility_N":"Hope Medical Clinic (Mariakani)","Type":"Medical Clinic","Owner":"Private Practice - Clinical Officer","County":"Kilifi","Sub_County":"Kaloleni","Division":"Mariakani","Location":"Mariakani","Sub_Locati":"Mitangoni","Constituen":"KALOLENI","Nearest_To":"Mariakani","Latitude":"-3.86167","Longitude":"39.47307"},"geometry":{"type":"Point","coordinates":[39.47307,-3.86167]}},{"type":"Feature","properties":{"OBJECTID":"2622","Facility_N":"Huruma Medical Clinic (Bamba)","Type":"Medical Clinic","Owner":"Private Practice - Clinical Officer","County":"Kilifi","Sub_County":"Ganze","Division":"Bamba","Location":"Bamba","Sub_Locati":" ","Constituen":"GANZE","Nearest_To":"Bamba","Latitude":"-3.53923","Longitude":"39.52435"},"geometry":{"type":"Point","coordinates":[39.52435,-3.53923]}},{"type":"Feature","properties":{"OBJECTID":"2757","Facility_N":"Imani Medical Services","Type":"Medical Clinic","Owner":"Private Practice - Clinical Officer","County":"Kilifi","Sub_County":"Malindi","Division":"Malindi","Location":"Malindi","Sub_Locati":"Malindi","Constituen":"MALINDI","Nearest_To":"Kisumu Ndogo","Latitude":"-3.22051","Longitude":"40.1034"},"geometry":{"type":"Point","coordinates":[40.1034,-3.22051]}},{"type":"Feature","properties":{"OBJECTID":"2911","Facility_N":"Jambo Clinic","Type":"Medical Clinic","Owner":"Private Practice - Clinical Officer","County":"Kilifi","Sub_County":"Malindi","Division":"Malindi","Location":"Malindi","Sub_Locati":"Barani","Constituen":"MALINDI","Nearest_To":"Malindi","Latitude":"-3.22151","Longitude":"40.10488"},"geometry":{"type":"Point","coordinates":[40.10488,-3.22151]}},{"type":"Feature","properties":{"OBJECTID":"2932","Facility_N":"Jamii Medical Clinic (Malindi)","Type":"Medical Clinic","Owner":"Private Practice - Nurse / Midwife","County":"Kilifi","Sub_County":"Malindi","Division":"Malindi","Location":"Watamu","Sub_Locati":"Jimba","Constituen":"MALINDI","Nearest_To":"Malindi","Latitude":"-3.88917","Longitude":"39.5638"},"geometry":{"type":"Point","coordinates":[39.5638,-3.88917]}},{"type":"Feature","properties":{"OBJECTID":"2950","Facility_N":"Jaribuni Dispensary","Type":"Dispensary","Owner":"Ministry of Health","County":"Kilifi","Sub_County":"Ganze","Division":"Ganze","Location":"Jaribuni","Sub_Locati":"Vinagoni","Constituen":"GANZE","Nearest_To":"Jaribuni","Latitude":"-3.6326","Longitude":"39.74256"},"geometry":{"type":"Point","coordinates":[39.74256,-3.6326]}},{"type":"Feature","properties":{"OBJECTID":"2981","Facility_N":"Jibana Sub District Hospital","Type":"Sub-District Hospital","Owner":"Ministry of Health","County":"Kilifi","Sub_County":"Kaloleni","Division":"Kaloleni","Location":"Jibana","Sub_Locati":"Tsagwa","Constituen":"KALOLENI","Nearest_To":"Kaloleni","Latitude":"-3.83116","Longitude":"39.68587"},"geometry":{"type":"Point","coordinates":[39.68587,-3.83116]}},{"type":"Feature","properties":{"OBJECTID":"2983","Facility_N":"Jilore Dispensary","Type":"Dispensary","Owner":"Ministry of Health","County":"Kilifi","Sub_County":"Malindi","Division":"Langobaya","Location":"Jilore/Ziani","Sub_Locati":"Jilore","Constituen":"MALINDI","Nearest_To":"Jilore","Latitude":"-3.18857","Longitude":"39.90593"},"geometry":{"type":"Point","coordinates":[39.90593,-3.18857]}},{"type":"Feature","properties":{"OBJECTID":"3048","Facility_N":"Junju Dispensary","Type":"Dispensary","Owner":"Ministry of Health","County":"Kilifi","Sub_County":"Kilifi South","Division":"Kikambala","Location":"Junju","Sub_Locati":"Vipingo","Constituen":"BAHARI","Nearest_To":"Mtwapa","Latitude":"-3.82977","Longitude":"39.76133"},"geometry":{"type":"Point","coordinates":[39.76133,-3.82977]}},{"type":"Feature","properties":{"OBJECTID":"3133","Facility_N":"Kadaina Community Dispensary","Type":"Dispensary","Owner":"Community","County":"Kilifi","Sub_County":"Kilifi North","Division":"Bahari","Location":"Matsangoni","Sub_Locati":"Matsangoni","Constituen":"BAHARI","Nearest_To":"Matsangoni","Latitude":"-3.40301","Longitude":"39.9276"},"geometry":{"type":"Point","coordinates":[39.9276,-3.40301]}},{"type":"Feature","properties":{"OBJECTID":"3143","Facility_N":"Kadzinuni Dispensary","Type":"Dispensary","Owner":"Ministry of Health","County":"Kilifi","Sub_County":"Kilifi North","Division":"Kikambala","Location":"Junju","Sub_Locati":"Mkwajuni/Mkomani","Constituen":"BAHARI","Nearest_To":"Vipingo","Latitude":"-3.74511","Longitude":"39.81237"},"geometry":{"type":"Point","coordinates":[39.81237,-3.74511]}},{"type":"Feature","properties":{"OBJECTID":"3254","Facility_N":"Kakoneni Dispensary","Type":"Dispensary","Owner":"Ministry of Health","County":"Kilifi","Sub_County":"Malindi","Division":"Langobaya","Location":"Jilore","Sub_Locati":"Kakoneni","Constituen":"MALINDI","Nearest_To":"Kakoneni Market","Latitude":"-3.16442","Longitude":"39.86595"},"geometry":{"type":"Point","coordinates":[39.86595,-3.16442]}},{"type":"Feature","properties":{"OBJECTID":"3264","Facility_N":"Kakuyuni Dispensary (Malindi)","Type":"Dispensary","Owner":"Ministry of Health","County":"Kilifi","Sub_County":"Malindi","Division":"Malindi","Location":"Goshi","Sub_Locati":"Kakuyuni","Constituen":"MALINDI","Nearest_To":"Malindi","Latitude":"-3.22034","Longitude":"40.00194"},"geometry":{"type":"Point","coordinates":[40.00194,-3.22034]}},{"type":"Feature","properties":{"OBJECTID":"3265","Facility_N":"Kakuyuni Facility","Type":"Dispensary","Owner":"Ministry of Health","County":"Kilifi","Sub_County":"Malindi","Division":"Malindi","Location":"Malindi","Sub_Locati":"Shela","Constituen":"MALINDI","Nearest_To":"Malindi","Latitude":"-3.13236","Longitude":"40.00114"},"geometry":{"type":"Point","coordinates":[40.00114,-3.13236]}},{"type":"Feature","properties":{"OBJECTID":"3361","Facility_N":"Kambe Dispensary","Type":"Dispensary","Owner":"Ministry of Health","County":"Kilifi","Sub_County":"Rabai","Division":"Kaloleni","Location":"Kambe","Sub_Locati":"Kambe","Constituen":"KALOLENI","Nearest_To":"Kambe","Latitude":"-3.86215","Longitude":"39.64079"},"geometry":{"type":"Point","coordinates":[39.64079,-3.86215]}},{"type":"Feature","properties":{"OBJECTID":"3362","Facility_N":"Kambe Kikomani Medical Clinic","Type":"Medical Clinic","Owner":"Private Practice - Nurse / Midwife","County":"Kilifi","Sub_County":"Kaloleni","Division":"Kaloleni","Location":"Kambe","Sub_Locati":"Kikomani","Constituen":"KALOLENI","Nearest_To":"Kaloleni","Latitude":"-3.84001","Longitude":"39.62001"},"geometry":{"type":"Point","coordinates":[39.62001,-3.84001]}},{"type":"Feature","properties":{"OBJECTID":"3365","Facility_N":"Kambi ya Waya Dispensary","Type":"Dispensary","Owner":"Ministry of Health","County":"Kilifi","Sub_County":"Magarini","Division":"Magarini","Location":"Fundisa","Sub_Locati":"Fundisa","Constituen":"MAGARINI","Nearest_To":"Gongoni","Latitude":"2.92282","Longitude":"40.13977"},"geometry":{"type":"Point","coordinates":[40.13977,2.92282]}},{"type":"Feature","properties":{"OBJECTID":"3391","Facility_N":"Kamkomani Dispensary","Type":"Dispensary","Owner":"Ministry of Health","County":"Kilifi","Sub_County":"Kaloleni","Division":"Mariakani","Location":"Mariakani","Sub_Locati":"Kadzonzo/Kawala","Constituen":"KALOLENI","Nearest_To":"Mariakani","Latitude":"-3.88438","Longitude":"39.51892"},"geometry":{"type":"Point","coordinates":[39.51892,-3.88438]}},{"type":"Feature","properties":{"OBJECTID":"3440","Facility_N":"Kanamai Health Care","Type":"Medical Clinic","Owner":"Private Enterprise (Institution)","County":"Kilifi","Sub_County":"Kilifi South","Division":"Kikambala","Location":"Mtwapa","Sub_Locati":"Kanamai","Constituen":"BAHARI","Nearest_To":"Majengo","Latitude":"-3.91889","Longitude":"39.76094"},"geometry":{"type":"Point","coordinates":[39.76094,-3.91889]}},{"type":"Feature","properties":{"OBJECTID":"3753","Facility_N":"Karimboni Dispensary","Type":"Dispensary","Owner":"Ministry of Health","County":"Kilifi","Sub_County":"Magarini","Division":"Marafa","Location":"Dagamra","Sub_Locati":"Bate","Constituen":"MAGARINI","Nearest_To":"Garashi","Latitude":"-3.09586","Longitude":"39.99351"},"geometry":{"type":"Point","coordinates":[39.99351,-3.09586]}},{"type":"Feature","properties":{"OBJECTID":"3970","Facility_N":"Kemri Staff Clinic and VCT Centre","Type":"Medical Clinic","Owner":"Company Medical Service","County":"Kilifi","Sub_County":"Kilifi North","Division":"Bahari","Location":"Township","Sub_Locati":"Hospital","Constituen":"BAHARI","Nearest_To":"Kiifi","Latitude":"-3.62957","Longitude":"39.85725"},"geometry":{"type":"Point","coordinates":[39.85725,-3.62957]}},{"type":"Feature","properties":{"OBJECTID":"4000","Facility_N":"Kenya Long Distance Truck Drivers Union VCT","Type":"VCT Centre (Stand-Alone)","Owner":"Non-Governmental Organizations","County":"Kilifi","Sub_County":"Kaloleni","Division":"Mariakani","Location":"Mariakani","Sub_Locati":"Mitangoni","Constituen":"KALOLENI","Nearest_To":"Mariakani","Latitude":"-3.835","Longitude":"39.43721"},"geometry":{"type":"Point","coordinates":[39.43721,-3.835]}},{"type":"Feature","properties":{"OBJECTID":"4074","Facility_N":"Khadija Medical Clinic","Type":"Medical Clinic","Owner":"Private Practice - Clinical Officer","County":"Kilifi","Sub_County":"Rabai","Division":"Rabai","Location":"Ruruma","Sub_Locati":"Mwawesa","Constituen":"KALOLENI","Nearest_To":"Mazeras","Latitude":"-3.89755","Longitude":"39.60843"},"geometry":{"type":"Point","coordinates":[39.60843,-3.89755]}},{"type":"Feature","properties":{"OBJECTID":"4075","Facility_N":"Khairat Medical Centre","Type":"Medical Clinic","Owner":"Private Practice - Clinical Officer","County":"Kilifi","Sub_County":"Kilifi North","Division":"Bahari","Location":"Sokoni","Sub_Locati":"Mtaani","Constituen":"BAHARI","Nearest_To":"Kilifi","Latitude":"-3.63289","Longitude":"39.85032"},"geometry":{"type":"Point","coordinates":[39.85032,-3.63289]}},{"type":"Feature","properties":{"OBJECTID":"4308","Facility_N":"Kijana Heri Medical Clinic","Type":"Medical Clinic","Owner":"Private Practice - Clinical Officer","County":"Kilifi","Sub_County":"Magarini","Division":"Magarini","Location":"Magarini","Sub_Locati":"Mambrui","Constituen":"MAGARINI","Nearest_To":"Mambrui","Latitude":"-3.07631","Longitude":"40.14216"},"geometry":{"type":"Point","coordinates":[40.14216,-3.07631]}},{"type":"Feature","properties":{"OBJECTID":"4313","Facility_N":"Kikambala Catholic Medical Clinic","Type":"Dispensary","Owner":"Christian Health Association of Kenya","County":"Kilifi","Sub_County":"Kilifi South","Division":"Kikambala","Location":"Mtwapa","Sub_Locati":"Kijipwa","Constituen":"BAHARI","Nearest_To":"Kikambala Town","Latitude":"-3.88999","Longitude":"39.78116"},"geometry":{"type":"Point","coordinates":[39.78116,-3.88999]}},{"type":"Feature","properties":{"OBJECTID":"4314","Facility_N":"Kikambala Medical Services","Type":"Medical Clinic","Owner":"Private Enterprise (Institution)","County":"Kilifi","Sub_County":"Kilifi South","Division":"Kikambala","Location":"Junju","Sub_Locati":"Kijipwa","Constituen":"BAHARI","Nearest_To":"Majengo","Latitude":"-3.88085","Longitude":"39.77823"},"geometry":{"type":"Point","coordinates":[39.77823,-3.88085]}},{"type":"Feature","properties":{"OBJECTID":"4341","Facility_N":"Kilifi County Beyond Zero Campaign Mobile Dispensary","Type":"Dispensary","Owner":"Ministry of Health","County":"Kilifi","Sub_County":"Kilifi North","Division":"Bahari","Location":"Township","Sub_Locati":"Hospital","Constituen":"BAHARI","Nearest_To":"Kilifi","Latitude":"-3.63161","Longitude":"39.85759"},"geometry":{"type":"Point","coordinates":[39.85759,-3.63161]}},{"type":"Feature","properties":{"OBJECTID":"4342","Facility_N":"Kilifi District Hospital","Type":"District Hospital","Owner":"Ministry of Health","County":"Kilifi","Sub_County":"Kilifi North","Division":"Bahari","Location":"Township","Sub_Locati":"Hospital","Constituen":"BAHARI","Nearest_To":"Kilifi Town","Latitude":"-3.63205","Longitude":"39.85722"},"geometry":{"type":"Point","coordinates":[39.85722,-3.63205]}},{"type":"Feature","properties":{"OBJECTID":"4343","Facility_N":"Kilifi Plantation Dispensary","Type":"Medical Clinic","Owner":"Company Medical Service","County":"Kilifi","Sub_County":"Kilifi North","Division":"Bahari","Location":"Township","Sub_Locati":"Mnarani","Constituen":"BAHARI","Nearest_To":"Mnarani","Latitude":"-3.3973","Longitude":"39.51033"},"geometry":{"type":"Point","coordinates":[39.51033,-3.3973]}},{"type":"Feature","properties":{"OBJECTID":"4435","Facility_N":"Kinarani Dispensary","Type":"Dispensary","Owner":"Ministry of Health","County":"Kilifi","Sub_County":"Kaloleni","Division":"Mariakani","Location":"Mwanamwinga","Sub_Locati":"Kinarani","Constituen":"KALOLENI","Nearest_To":"Kinarani","Latitude":"-3.72962","Longitude":"39.579"},"geometry":{"type":"Point","coordinates":[39.579,-3.72962]}},{"type":"Feature","properties":{"OBJECTID":"4610","Facility_N":"Kisauni Medical Clinic","Type":"Medical Clinic","Owner":"Private Enterprise (Institution)","County":"Kilifi","Sub_County":"Kilifi North","Division":"Bahari","Location":"Township","Sub_Locati":"Township","Constituen":"BAHARI","Nearest_To":"Kilifi","Latitude":"-3.62741","Longitude":"39.85219"},"geometry":{"type":"Point","coordinates":[39.85219,-3.62741]}},{"type":"Feature","properties":{"OBJECTID":"4742","Facility_N":"Kiwandani Dispensary","Type":"Dispensary","Owner":"Ministry of Health","County":"Kilifi","Sub_County":"Kilifi North","Division":"Bahari","Location":"Tezo","Sub_Locati":"Mtondia","Constituen":"BAHARI","Nearest_To":"Kilifi","Latitude":"-3.5684","Longitude":"39.8762"},"geometry":{"type":"Point","coordinates":[39.8762,-3.5684]}},{"type":"Feature","properties":{"OBJECTID":"4750","Facility_N":"Kizingo Health Centre","Type":"Health Centre","Owner":"Ministry of Health","County":"Kilifi","Sub_County":"Kilifi South","Division":"Chonyi","Location":"Mwarakaya","Sub_Locati":"Kizingo","Constituen":"BAHARI","Nearest_To":"Chasimba","Latitude":"-3.78195","Longitude":"39.67704"},"geometry":{"type":"Point","coordinates":[39.67704,-3.78195]}},{"type":"Feature","properties":{"OBJECTID":"4796","Facility_N":"Kokotoni Dispensary","Type":"Dispensary","Owner":"Ministry of Health","County":"Kilifi","Sub_County":"Rabai","Division":"Rabai","Location":"Rabai","Sub_Locati":"Kaliang'ombe","Constituen":"KALOLENI","Nearest_To":"Kokotoni","Latitude":"-3.92054","Longitude":"39.52444"},"geometry":{"type":"Point","coordinates":[39.52444,-3.92054]}},{"type":"Feature","properties":{"OBJECTID":"4820","Facility_N":"Kombeni Dispensary","Type":"Dispensary","Owner":"Ministry of Health","County":"Kilifi","Sub_County":"Rabai","Division":"Rabai","Location":"Ruruma","Sub_Locati":"Kombeni","Constituen":"KALOLENI","Nearest_To":"Mazeras","Latitude":"-3.9128","Longitude":"39.58706"},"geometry":{"type":"Point","coordinates":[39.58706,-3.9128]}},{"type":"Feature","properties":{"OBJECTID":"4920","Facility_N":"Kwa Ndomo Medical Clinic","Type":"Medical Clinic","Owner":"Private Practice - Nurse / Midwife","County":"Kilifi","Sub_County":"Malindi","Division":"Malindi","Location":"Malindi","Sub_Locati":"Sabaki","Constituen":"MALINDI","Nearest_To":"Kwa Ndomo trading centre","Latitude":"-3.18463","Longitude":"40.11279"},"geometry":{"type":"Point","coordinates":[40.11279,-3.18463]}},{"type":"Feature","properties":{"OBJECTID":"4945","Facility_N":"Kwetu VCT","Type":"Medical Clinic","Owner":"Private Enterprise (Institution)","County":"Kilifi","Sub_County":"Kilifi South","Division":"Kikambala","Location":" ","Sub_Locati":"Shimo La Tewa","Constituen":"BAHARI","Nearest_To":"Kilifi","Latitude":"-3.58219","Longitude":"39.42829"},"geometry":{"type":"Point","coordinates":[39.42829,-3.58219]}},{"type":"Feature","properties":{"OBJECTID":"5080","Facility_N":"Lenga Dispensary","Type":"Dispensary","Owner":"Ministry of Health","County":"Kilifi","Sub_County":"Rabai","Division":"Kaloleni","Location":"Kambe","Sub_Locati":"Pangani/ Maereni","Constituen":"KALOLENI","Nearest_To":"Kaloleni","Latitude":"-3.86697","Longitude":"39.66193"},"geometry":{"type":"Point","coordinates":[39.66193,-3.86697]}},{"type":"Feature","properties":{"OBJECTID":"5101","Facility_N":"Lewa's Family Nursing Home","Type":"Medical Clinic","Owner":"Private Practice - Nurse / Midwife","County":"Kilifi","Sub_County":"Rabai","Division":"Rabai","Location":"Rabai","Sub_Locati":"Mgumo wa patsa","Constituen":"KALOLENI","Nearest_To":"Mazeras","Latitude":"-3.96107","Longitude":"39.54862"},"geometry":{"type":"Point","coordinates":[39.54862,-3.96107]}},{"type":"Feature","properties":{"OBJECTID":"5330","Facility_N":"Maamba Medical Clinic","Type":"Medical Clinic","Owner":"Private Enterprise (Institution)","County":"Kilifi","Sub_County":"Kilifi South","Division":"Kikambala","Location":"Mtwapa","Sub_Locati":"Kanamai","Constituen":"BAHARI","Nearest_To":"Majengo","Latitude":"-3.91889","Longitude":"39.76094"},"geometry":{"type":"Point","coordinates":[39.76094,-3.91889]}},{"type":"Feature","properties":{"OBJECTID":"5337","Facility_N":"Mabati Medical Clinic","Type":"Dispensary","Owner":"Company Medical Service","County":"Kilifi","Sub_County":"Kaloleni","Division":"Mariakani","Location":"Mariakani","Sub_Locati":"Mariakani","Constituen":"KALOLENI","Nearest_To":"Mariakani","Latitude":"-3.87494","Longitude":"39.48281"},"geometry":{"type":"Point","coordinates":[39.48281,-3.87494]}},{"type":"Feature","properties":{"OBJECTID":"5359","Facility_N":"Madamani Dispensary","Type":"Dispensary","Owner":"Ministry of Health","County":"Kilifi","Sub_County":"Ganze","Division":"Vitengeni","Location":"Vitengeni","Sub_Locati":"Madamani","Constituen":"BAHARI","Nearest_To":"Vitengeni","Latitude":"-3.39435","Longitude":"39.74878"},"geometry":{"type":"Point","coordinates":[39.74878,-3.39435]}},{"type":"Feature","properties":{"OBJECTID":"5367","Facility_N":"Madunguni Dispensary","Type":"Dispensary","Owner":"Ministry of Health","County":"Kilifi","Sub_County":"Malindi","Division":"Malindi","Location":"Goshi","Sub_Locati":"Madunguni","Constituen":"MALINDI","Nearest_To":"Malindi","Latitude":"-3.18333","Longitude":"39.97451"},"geometry":{"type":"Point","coordinates":[39.97451,-3.18333]}},{"type":"Feature","properties":{"OBJECTID":"5368","Facility_N":"Madunguni Medical Clinic","Type":"Medical Clinic","Owner":"Private Practice - Nurse / Midwife","County":"Kilifi","Sub_County":"Malindi","Division":"Malindi","Location":"Goshi","Sub_Locati":"Madunguni","Constituen":"MALINDI","Nearest_To":"Malindi","Latitude":"-2.923","Longitude":"39.4679"},"geometry":{"type":"Point","coordinates":[39.4679,-2.923]}},{"type":"Feature","properties":{"OBJECTID":"5375","Facility_N":"M-afya Medical Clinic","Type":"Medical Clinic","Owner":"Non-Governmental Organizations","County":"Kilifi","Sub_County":"Rabai","Division":"Rabai","Location":"Rabai","Sub_Locati":"Uwanja ndege","Constituen":"KALOLENI","Nearest_To":"Mazeras","Latitude":"-4.01352","Longitude":"39.72427"},"geometry":{"type":"Point","coordinates":[39.72427,-4.01352]}},{"type":"Feature","properties":{"OBJECTID":"5453","Facility_N":"Makanzani Dispensary","Type":"Dispensary","Owner":"Ministry of Health","County":"Kilifi","Sub_County":"Rabai","Division":"Rabai","Location":"Ruruma","Sub_Locati":"Mleji","Constituen":"KALOLENI","Nearest_To":"Mazeras","Latitude":"-3.86938","Longitude":"39.60597"},"geometry":{"type":"Point","coordinates":[39.60597,-3.86938]}},{"type":"Feature","properties":{"OBJECTID":"5507","Facility_N":"Malanga (AIC) Dispensary","Type":"Dispensary","Owner":"Christian Health Association of Kenya","County":"Kilifi","Sub_County":"Malindi","Division":"Langobaya","Location":"Lango Baya","Sub_Locati":"Malanga","Constituen":"MALINDI","Nearest_To":"Kabiranduni","Latitude":"-3.24695","Longitude":"39.79181"},"geometry":{"type":"Point","coordinates":[39.79181,-3.24695]}},{"type":"Feature","properties":{"OBJECTID":"5509","Facility_N":"Malanga Dispensary -Vitengeni","Type":"Dispensary","Owner":"Ministry of Health","County":"Kilifi","Sub_County":"Ganze","Division":"Vitengeni","Location":"Lango Baya","Sub_Locati":"Malanga","Constituen":"GANZE","Nearest_To":"Dzifae","Latitude":"-3.28176","Longitude":"39.79043"},"geometry":{"type":"Point","coordinates":[39.79043,-3.28176]}},{"type":"Feature","properties":{"OBJECTID":"5519","Facility_N":"Malindi Care Services Limited","Type":"Medical Clinic","Owner":"Private Practice - Medical Specialist","County":"Kilifi","Sub_County":"Malindi","Division":"Malindi","Location":"Malindi","Sub_Locati":"Shella","Constituen":"MALINDI","Nearest_To":"Malindi","Latitude":"-3.22654","Longitude":"40.12387"},"geometry":{"type":"Point","coordinates":[40.12387,-3.22654]}},{"type":"Feature","properties":{"OBJECTID":"5520","Facility_N":"Malindi District Hospital","Type":"District Hospital","Owner":"Ministry of Health","County":"Kilifi","Sub_County":"Malindi","Division":"Malindi","Location":"Malindi","Sub_Locati":"Shella","Constituen":"MALINDI","Nearest_To":"Malindi","Latitude":"-3.22649","Longitude":"40.1247"},"geometry":{"type":"Point","coordinates":[40.1247,-3.22649]}},{"type":"Feature","properties":{"OBJECTID":"5521","Facility_N":"Malindi Sea Breeze","Type":"Nursing Home","Owner":"Private Enterprise (Institution)","County":"Kilifi","Sub_County":"Malindi","Division":"Malindi","Location":"Malindi","Sub_Locati":"Shella","Constituen":"MALINDI","Nearest_To":"Malindi","Latitude":"-3.134","Longitude":"40.07471"},"geometry":{"type":"Point","coordinates":[40.07471,-3.134]}},{"type":"Feature","properties":{"OBJECTID":"5547","Facility_N":"Mambrui Dispensary","Type":"Dispensary","Owner":"Ministry of Health","County":"Kilifi","Sub_County":"Magarini","Division":"Magarini","Location":"Magarini","Sub_Locati":"Mambrui","Constituen":"MAGARINI","Nearest_To":"Mambrui shopping centre","Latitude":"-3.1183","Longitude":"40.15677"},"geometry":{"type":"Point","coordinates":[40.15677,-3.1183]}},{"type":"Feature","properties":{"OBJECTID":"5606","Facility_N":"Marafa Health Centre","Type":"Health Centre","Owner":"Ministry of Health","County":"Kilifi","Sub_County":"Magarini","Division":"Marafa","Location":"Marafa","Sub_Locati":"Madina","Constituen":"MAGARINI","Nearest_To":"Marafa","Latitude":"-3.02853","Longitude":"39.95973"},"geometry":{"type":"Point","coordinates":[39.95973,-3.02853]}},{"type":"Feature","properties":{"OBJECTID":"5630","Facility_N":"Marereni Dispensary","Type":"Dispensary","Owner":"Ministry of Health","County":"Kilifi","Sub_County":"Magarini","Division":"Magarini","Location":"Fundi Issa","Sub_Locati":"Marereni","Constituen":"MAGARINI","Nearest_To":"Malindi","Latitude":"-2.86296","Longitude":"40.14481"},"geometry":{"type":"Point","coordinates":[40.14481,-2.86296]}},{"type":"Feature","properties":{"OBJECTID":"5631","Facility_N":"Marereni Medical Clinic","Type":"Medical Clinic","Owner":"Private Practice - Clinical Officer","County":"Kilifi","Sub_County":"Magarini","Division":"Magarini","Location":"Fundi Issa","Sub_Locati":"Marereni","Constituen":"MAGARINI","Nearest_To":"Marereni","Latitude":"-2.86353","Longitude":"40.14839"},"geometry":{"type":"Point","coordinates":[40.14839,-2.86353]}},{"type":"Feature","properties":{"OBJECTID":"5639","Facility_N":"Mariakani Community Health Care Services","Type":"Medical Clinic","Owner":"Private Practice - Nurse / Midwife","County":"Kilifi","Sub_County":"Kaloleni","Division":"Mariakani","Location":"Mariakani","Sub_Locati":"Mitangoni","Constituen":"KALOLENI","Nearest_To":"Mariakani","Latitude":"-3.85987","Longitude":"39.47604"},"geometry":{"type":"Point","coordinates":[39.47604,-3.85987]}},{"type":"Feature","properties":{"OBJECTID":"5644","Facility_N":"Mariakani District Hospital","Type":"District Hospital","Owner":"Ministry of Health","County":"Kilifi","Sub_County":"Kaloleni","Division":"Mariakani","Location":"Mariakani","Sub_Locati":"Mitangoni","Constituen":"KALOLENI","Nearest_To":"Mariakani","Latitude":"-3.8631","Longitude":"39.47214"},"geometry":{"type":"Point","coordinates":[39.47214,-3.8631]}},{"type":"Feature","properties":{"OBJECTID":"5665","Facility_N":"Marie Stopes Kenya Clinic (Malindi)","Type":"Medical Clinic","Owner":"Private Enterprise (Institution)","County":"Kilifi","Sub_County":"Malindi","Division":"Malindi","Location":"Malindi","Sub_Locati":"Barani","Constituen":"MALINDI","Nearest_To":"Malindi","Latitude":"-3.21487","Longitude":"40.1178"},"geometry":{"type":"Point","coordinates":[40.1178,-3.21487]}},{"type":"Feature","properties":{"OBJECTID":"5666","Facility_N":"Marie Stopes Kenya Mld Clinic","Type":"Medical Clinic","Owner":"Private Practice - General Practitioner","County":"Kilifi","Sub_County":"Malindi","Division":"Malindi","Location":"Malindi","Sub_Locati":"Barani","Constituen":"MALINDI","Nearest_To":"Shella","Latitude":"-3.12891","Longitude":"40.07071"},"geometry":{"type":"Point","coordinates":[40.07071,-3.12891]}},{"type":"Feature","properties":{"OBJECTID":"5677","Facility_N":"Marikebuni Dispensary","Type":"Dispensary","Owner":"Ministry of Health","County":"Kilifi","Sub_County":"Magarini","Division":"Magarini","Location":"Magarini","Sub_Locati":"Marikebuni","Constituen":"MAGARINI","Nearest_To":"Malindi","Latitude":"-3.09017","Longitude":"40.00028"},"geometry":{"type":"Point","coordinates":[40.00028,-3.09017]}},{"type":"Feature","properties":{"OBJECTID":"5727","Facility_N":"Maryango Medical Clinic","Type":"Medical Clinic","Owner":"Private Enterprise (Institution)","County":"Kilifi","Sub_County":"Ganze","Division":"Bamba","Location":"Bamba","Sub_Locati":"Paziani","Constituen":"GANZE","Nearest_To":"Bamba Town","Latitude":"-3.47943","Longitude":"39.52339"},"geometry":{"type":"Point","coordinates":[39.52339,-3.47943]}},{"type":"Feature","properties":{"OBJECTID":"5816","Facility_N":"Matolani Dispensary","Type":"Dispensary","Owner":"Ministry of Health","County":"Kilifi","Sub_County":"Malindi","Division":"Langobaya","Location":"chakama","Sub_Locati":"Matolani","Constituen":"MALINDI","Nearest_To":"Matolani Market","Latitude":"-3.10202","Longitude":"39.66969"},"geometry":{"type":"Point","coordinates":[39.66969,-3.10202]}},{"type":"Feature","properties":{"OBJECTID":"5822","Facility_N":"Matsangoni Model Health Centre","Type":"Health Centre","Owner":"Ministry of Health","County":"Kilifi","Sub_County":"Kilifi North","Division":"Bahari","Location":"Matsangoni","Sub_Locati":"Masangoni","Constituen":"BAHARI","Nearest_To":"Matsangoni","Latitude":"-3.38952","Longitude":"39.9285"},"geometry":{"type":"Point","coordinates":[39.9285,-3.38952]}},{"type":"Feature","properties":{"OBJECTID":"5863","Facility_N":"Mavueni Dispensary","Type":"Dispensary","Owner":"Ministry of Health","County":"Kilifi","Sub_County":"Kilifi North","Division":"Bahari","Location":"Mavueni","Sub_Locati":"Takaungu Mavueni","Constituen":"BAHARI","Nearest_To":"Kilifi","Latitude":"-3.678","Longitude":"39.79902"},"geometry":{"type":"Point","coordinates":[39.79902,-3.678]}},{"type":"Feature","properties":{"OBJECTID":"5869","Facility_N":"Maweni Community Clinic","Type":"Medical Clinic","Owner":"Private Practice - Nurse / Midwife","County":"Kilifi","Sub_County":"Malindi","Division":"Malindi","Location":"Malindi","Sub_Locati":"Shella","Constituen":"MALINDI","Nearest_To":"Shella","Latitude":"-3.13381","Longitude":"40.07217"},"geometry":{"type":"Point","coordinates":[40.07217,-3.13381]}},{"type":"Feature","properties":{"OBJECTID":"6003","Facility_N":"Menengai Health Care Services","Type":"Medical Clinic","Owner":"Private Practice - Nurse / Midwife","County":"Kilifi","Sub_County":"Kilifi South","Division":"Kikambala","Location":"Mtwapa","Sub_Locati":"Shimolatewa","Constituen":"BAHARI","Nearest_To":"Mtwapa","Latitude":"-3.5685","Longitude":"39.44278"},"geometry":{"type":"Point","coordinates":[39.44278,-3.5685]}},{"type":"Feature","properties":{"OBJECTID":"6007","Facility_N":"Mephi Medical Clinic","Type":"Medical Clinic","Owner":"Private Practice - Nurse / Midwife","County":"Kilifi","Sub_County":"Kilifi South","Division":"Bahari","Location":"Sokoni","Sub_Locati":"Township","Constituen":"BAHARI","Nearest_To":"Kibaoni","Latitude":"-3.62002","Longitude":"39.85344"},"geometry":{"type":"Point","coordinates":[39.85344,-3.62002]}},{"type":"Feature","properties":{"OBJECTID":"6095","Facility_N":"Mgamboni Dispensary","Type":"Dispensary","Owner":"Ministry of Health","County":"Kilifi","Sub_County":"Kaloleni","Division":"Kaloleni","Location":"Jibana","Sub_Locati":"Tsagwa","Constituen":"KALOLENI","Nearest_To":"Kaloleni","Latitude":"-3.84538","Longitude":"39.66317"},"geometry":{"type":"Point","coordinates":[39.66317,-3.84538]}},{"type":"Feature","properties":{"OBJECTID":"6104","Facility_N":"Michaela Denis Medical Clinic","Type":"Medical Clinic","Owner":"Private Enterprise (Institution)","County":"Kilifi","Sub_County":"Kilifi South","Division":"Kikambala","Location":"Junju","Sub_Locati":"Shariani","Constituen":"BAHARI","Nearest_To":"Shariani","Latitude":"-3.7872","Longitude":"39.82204"},"geometry":{"type":"Point","coordinates":[39.82204,-3.7872]}},{"type":"Feature","properties":{"OBJECTID":"6113","Facility_N":"Midoina Dispensary","Type":"Dispensary","Owner":"Ministry of Health","County":"Kilifi","Sub_County":"Ganze","Division":"Bamba","Location":"Mitangani","Sub_Locati":"Midoina","Constituen":"BAHARI","Nearest_To":"Bamba","Latitude":"-3.56209","Longitude":"39.32264"},"geometry":{"type":"Point","coordinates":[39.32264,-3.56209]}},{"type":"Feature","properties":{"OBJECTID":"6133","Facility_N":"Mijomboni Dispensary","Type":"Dispensary","Owner":"Ministry of Health","County":"Kilifi","Sub_County":"Kilifi North","Division":"Malindi","Location":"Gede","Sub_Locati":"Mijomboni","Constituen":"MALINDI","Nearest_To":"Mijomboni market","Latitude":"-3.26951","Longitude":"40.00334"},"geometry":{"type":"Point","coordinates":[40.00334,-3.26951]}},{"type":"Feature","properties":{"OBJECTID":"6175","Facility_N":"Mirapera Dispensary","Type":"Dispensary","Owner":"Ministry of Health","County":"Kilifi","Sub_County":"Ganze","Division":"Bamba","Location":"Mitangani","Sub_Locati":"Dangarani","Constituen":"GANZE","Nearest_To":"Bamba","Latitude":"-3.6256","Longitude":"39.3965"},"geometry":{"type":"Point","coordinates":[39.3965,-3.6256]}},{"type":"Feature","properties":{"OBJECTID":"6179","Facility_N":"Mirihini Dispensary","Type":"Dispensary","Owner":"Ministry of Health","County":"Kilifi","Sub_County":"Ganze","Division":"Bamba","Location":"Ndigina","Sub_Locati":"Mirihini","Constituen":"GANZE","Nearest_To":"Bamba","Latitude":"-3.43813","Longitude":"39.59241"},"geometry":{"type":"Point","coordinates":[39.59241,-3.43813]}},{"type":"Feature","properties":{"OBJECTID":"6193","Facility_N":"Mission Medical Clinic (Bahari)","Type":"Medical Clinic","Owner":"Private Enterprise (Institution)","County":"Kilifi","Sub_County":"Kilifi North","Division":"Bahari","Location":"Township","Sub_Locati":"Sokoni","Constituen":"BAHARI","Nearest_To":"Kilifi","Latitude":"-3.63115","Longitude":"39.85135"},"geometry":{"type":"Point","coordinates":[39.85135,-3.63115]}},{"type":"Feature","properties":{"OBJECTID":"6221","Facility_N":"Mizijini Dispensary","Type":"Dispensary","Owner":"Ministry of Health","County":"Kilifi","Sub_County":"Magarini","Division":"Marafa","Location":"Marafa","Sub_Locati":"Mambasa","Constituen":"MAGARINI","Nearest_To":"Malindi","Latitude":"-2.96167","Longitude":"40.00046"},"geometry":{"type":"Point","coordinates":[40.00046,-2.96167]}},{"type":"Feature","properties":{"OBJECTID":"6222","Facility_N":"Mjanaheri Dispensary","Type":"Dispensary","Owner":"Ministry of Health","County":"Kilifi","Sub_County":"Magarini","Division":"Magarini","Location":"Magarini","Sub_Locati":"Bomani","Constituen":"MAGARINI","Nearest_To":"Gongoni","Latitude":"-3.07931","Longitude":"40.14094"},"geometry":{"type":"Point","coordinates":[40.14094,-3.07931]}},{"type":"Feature","properties":{"OBJECTID":"6241","Facility_N":"Mmangani Dispensary","Type":"Dispensary","Owner":"Ministry of Health","County":"Kilifi","Sub_County":"Malindi","Division":"Malindi","Location":"Goshi","Sub_Locati":"Malimo","Constituen":"MALINDI","Nearest_To":"Kakuyuni","Latitude":"-3.11","Longitude":"39.58471"},"geometry":{"type":"Point","coordinates":[39.58471,-3.11]}},{"type":"Feature","properties":{"OBJECTID":"6243","Facility_N":"Mnarani Dispensary","Type":"Dispensary","Owner":"Ministry of Health","County":"Kilifi","Sub_County":"Kilifi North","Division":"Bahari","Location":"Township","Sub_Locati":"Mnarani","Constituen":"BAHARI","Nearest_To":"Kilifi","Latitude":"-3.644","Longitude":"39.8393"},"geometry":{"type":"Point","coordinates":[39.8393,-3.644]}},{"type":"Feature","properties":{"OBJECTID":"6342","Facility_N":"Mother and Child Clinic Malindi","Type":"Medical Clinic","Owner":"Private Practice - Medical Specialist","County":"Kilifi","Sub_County":"Malindi","Division":"Malindi","Location":"Malindi","Sub_Locati":"Barani","Constituen":"MALINDI","Nearest_To":"Malindi","Latitude":"-3.13175","Longitude":"40.06575"},"geometry":{"type":"Point","coordinates":[40.06575,-3.13175]}},{"type":"Feature","properties":{"OBJECTID":"6386","Facility_N":"Mshongoleni Community Dispensary","Type":"Dispensary","Owner":"Community","County":"Kilifi","Sub_County":"Malindi","Division":"Malindi","Location":"Ganda","Sub_Locati":"Msabaha","Constituen":"MALINDI","Nearest_To":"Msabaha","Latitude":"-3.24691","Longitude":"40.02727"},"geometry":{"type":"Point","coordinates":[40.02727,-3.24691]}},{"type":"Feature","properties":{"OBJECTID":"6390","Facility_N":"Msumarini Dispensary","Type":"Dispensary","Owner":"Ministry of Health","County":"Kilifi","Sub_County":"Kilifi South","Division":"Kikambala","Location":"Junju","Sub_Locati":"Kanamai","Constituen":"BAHARI","Nearest_To":"Mtwapa","Latitude":"-3.87227","Longitude":"39.79793"},"geometry":{"type":"Point","coordinates":[39.79793,-3.87227]}},{"type":"Feature","properties":{"OBJECTID":"6398","Facility_N":"Mt Harmony Clinic","Type":"Medical Clinic","Owner":"Private Enterprise (Institution)","County":"Kilifi","Sub_County":"Kilifi South","Division":"Kikambala","Location":"Takaungu","Sub_Locati":"Shimo La Tewa","Constituen":"BAHARI","Nearest_To":"Kilifi","Latitude":"-3.94607","Longitude":"39.74022"},"geometry":{"type":"Point","coordinates":[39.74022,-3.94607]}},{"type":"Feature","properties":{"OBJECTID":"6413","Facility_N":"Mtangani Medical Clinic","Type":"Medical Clinic","Owner":"Private Practice - Nurse / Midwife","County":"Kilifi","Sub_County":"Malindi","Division":"Malindi","Location":"Malindi","Sub_Locati":"Central","Constituen":"MALINDI","Nearest_To":"Mtangani","Latitude":"-3.20494","Longitude":"40.10209"},"geometry":{"type":"Point","coordinates":[40.10209,-3.20494]}},{"type":"Feature","properties":{"OBJECTID":"6419","Facility_N":"Mtepeni Dispensary","Type":"Dispensary","Owner":"Ministry of Health","County":"Kilifi","Sub_County":"Kilifi South","Division":"Kikambala","Location":"Kdutani","Sub_Locati":"Mtwapa","Constituen":"BAHARI","Nearest_To":"Mtwapa","Latitude":"-3.90731","Longitude":"39.72585"},"geometry":{"type":"Point","coordinates":[39.72585,-3.90731]}},{"type":"Feature","properties":{"OBJECTID":"6421","Facility_N":"Mtondia Dispensary","Type":"Dispensary","Owner":"Ministry of Health","County":"Kilifi","Sub_County":"Kilifi North","Division":"Bahari","Location":"Tezo","Sub_Locati":"Mtondia","Constituen":"BAHARI","Nearest_To":"Mtondia Town","Latitude":"-3.57878","Longitude":"39.86885"},"geometry":{"type":"Point","coordinates":[39.86885,-3.57878]}},{"type":"Feature","properties":{"OBJECTID":"6422","Facility_N":"Mtondia Medical Clinic","Type":"Medical Clinic","Owner":"Private Enterprise (Institution)","County":"Kilifi","Sub_County":"Kilifi North","Division":"Bahari","Location":"Mtsangoni","Sub_Locati":"Mtondia","Constituen":"BAHARI","Nearest_To":"Matsangoni","Latitude":"-3.57536","Longitude":"39.87069"},"geometry":{"type":"Point","coordinates":[39.87069,-3.57536]}},{"type":"Feature","properties":{"OBJECTID":"6426","Facility_N":"Mtoroni Dispensary","Type":"Dispensary","Owner":"Ministry of Health","County":"Kilifi","Sub_County":"Magarini","Division":"Magarini","Location":"Fundi Issa","Sub_Locati":"Marereni","Constituen":"MAGARINI","Nearest_To":"Marereni","Latitude":"-2.86116","Longitude":"40.15056"},"geometry":{"type":"Point","coordinates":[40.15056,-2.86116]}},{"type":"Feature","properties":{"OBJECTID":"6427","Facility_N":"Mtwapa Health Centre","Type":"Health Centre","Owner":"Ministry of Health","County":"Kilifi","Sub_County":"Kilifi South","Division":"Kikambala","Location":"Mtwapa","Sub_Locati":"Mtwapa","Constituen":"BAHARI","Nearest_To":"Mtwapa town","Latitude":"-3.94795","Longitude":"39.73872"},"geometry":{"type":"Point","coordinates":[39.73872,-3.94795]}},{"type":"Feature","properties":{"OBJECTID":"6428","Facility_N":"Mtwapa Nursing Home","Type":"Nursing Home","Owner":"Private Enterprise (Institution)","County":"Kilifi","Sub_County":"Kilifi South","Division":"Kikambala","Location":"Mtwapa","Sub_Locati":"Mtwapa","Constituen":"BAHARI","Nearest_To":"Mtwapa","Latitude":"-3.94698","Longitude":"39.74173"},"geometry":{"type":"Point","coordinates":[39.74173,-3.94698]}},{"type":"Feature","properties":{"OBJECTID":"6443","Facility_N":"Mudzo Medical Clinic","Type":"Medical Clinic","Owner":"Private Practice - Clinical Officer","County":"Kilifi","Sub_County":"Malindi","Division":"Malindi","Location":"Malindi","Sub_Locati":"malindi","Constituen":"MALINDI","Nearest_To":"Kisumu ndogo","Latitude":"-3.13265","Longitude":"40.06198"},"geometry":{"type":"Point","coordinates":[40.06198,-3.13265]}},{"type":"Feature","properties":{"OBJECTID":"6575","Facility_N":"Municipal Health Centre","Type":"Health Centre","Owner":"Ministry of Health","County":"Kilifi","Sub_County":"Malindi","Division":"Malindi","Location":"Malindi","Sub_Locati":"Shella","Constituen":"MALINDI","Nearest_To":"shella","Latitude":"-3.23304","Longitude":"40.11508"},"geometry":{"type":"Point","coordinates":[40.11508,-3.23304]}},{"type":"Feature","properties":{"OBJECTID":"6623","Facility_N":"Muryachakwe Dispensary","Type":"Dispensary","Owner":"Ministry of Health","County":"Kilifi","Sub_County":"Ganze","Division":"Vitengeni","Location":"Mrima Wa Ndege","Sub_Locati":"Milore","Constituen":"GANZE","Nearest_To":"Muryachakwe","Latitude":"-3.28833","Longitude":"39.57636"},"geometry":{"type":"Point","coordinates":[39.57636,-3.28833]}},{"type":"Feature","properties":{"OBJECTID":"6739","Facility_N":"Muyeye Medical Clinic","Type":"Medical Clinic","Owner":"Private Practice - Clinical Officer","County":"Kilifi","Sub_County":"Malindi","Division":"Malindi","Location":"Malindi","Sub_Locati":"Shella","Constituen":"MALINDI","Nearest_To":"Shella","Latitude":"-3.24161","Longitude":"40.11486"},"geometry":{"type":"Point","coordinates":[40.11486,-3.24161]}},{"type":"Feature","properties":{"OBJECTID":"6764","Facility_N":"Mwangatini Dispensary","Type":"Dispensary","Owner":"Ministry of Health","County":"Kilifi","Sub_County":"Magarini","Division":"Magarini","Location":"Magarini","Sub_Locati":"Pumwani","Constituen":"MAGARINI","Nearest_To":"Markebuni","Latitude":"-3.1423","Longitude":"40.042289"},"geometry":{"type":"Point","coordinates":[40.042289,-3.1423]}},{"type":"Feature","properties":{"OBJECTID":"6776","Facility_N":"Mwanzo Medical Clinic","Type":"Medical Clinic","Owner":"Private Enterprise (Institution)","County":"Kilifi","Sub_County":"Kilifi South","Division":"Kikambala","Location":"Mtwapa","Sub_Locati":"Shimo La Tewa","Constituen":"BAHARI","Nearest_To":"Mtwapa","Latitude":"-3.94539","Longitude":"39.74677"},"geometry":{"type":"Point","coordinates":[39.74677,-3.94539]}},{"type":"Feature","properties":{"OBJECTID":"6778","Facility_N":"Mwapula Dispensary","Type":"Dispensary","Owner":"Ministry of Health","County":"Kilifi","Sub_County":"Ganze","Division":"Jaribuni","Location":"Jaribuni","Sub_Locati":"Mwapula","Constituen":"GANZE","Nearest_To":"Jaribuni","Latitude":"-3.61864","Longitude":"39.7034"},"geometry":{"type":"Point","coordinates":[39.7034,-3.61864]}},{"type":"Feature","properties":{"OBJECTID":"6787","Facility_N":"Mwavizi Medical Clinic","Type":"Medical Clinic","Owner":"Private Practice - Nurse / Midwife","County":"Kilifi","Sub_County":"Malindi","Division":"Malindi","Location":"Malindi","Sub_Locati":"Sabaki","Constituen":"MALINDI","Nearest_To":"Malindi","Latitude":"-3.16968","Longitude":"40.08494"},"geometry":{"type":"Point","coordinates":[40.08494,-3.16968]}},{"type":"Feature","properties":{"OBJECTID":"6788","Facility_N":"Mwawesa Medical Clinic","Type":"Medical Clinic","Owner":"Private Practice - Clinical Officer","County":"Kilifi","Sub_County":"Malindi","Division":"Malindi","Location":"Malindi","Sub_Locati":"Barani","Constituen":"MALINDI","Nearest_To":"Kisumu ndogo","Latitude":"-3.22309","Longitude":"40.10757"},"geometry":{"type":"Point","coordinates":[40.10757,-3.22309]}},{"type":"Feature","properties":{"OBJECTID":"6816","Facility_N":"Mwichens Medical Clinic","Type":"Medical Clinic","Owner":"Private Practice - Clinical Officer","County":"Kilifi","Sub_County":"Malindi","Division":"Malindi","Location":"Malindi","Sub_Locati":"Barani","Constituen":"MALINDI","Nearest_To":"Malindi","Latitude":"-3.13161","Longitude":"40.06484"},"geometry":{"type":"Point","coordinates":[40.06484,-3.13161]}},{"type":"Feature","properties":{"OBJECTID":"6837","Facility_N":"Mzee Paurana Community Medical Clinic","Type":"Medical Clinic","Owner":"Private Practice - General Practitioner","County":"Kilifi","Sub_County":"Rabai","Division":"Kambe-Ribe","Location":"Kambe","Sub_Locati":"Bondora","Constituen":"KALOLENI","Nearest_To":"Kaloleni","Latitude":"-3.84907","Longitude":"39.6331"},"geometry":{"type":"Point","coordinates":[39.6331,-3.84907]}},{"type":"Feature","properties":{"OBJECTID":"7001","Facility_N":"Nawaco Clinic","Type":"Dispensary","Owner":"Non-Governmental Organizations","County":"Kilifi","Sub_County":"Malindi","Division":"Lango Baya","Location":"Lango Baya","Sub_Locati":"Lango Baya","Constituen":"MALINDI","Nearest_To":"Lango Baya market","Latitude":"-3.12989","Longitude":"39.78219"},"geometry":{"type":"Point","coordinates":[39.78219,-3.12989]}},{"type":"Feature","properties":{"OBJECTID":"7099","Facility_N":"Neema  Medical Clinic","Type":"Medical Clinic","Owner":"Private Practice - Nurse / Midwife","County":"Kilifi","Sub_County":"Kilifi South","Division":"Kikambala","Location":"Mtwapa","Sub_Locati":"Shimo la tewa","Constituen":"BAHARI","Nearest_To":"Mtwapa","Latitude":"-3.92154","Longitude":"39.71758"},"geometry":{"type":"Point","coordinates":[39.71758,-3.92154]}},{"type":"Feature","properties":{"OBJECTID":"7110","Facility_N":"Neema Medical Clinic (Malindi)","Type":"Medical Clinic","Owner":"Private Practice - Nurse / Midwife","County":"Kilifi","Sub_County":"Magarini","Division":"Magarini","Location":"Gongoni","Sub_Locati":"Gongoni","Constituen":"MAGARINI","Nearest_To":"Gongoni market","Latitude":"-3.03775","Longitude":"40.13759"},"geometry":{"type":"Point","coordinates":[40.13759,-3.03775]}},{"type":"Feature","properties":{"OBJECTID":"7150","Facility_N":"New Mwema Medical Clinic","Type":"Medical Clinic","Owner":"Private Practice - Clinical Officer","County":"Kilifi","Sub_County":"Kilifi South","Division":"Kikambala","Location":"Mtwapa","Sub_Locati":"Mtwapa","Constituen":"BAHARI","Nearest_To":"Mtwapa","Latitude":"-3.9482","Longitude":"39.74094"},"geometry":{"type":"Point","coordinates":[39.74094,-3.9482]}},{"type":"Feature","properties":{"OBJECTID":"7211","Facility_N":"Ngerenya Dispensary","Type":"Dispensary","Owner":"Ministry of Health","County":"Kilifi","Sub_County":"Kilifi North","Division":"Bahari","Location":"Ngerenya","Sub_Locati":"Ngerenya","Constituen":"BAHARI","Nearest_To":"Ngerenya","Latitude":"-3.51368","Longitude":"39.86228"},"geometry":{"type":"Point","coordinates":[39.86228,-3.51368]}},{"type":"Feature","properties":{"OBJECTID":"7244","Facility_N":"Ngomeni Dispensary (Malindi)","Type":"Dispensary","Owner":"Ministry of Health","County":"Kilifi","Sub_County":"Magarini","Division":"Magarini","Location":"Gongoni","Sub_Locati":"Ngomeni","Constituen":"MAGARINI","Nearest_To":"Ngomeni town","Latitude":"-2.99997","Longitude":"40.18708"},"geometry":{"type":"Point","coordinates":[40.18708,-2.99997]}},{"type":"Feature","properties":{"OBJECTID":"7350","Facility_N":"Nopri Medical Centre","Type":"Medical Clinic","Owner":"Private Practice - Clinical Officer","County":"Kilifi","Sub_County":"Kilifi South","Division":"Kikambala","Location":"Shimo La Tewa","Sub_Locati":"Shimo La Tewa","Constituen":"BAHARI","Nearest_To":"Mtwapa","Latitude":"-3.95153","Longitude":"39.74584"},"geometry":{"type":"Point","coordinates":[39.74584,-3.95153]}},{"type":"Feature","properties":{"OBJECTID":"7355","Facility_N":"North Shore Medical Centre","Type":"Medical Clinic","Owner":"Private Practice - Clinical Officer","County":"Kilifi","Sub_County":"Kilifi South","Division":"Kikambala","Location":"Mtwapa","Sub_Locati":"Mtwapa","Constituen":"BAHARI","Nearest_To":"Mtwapa","Latitude":"-3.56327","Longitude":"39.4434"},"geometry":{"type":"Point","coordinates":[39.4434,-3.56327]}},{"type":"Feature","properties":{"OBJECTID":"7390","Facility_N":"Nuru Health Care Centre","Type":"Medical Clinic","Owner":"Private Enterprise (Institution)","County":"Kilifi","Sub_County":"Kilifi South","Division":"Kikambala","Location":"Mtwapa","Sub_Locati":"Shimo La Tewa","Constituen":"BAHARI","Nearest_To":"Mtwapa","Latitude":"-3.9342","Longitude":"39.7362"},"geometry":{"type":"Point","coordinates":[39.7362,-3.9342]}},{"type":"Feature","properties":{"OBJECTID":"7625","Facility_N":"Oasis Medical Center","Type":"Dispensary","Owner":"Christian Health Association of Kenya","County":"Kilifi","Sub_County":"Kilifi South","Division":"Kikambala","Location":"Mtwapa","Sub_Locati":"Mtwapa","Constituen":"BAHARI","Nearest_To":"Mtwapa","Latitude":"-3.93024","Longitude":"39.74955"},"geometry":{"type":"Point","coordinates":[39.74955,-3.93024]}},{"type":"Feature","properties":{"OBJECTID":"7891","Facility_N":"Palakumi Dispensary","Type":"Dispensary","Owner":"Ministry of Health","County":"Kilifi","Sub_County":"Ganze","Division":"Ganze","Location":"Palakumi","Sub_Locati":"Palakumi","Constituen":"GANZE","Nearest_To":"palakumi village","Latitude":"-3.62565","Longitude":"39.60708"},"geometry":{"type":"Point","coordinates":[39.60708,-3.62565]}},{"type":"Feature","properties":{"OBJECTID":"7989","Facility_N":"Pingilikani Dispensary","Type":"Dispensary","Owner":"Ministry of Health","County":"Kilifi","Sub_County":"Kilifi South","Division":"Chonyi","Location":"Bandasalama","Sub_Locati":"Pingilikani","Constituen":"BAHARI","Nearest_To":"Pingilikani shopping centre","Latitude":"-3.77463","Longitude":"39.77309"},"geometry":{"type":"Point","coordinates":[39.77309,-3.77463]}},{"type":"Feature","properties":{"OBJECTID":"8099","Facility_N":"Pumzika Medical Clinic","Type":"Medical Clinic","Owner":"Private Practice - Nurse / Midwife","County":"Kilifi","Sub_County":"Kilifi South","Division":"Kikambala","Location":"Mtwapa","Sub_Locati":"Mtwapa","Constituen":"BAHARI","Nearest_To":"Mtwapa","Latitude":"-3.95112","Longitude":"39.74316"},"geometry":{"type":"Point","coordinates":[39.74316,-3.95112]}},{"type":"Feature","properties":{"OBJECTID":"8103","Facility_N":"Pwani Maternity and Nursing Home","Type":"Nursing Home","Owner":"Private Enterprise (Institution)","County":"Kilifi","Sub_County":"Kilifi North","Division":"Bahari","Location":"Township","Sub_Locati":"Hospital","Constituen":"BAHARI","Nearest_To":"Kilifi","Latitude":"-3.63096","Longitude":"39.85396"},"geometry":{"type":"Point","coordinates":[39.85396,-3.63096]}},{"type":"Feature","properties":{"OBJECTID":"8104","Facility_N":"Pwani University College Clinic","Type":"Dispensary","Owner":"Other Public Institution","County":"Kilifi","Sub_County":"Kilifi North","Division":"Bahari","Location":"Township","Sub_Locati":"Sokoni","Constituen":"BAHARI","Nearest_To":"Kibaoni","Latitude":"-3.61944","Longitude":"39.84739"},"geometry":{"type":"Point","coordinates":[39.84739,-3.61944]}},{"type":"Feature","properties":{"OBJECTID":"8118","Facility_N":"Rabai Rural Health Demonstration Centre","Type":"Health Centre","Owner":"Ministry of Health","County":"Kilifi","Sub_County":"Rabai","Division":"Rabai","Location":"Rabai","Sub_Locati":"Mwele-Kisuritni","Constituen":"KALOLENI","Nearest_To":"Mazeras","Latitude":"-3.93899","Longitude":"39.5664"},"geometry":{"type":"Point","coordinates":[39.5664,-3.93899]}},{"type":"Feature","properties":{"OBJECTID":"8149","Facility_N":"Rainbow Community Care","Type":"Health Centre","Owner":"Community","County":"Kilifi","Sub_County":"Malindi","Division":"Malindi","Location":"Malindi","Sub_Locati":"Sabaki","Constituen":"MALINDI","Nearest_To":"Malindi","Latitude":"-3.18099","Longitude":"40.11512"},"geometry":{"type":"Point","coordinates":[40.11512,-3.18099]}},{"type":"Feature","properties":{"OBJECTID":"8150","Facility_N":"Rainbow Medical Burangi","Type":"Dispensary","Owner":"Community","County":"Kilifi","Sub_County":"Malindi","Division":"Magarini","Location":"Magarini","Sub_Locati":"pumwani","Constituen":"MALINDI","Nearest_To":"Malindi","Latitude":"-3.26192","Longitude":"40.0897"},"geometry":{"type":"Point","coordinates":[40.0897,-3.26192]}},{"type":"Feature","properties":{"OBJECTID":"8154","Facility_N":"Ramada Dispensary","Type":"Dispensary","Owner":"Non-Governmental Organizations","County":"Kilifi","Sub_County":"Magarini","Division":"Marafa","Location":"Marafa","Sub_Locati":"Ramada","Constituen":"MAGARINI","Nearest_To":"Gongoni","Latitude":"-2.89249","Longitude":"40.02373"},"geometry":{"type":"Point","coordinates":[40.02373,-2.89249]}},{"type":"Feature","properties":{"OBJECTID":"8198","Facility_N":"Rea Vipingo Dispensary","Type":"Medical Clinic","Owner":"Company Medical Service","County":"Kilifi","Sub_County":"Kilifi South","Division":"Kikambala","Location":"Junju","Sub_Locati":"Vipingo","Constituen":"BAHARI","Nearest_To":"Vipingo","Latitude":"-3.82222","Longitude":"39.79516"},"geometry":{"type":"Point","coordinates":[39.79516,-3.82222]}},{"type":"Feature","properties":{"OBJECTID":"8258","Facility_N":"Ribe Dispensary","Type":"Dispensary","Owner":"Ministry of Health","County":"Kilifi","Sub_County":"Rabai","Division":"Kaloleni","Location":"Ribe","Sub_Locati":"Chauringo","Constituen":"KALOLENI","Nearest_To":"Kaloleni","Latitude":"-3.88517","Longitude":"39.63157"},"geometry":{"type":"Point","coordinates":[39.63157,-3.88517]}},{"type":"Feature","properties":{"OBJECTID":"8296","Facility_N":"Roka Maweni Dispensary","Type":"Dispensary","Owner":"Ministry of Health","County":"Kilifi","Sub_County":"Kilifi North","Division":"Bahari","Location":"Tezo","Sub_Locati":"Roka","Constituen":"BAHARI","Nearest_To":"Chumani","Latitude":"-3.4436","Longitude":"39.92867"},"geometry":{"type":"Point","coordinates":[39.92867,-3.4436]}},{"type":"Feature","properties":{"OBJECTID":"8337","Facility_N":"Royal Health Care","Type":"Medical Clinic","Owner":"Private Practice - General Practitioner","County":"Kilifi","Sub_County":"Malindi","Division":"Malindi","Location":"Malindi","Sub_Locati":"Shella","Constituen":"MALINDI","Nearest_To":"Malindi","Latitude":"-3.21658","Longitude":"40.12222"},"geometry":{"type":"Point","coordinates":[40.12222,-3.21658]}},{"type":"Feature","properties":{"OBJECTID":"8401","Facility_N":"Sabaki Dispensary","Type":"Dispensary","Owner":"Ministry of Health","County":"Kilifi","Sub_County":"Malindi","Division":"Malindi","Location":"Malindi","Sub_Locati":"Sabaki","Constituen":"MALINDI","Nearest_To":"Kwandomo trading centre","Latitude":"-3.1669","Longitude":"40.11085"},"geometry":{"type":"Point","coordinates":[40.11085,-3.1669]}},{"type":"Feature","properties":{"OBJECTID":"8422","Facility_N":"Sacred Heart Medical Clinic","Type":"Medical Clinic","Owner":"Private Practice - Clinical Officer","County":"Kilifi","Sub_County":"Malindi","Division":"Malindi","Location":"Malindi","Sub_Locati":"Shella","Constituen":"MALINDI","Nearest_To":"Malindi","Latitude":"-3.10851","Longitude":"40.06842"},"geometry":{"type":"Point","coordinates":[40.06842,-3.10851]}},{"type":"Feature","properties":{"OBJECTID":"8491","Facility_N":"San Marco Project Clinic","Type":"Medical Clinic","Owner":"Private Practice - Nurse / Midwife","County":"Kilifi","Sub_County":"Malindi","Division":"Magarini","Location":"Gongoni","Sub_Locati":"Ngomeni","Constituen":"MALINDI","Nearest_To":"Gongoni","Latitude":"-2.99605","Longitude":"40.19492"},"geometry":{"type":"Point","coordinates":[40.19492,-2.99605]}},{"type":"Feature","properties":{"OBJECTID":"8547","Facility_N":"Sea Breeze Medical Clinic","Type":"Medical Clinic","Owner":"Private Practice - Clinical Officer","County":"Kilifi","Sub_County":"Malindi","Division":"Malindi","Location":"Maweni","Sub_Locati":"Shella","Constituen":"MALINDI","Nearest_To":"Seabreeze","Latitude":"-3.13367","Longitude":"40.07555"},"geometry":{"type":"Point","coordinates":[40.07555,-3.13367]}},{"type":"Feature","properties":{"OBJECTID":"8548","Facility_N":"Seaside Hospital Mariakani","Type":"Other Hospital","Owner":"Private Practice - General Practitioner","County":"Kilifi","Sub_County":"Kaloleni","Division":"Mariakani","Location":"Mariakani","Sub_Locati":"Mariakani","Constituen":"KALOLENI","Nearest_To":"Mariakani town","Latitude":"3.45671","Longitude":"39.47743"},"geometry":{"type":"Point","coordinates":[39.47743,3.45671]}},{"type":"Feature","properties":{"OBJECTID":"8583","Facility_N":"Serena Medical Clinic","Type":"Medical Clinic","Owner":"Private Practice - Clinical Officer","County":"Kilifi","Sub_County":"Malindi","Division":"malindi","Location":"malindi","Sub_Locati":"barani","Constituen":"MALINDI","Nearest_To":"malindi","Latitude":"-3.22709","Longitude":"40.10338"},"geometry":{"type":"Point","coordinates":[40.10338,-3.22709]}},{"type":"Feature","properties":{"OBJECTID":"8627","Facility_N":"Shangia Dispensary","Type":"Dispensary","Owner":"Ministry of Health","County":"Kilifi","Sub_County":"Kaloleni","Division":"Mariakani","Location":"Mariakani","Sub_Locati":"Mitangoni","Constituen":"KALOLENI","Nearest_To":"Shangia","Latitude":"-3.80689","Longitude":"39.41075"},"geometry":{"type":"Point","coordinates":[39.41075,-3.80689]}},{"type":"Feature","properties":{"OBJECTID":"8685","Facility_N":"Shomella Dispensary","Type":"Dispensary","Owner":"Community","County":"Kilifi","Sub_County":"Magarini","Division":"Magarini","Location":"Gongoni","Sub_Locati":"Shomella","Constituen":"MAGARINI","Nearest_To":"Gongoni","Latitude":"-2.98021","Longitude":"40.05606"},"geometry":{"type":"Point","coordinates":[40.05606,-2.98021]}},{"type":"Feature","properties":{"OBJECTID":"8738","Facility_N":"Siloam Medical Clinic (Malindi)","Type":"Medical Clinic","Owner":"Private Practice - Clinical Officer","County":"Kilifi","Sub_County":"Malindi","Division":"Malindi","Location":"Malindi","Sub_Locati":"shella","Constituen":"MALINDI","Nearest_To":"Malindi","Latitude":"-3.228","Longitude":"40.11308"},"geometry":{"type":"Point","coordinates":[40.11308,-3.228]}},{"type":"Feature","properties":{"OBJECTID":"8749","Facility_N":"Similani Medical Clinic","Type":"Medical Clinic","Owner":"Private Practice - Clinical Officer","County":"Kilifi","Sub_County":"Magarini","Division":"Magarini","Location":"Fundiissa","Sub_Locati":"Marereni","Constituen":"MAGARINI","Nearest_To":"Marereni","Latitude":"-2.86147","Longitude":"40.14847"},"geometry":{"type":"Point","coordinates":[40.14847,-2.86147]}},{"type":"Feature","properties":{"OBJECTID":"8833","Facility_N":"Sokoke Dispensary","Type":"Dispensary","Owner":"Ministry of Health","County":"Kilifi","Sub_County":"Ganze","Division":"Vitengeni","Location":"Sokoke","Sub_Locati":"Magogoni","Constituen":"GANZE","Nearest_To":"Vitenegeni","Latitude":"-3.52547","Longitude":"39.78235"},"geometry":{"type":"Point","coordinates":[39.78235,-3.52547]}},{"type":"Feature","properties":{"OBJECTID":"8834","Facility_N":"Sokoke Medical Clinic","Type":"Medical Clinic","Owner":"Private Enterprise (Institution)","County":"Kilifi","Sub_County":"Ganze","Division":"Vitengeni","Location":"Sokoke","Sub_Locati":"Madamani","Constituen":"GANZE","Nearest_To":"Sokoke","Latitude":"-3.38052","Longitude":"39.7369"},"geometry":{"type":"Point","coordinates":[39.7369,-3.38052]}},{"type":"Feature","properties":{"OBJECTID":"8873","Facility_N":"Sosoni Dispensary","Type":"Dispensary","Owner":"Ministry of Health","County":"Kilifi","Sub_County":"Magarini","Division":"Marafa","Location":"Bungale","Sub_Locati":"Dakacha","Constituen":"MAGARINI","Nearest_To":"Wakala","Latitude":"-3.02795","Longitude":"39.323"},"geometry":{"type":"Point","coordinates":[39.323,-3.02795]}},{"type":"Feature","properties":{"OBJECTID":"8916","Facility_N":"St Andrews Medical Clinic","Type":"Medical Clinic","Owner":"Private Enterprise (Institution)","County":"Kilifi","Sub_County":"Magarini","Division":"Magarini","Location":"Gongoni","Sub_Locati":"Gongoni","Constituen":"MAGARINI","Nearest_To":"Gongoni market","Latitude":"-3.03411","Longitude":"40.1374"},"geometry":{"type":"Point","coordinates":[40.1374,-3.03411]}},{"type":"Feature","properties":{"OBJECTID":"8928","Facility_N":"St Anne Mida Catholic Dispensary","Type":"Dispensary","Owner":"Kenya Episcopal Conference-Catholic Secretariat","County":"Kilifi","Sub_County":"Kilifi North","Division":"Malindi","Location":"Gede","Sub_Locati":"Mida","Constituen":"MALINDI","Nearest_To":"Gede","Latitude":"-3.20793","Longitude":"40.06075"},"geometry":{"type":"Point","coordinates":[40.06075,-3.20793]}},{"type":"Feature","properties":{"OBJECTID":"8953","Facility_N":"St Bennedticto Health Centre","Type":"Medical Clinic","Owner":"Private Enterprise (Institution)","County":"Kilifi","Sub_County":"Malindi","Division":"Malindi","Location":"Malindi","Sub_Locati":"Sabaki","Constituen":"MALINDI","Nearest_To":"Malindi","Latitude":"-3.19804","Longitude":"40.11096"},"geometry":{"type":"Point","coordinates":[40.11096,-3.19804]}},{"type":"Feature","properties":{"OBJECTID":"9089","Facility_N":"St Luke's (ACK) Hospital Kaloleni","Type":"Other Hospital","Owner":"Other Faith Based","County":"Kilifi","Sub_County":"Kaloleni","Division":"Kaloleni","Location":"Kaloleni","Sub_Locati":"Kaloleni","Constituen":"KALOLENI","Nearest_To":"Kaloleni","Latitude":"-3.81187","Longitude":"39.6331"},"geometry":{"type":"Point","coordinates":[39.6331,-3.81187]}},{"type":"Feature","properties":{"OBJECTID":"9138","Facility_N":"St Mary's Medical Clinic (Malindi)","Type":"Medical Clinic","Owner":"Private Practice - Nurse / Midwife","County":"Kilifi","Sub_County":"Magarini","Division":"Magarini","Location":"Fundi Issa","Sub_Locati":"Marereni","Constituen":"MAGARINI","Nearest_To":"Marereni","Latitude":"-2.86033","Longitude":"40.14977"},"geometry":{"type":"Point","coordinates":[40.14977,-2.86033]}},{"type":"Feature","properties":{"OBJECTID":"9146","Facility_N":"St Marys Msabaha Catholic Dispensary","Type":"Dispensary","Owner":"Kenya Episcopal Conference-Catholic Secretariat","County":"Kilifi","Sub_County":"Malindi","Division":"Malindi","Location":"Ganda","Sub_Locati":"msabaha","Constituen":"MALINDI","Nearest_To":"Msabaha village","Latitude":"-3.26492","Longitude":"40.0516"},"geometry":{"type":"Point","coordinates":[40.0516,-3.26492]}},{"type":"Feature","properties":{"OBJECTID":"9189","Facility_N":"St Paul's Medical Clinic (Malindi)","Type":"Medical Clinic","Owner":"Private Practice - Nurse / Midwife","County":"Kilifi","Sub_County":"Malindi","Division":"Malindi","Location":"Goshi","Sub_Locati":"Madunguni","Constituen":"MALINDI","Nearest_To":"Madunguni","Latitude":"-3.11","Longitude":"39.58471"},"geometry":{"type":"Point","coordinates":[39.58471,-3.11]}},{"type":"Feature","properties":{"OBJECTID":"9200","Facility_N":"St Peter's Hospital","Type":"Health Centre","Owner":"Private Practice - Clinical Officer","County":"Kilifi","Sub_County":"Malindi","Division":"Malindi","Location":"Malindi","Sub_Locati":"Shella","Constituen":"MALINDI","Nearest_To":"shella","Latitude":"-3.23281","Longitude":"40.12563"},"geometry":{"type":"Point","coordinates":[40.12563,-3.23281]}},{"type":"Feature","properties":{"OBJECTID":"9224","Facility_N":"St Terezia Medical Clinic","Type":"Medical Clinic","Owner":"Private Enterprise (Institution)","County":"Kilifi","Sub_County":"Malindi","Division":"Malindi","Location":"Malindi","Sub_Locati":"Barani","Constituen":"MALINDI","Nearest_To":"Malindi","Latitude":"-3.13175","Longitude":"40.06575"},"geometry":{"type":"Point","coordinates":[40.06575,-3.13175]}},{"type":"Feature","properties":{"OBJECTID":"9226","Facility_N":"St Theresa Dispensary","Type":"Dispensary","Owner":"Christian Health Association of Kenya","County":"Kilifi","Sub_County":"Kilifi South","Division":"Chonyi","Location":"Ziani","Sub_Locati":"Bandara Salama","Constituen":"BAHARI","Nearest_To":"Chasimba","Latitude":"-3.7925","Longitude":"39.7038"},"geometry":{"type":"Point","coordinates":[39.7038,-3.7925]}},{"type":"Feature","properties":{"OBJECTID":"9266","Facility_N":"Stage View Medical Clinic","Type":"Medical Clinic","Owner":"Private Practice - Clinical Officer","County":"Kilifi","Sub_County":"Kilifi North","Division":"Bahari","Location":"Township","Sub_Locati":"Hospital","Constituen":"BAHARI","Nearest_To":"Kilifi","Latitude":"-3.63345","Longitude":"39.85164"},"geometry":{"type":"Point","coordinates":[39.85164,-3.63345]}},{"type":"Feature","properties":{"OBJECTID":"9268","Facility_N":"Stanbridge Care Centre","Type":"Medical Clinic","Owner":"Private Practice - Clinical Officer","County":"Kilifi","Sub_County":"Malindi","Division":"Malindi","Location":"Malindi","Sub_Locati":"Barani","Constituen":"MALINDI","Nearest_To":"Malindi","Latitude":"-3.2198","Longitude":"40.10569"},"geometry":{"type":"Point","coordinates":[40.10569,-3.2198]}},{"type":"Feature","properties":{"OBJECTID":"9270","Facility_N":"Star Hospital","Type":"Other Hospital","Owner":"Private Enterprise (Institution)","County":"Kilifi","Sub_County":"Malindi","Division":"Malindi","Location":"Malindi","Sub_Locati":"Barani","Constituen":"MALINDI","Nearest_To":"Malindi","Latitude":"-3.21473","Longitude":"40.1188"},"geometry":{"type":"Point","coordinates":[40.1188,-3.21473]}},{"type":"Feature","properties":{"OBJECTID":"9296","Facility_N":"Subira Medical Clinic","Type":"Medical Clinic","Owner":"Private Practice - Clinical Officer","County":"Kilifi","Sub_County":"Malindi","Division":"Malindi","Location":"Malindi","Sub_Locati":"Barani","Constituen":"MALINDI","Nearest_To":"Malindi","Latitude":"-3.21354","Longitude":"40.09913"},"geometry":{"type":"Point","coordinates":[40.09913,-3.21354]}},{"type":"Feature","properties":{"OBJECTID":"9323","Facility_N":"Sun N' Sand Medical Clinic","Type":"Dispensary","Owner":"Private Enterprise (Institution)","County":"Kilifi","Sub_County":"Kilifi South","Division":"Kikambala","Location":"Junju","Sub_Locati":"Kuruwitu","Constituen":"BAHARI","Nearest_To":"Kikambala","Latitude":"-3.89575","Longitude":"39.79139"},"geometry":{"type":"Point","coordinates":[39.79139,-3.89575]}},{"type":"Feature","properties":{"OBJECTID":"9348","Facility_N":"Super Medical Clinic","Type":"Medical Clinic","Owner":"Private Practice - Nurse / Midwife","County":"Kilifi","Sub_County":"Malindi","Division":"Malindi","Location":"Malindi","Sub_Locati":"Shella","Constituen":"MALINDI","Nearest_To":"Malindi","Latitude":"-3.21866","Longitude":"40.11681"},"geometry":{"type":"Point","coordinates":[40.11681,-3.21866]}},{"type":"Feature","properties":{"OBJECTID":"9354","Facility_N":"Surgery Clinic","Type":"Medical Clinic","Owner":"Private Practice - Medical Specialist","County":"Kilifi","Sub_County":"Malindi","Division":"Malindi","Location":"Malindi","Sub_Locati":"Barani","Constituen":"MALINDI","Nearest_To":"Malindi old Market","Latitude":"-3.21333","Longitude":"40.11861"},"geometry":{"type":"Point","coordinates":[40.11861,-3.21333]}},{"type":"Feature","properties":{"OBJECTID":"9356","Facility_N":"Surgury Clinic","Type":"Medical Clinic","Owner":"Private Practice - Medical Specialist","County":"Kilifi","Sub_County":"Malindi","Division":"Malindi","Location":"Malindi","Sub_Locati":"Barani","Constituen":"MALINDI","Nearest_To":"Malindi","Latitude":"-3.20755","Longitude":"40.11603"},"geometry":{"type":"Point","coordinates":[40.11603,-3.20755]}},{"type":"Feature","properties":{"OBJECTID":"9365","Facility_N":"Swiss Cottage Hospital","Type":"Nursing Home","Owner":"Private Enterprise (Institution)","County":"Kilifi","Sub_County":"Kilifi South","Division":"Kikambala","Location":"Mtwapa","Sub_Locati":"Shimo la Tewa","Constituen":"BAHARI","Nearest_To":"Mtwapa","Latitude":"-3.9512","Longitude":"39.74585"},"geometry":{"type":"Point","coordinates":[39.74585,-3.9512]}},{"type":"Feature","properties":{"OBJECTID":"9398","Facility_N":"Takaungu Dispensary","Type":"Dispensary","Owner":"Ministry of Health","County":"Kilifi","Sub_County":"Kilifi North","Division":"Kikambala","Location":"Takaungu","Sub_Locati":"Takaungu","Constituen":"BAHARI","Nearest_To":"Takaungu","Latitude":"-3.68301","Longitude":"39.86112"},"geometry":{"type":"Point","coordinates":[39.86112,-3.68301]}},{"type":"Feature","properties":{"OBJECTID":"9449","Facility_N":"Tawfiq Muslim Hospital","Type":"Other Hospital","Owner":"Supreme Council for Kenya Muslims","County":"Kilifi","Sub_County":"Malindi","Division":"Malindi","Location":"Malindi","Sub_Locati":"Barani","Constituen":"MALINDI","Nearest_To":"Malindi","Latitude":"-3.22078","Longitude":"40.11293"},"geometry":{"type":"Point","coordinates":[40.11293,-3.22078]}},{"type":"Feature","properties":{"OBJECTID":"9450","Facility_N":"Tawheed Dispensary","Type":"Dispensary","Owner":"Other Faith Based","County":"Kilifi","Sub_County":"Malindi","Division":"Malindi","Location":"Malindi","Sub_Locati":"Barani","Constituen":"MALINDI","Nearest_To":"Malindi","Latitude":"-3.21693","Longitude":"40.11485"},"geometry":{"type":"Point","coordinates":[40.11485,-3.21693]}},{"type":"Feature","properties":{"OBJECTID":"9454","Facility_N":"Tchamalo Medical Clinic","Type":"Medical Clinic","Owner":"Private Practice - Nurse / Midwife","County":"Kilifi","Sub_County":"Ganze","Division":"Ganze","Location":"Ganze","Sub_Locati":"Ganze","Constituen":"GANZE","Nearest_To":"Ganze","Latitude":"-3.54295","Longitude":"39.69266"},"geometry":{"type":"Point","coordinates":[39.69266,-3.54295]}},{"type":"Feature","properties":{"OBJECTID":"9488","Facility_N":"Tezo Community Health Care","Type":"Medical Clinic","Owner":"Private Practice - Nurse / Midwife","County":"Kilifi","Sub_County":"Kilifi North","Division":"Bahari","Location":"Ngima","Sub_Locati":"Ngerenya","Constituen":"BAHARI","Nearest_To":"Ngerenya","Latitude":"-3.53496","Longitude":"39.87941"},"geometry":{"type":"Point","coordinates":[39.87941,-3.53496]}},{"type":"Feature","properties":{"OBJECTID":"9520","Facility_N":"The Omari Project","Type":"VCT Centre (Stand-Alone)","Owner":"Other Public Institution","County":"Kilifi","Sub_County":"Malindi","Division":"Malindi","Location":"Malindi","Sub_Locati":"sea -breeze","Constituen":"MALINDI","Nearest_To":"Malindi","Latitude":"-3.13403","Longitude":"40.07474"},"geometry":{"type":"Point","coordinates":[40.07474,-3.13403]}},{"type":"Feature","properties":{"OBJECTID":"9577","Facility_N":"Timboni Community Dispensary","Type":"Dispensary","Owner":"Community","County":"Kilifi","Sub_County":"Kilifi North","Division":"Malindi","Location":"Gede","Sub_Locati":"Dabaso","Constituen":"MALINDI","Nearest_To":"Gede","Latitude":"-3.34844","Longitude":"40.0117"},"geometry":{"type":"Point","coordinates":[40.0117,-3.34844]}},{"type":"Feature","properties":{"OBJECTID":"9631","Facility_N":"Toto Medicare","Type":"Medical Clinic","Owner":"Private Practice - Clinical Officer","County":"Kilifi","Sub_County":"Kilifi South","Division":"Kikambala","Location":"Mtwapa","Sub_Locati":"Shimo la tewa","Constituen":"BAHARI","Nearest_To":"Mtwapa","Latitude":"-3.94294","Longitude":"39.73797"},"geometry":{"type":"Point","coordinates":[39.73797,-3.94294]}},{"type":"Feature","properties":{"OBJECTID":"9634","Facility_N":"Town Centre Medical Clinic","Type":"Medical Clinic","Owner":"Private Practice - Clinical Officer","County":"Kilifi","Sub_County":"Malindi","Division":"Malindi","Location":"Malindi","Sub_Locati":"Shella","Constituen":"MALINDI","Nearest_To":"Malindi","Latitude":"-3.22192","Longitude":"40.11435"},"geometry":{"type":"Point","coordinates":[40.11435,-3.22192]}},{"type":"Feature","properties":{"OBJECTID":"9655","Facility_N":"Tsangatsini Dispensary","Type":"Dispensary","Owner":"Ministry of Health","County":"Kilifi","Sub_County":"Kaloleni","Division":"Mariakani","Location":"Tsangatsini","Sub_Locati":"Tsangatsini","Constituen":"KALOLENI","Nearest_To":"Mariakani","Latitude":"-3.42862","Longitude":"39.26989"},"geometry":{"type":"Point","coordinates":[39.26989,-3.42862]}},{"type":"Feature","properties":{"OBJECTID":"9691","Facility_N":"Tumaini Golden Clinic","Type":"Medical Clinic","Owner":"Private Practice - Clinical Officer","County":"Kilifi","Sub_County":"Kilifi South","Division":"Kikambala","Location":" ","Sub_Locati":" ","Constituen":"BAHARI","Nearest_To":"Mtwapa","Latitude":"-3.91349","Longitude":"39.75568"},"geometry":{"type":"Point","coordinates":[39.75568,-3.91349]}},{"type":"Feature","properties":{"OBJECTID":"9699","Facility_N":"Tumaini Medical Cl Dzitsoni","Type":"Medical Clinic","Owner":"Private Practice - Nurse / Midwife","County":"Kilifi","Sub_County":"Kilifi North","Division":"Chonyi","Location":"Chasimba","Sub_Locati":"Kitsoeni","Constituen":"BAHARI","Nearest_To":"Dzitsoni","Latitude":"-3.69632","Longitude":"39.72088"},"geometry":{"type":"Point","coordinates":[39.72088,-3.69632]}},{"type":"Feature","properties":{"OBJECTID":"9706","Facility_N":"Tumaini Medical Clinic (Malindi)","Type":"Medical Clinic","Owner":"Private Enterprise (Institution)","County":"Kilifi","Sub_County":"Malindi","Division":"Magarini","Location":"Gongoni","Sub_Locati":"Gongoni","Constituen":"MALINDI","Nearest_To":"Gongoni","Latitude":"-3.02264","Longitude":"40.08256"},