{"type":"FeatureCollection","features":[{"type":"Feature","properties":{"OBJECTID":"37","Facility_N":"Abrahams Clinic","Type":"Medical Clinic","Owner":"Private Enterprise (Institution)","County":"Kirinyaga","Sub_County":"Kirinyaga West","Division":"Ndia","Location":" ","Sub_Locati":" ","Constituen":"NDIA","Nearest_To":"Sagana","Latitude":"-0.40098","Longitude":"37.2593"},"geometry":{"type":"Point","coordinates":[37.2593,-0.40098]}},{"type":"Feature","properties":{"OBJECTID":"77","Facility_N":"Afya Bora Clinic (Mwea)","Type":"Medical Clinic","Owner":"Private Enterprise (Institution)","County":"Kirinyaga","Sub_County":"Kirinyaga North","Division":"Mwea","Location":"Mutithi","Sub_Locati":"Kabiriri","Constituen":"MWEA","Nearest_To":"Kandondgu","Latitude":"-0.681054","Longitude":"37.2904"},"geometry":{"type":"Point","coordinates":[37.2904,-0.681054]}},{"type":"Feature","properties":{"OBJECTID":"83","Facility_N":"Afya Bora Medical Clinic (CFW Clinic Gichugu)","Type":"Medical Clinic","Owner":"Private Practice - Nurse / Midwife","County":"Kirinyaga","Sub_County":"Kirinyaga East","Division":"Gichugu","Location":"Njukiini","Sub_Locati":"Kanjuu","Constituen":"GICHUGU","Nearest_To":"Gathoge","Latitude":"-0.524658","Longitude":"37.41892"},"geometry":{"type":"Point","coordinates":[37.41892,-0.524658]}},{"type":"Feature","properties":{"OBJECTID":"86","Facility_N":"Afya Bora Medical Clinic (Muchagara)","Type":"Medical Clinic","Owner":"Private Practice - Nurse / Midwife","County":"Kirinyaga","Sub_County":"Kirinyaga East","Division":"Gichugu","Location":"Karumande","Sub_Locati":"Thumaita","Constituen":"GICHUGU","Nearest_To":"Muchagara","Latitude":"-0.46852","Longitude":"37.36062"},"geometry":{"type":"Point","coordinates":[37.36062,-0.46852]}},{"type":"Feature","properties":{"OBJECTID":"96","Facility_N":"Afya Link Ngurubani Clinic","Type":"Medical Clinic","Owner":"Private Enterprise (Institution)","County":"Kirinyaga","Sub_County":"Kirinyaga South","Division":"Mwea","Location":"Tebere","Sub_Locati":"Kiarukungu","Constituen":"MWEA","Nearest_To":"Ngurubani","Latitude":"-0.68405","Longitude":"37.3581"},"geometry":{"type":"Point","coordinates":[37.3581,-0.68405]}},{"type":"Feature","properties":{"OBJECTID":"184","Facility_N":"Airborne No Twist Huduma Bora Clinic","Type":"Medical Clinic","Owner":"Private Practice - Nurse / Midwife","County":"Kirinyaga","Sub_County":"Kirinyaga East","Division":" ","Location":" ","Sub_Locati":" ","Constituen":"GICHUGU","Nearest_To":" ","Latitude":"-0.43029","Longitude":"37.3092"},"geometry":{"type":"Point","coordinates":[37.3092,-0.43029]}},{"type":"Feature","properties":{"OBJECTID":"254","Facility_N":"Alliance Medical Clinic (Kirinyaga)","Type":"Medical Clinic","Owner":"Private Practice - Nurse / Midwife","County":"Kirinyaga","Sub_County":"Kirinyaga West","Division":" ","Location":" ","Sub_Locati":" ","Constituen":"NDIA","Nearest_To":" ","Latitude":"-0.56087","Longitude":"37.18919"},"geometry":{"type":"Point","coordinates":[37.18919,-0.56087]}},{"type":"Feature","properties":{"OBJECTID":"369","Facility_N":"Apha Laboratory","Type":"Laboratory (Stand-alone)","Owner":"Private Enterprise (Institution)","County":"Kirinyaga","Sub_County":"Kirinyaga West","Division":"Ndia West","Location":"Kariti","Sub_Locati":"Sagana","Constituen":"NDIA","Nearest_To":"Sagana","Latitude":"-0.66523","Longitude":"37.20623"},"geometry":{"type":"Point","coordinates":[37.20623,-0.66523]}},{"type":"Feature","properties":{"OBJECTID":"531","Facility_N":"Baragwi Maternity Home","Type":"Nursing Home","Owner":"Private Enterprise (Institution)","County":"Kirinyaga","Sub_County":"Kirinyaga East","Division":"Gichugu","Location":"Baragwi","Sub_Locati":"Raimu","Constituen":"GICHUGU","Nearest_To":"Kianyaga","Latitude":"-0.49316","Longitude":"37.35107"},"geometry":{"type":"Point","coordinates":[37.35107,-0.49316]}},{"type":"Feature","properties":{"OBJECTID":"539","Facility_N":"Baraka Medical Clinic (Kirinyaga)","Type":"Medical Clinic","Owner":"Private Practice - Nurse / Midwife","County":"Kirinyaga","Sub_County":"Kirinyaga South","Division":" ","Location":" ","Sub_Locati":" ","Constituen":"MWEA","Nearest_To":" ","Latitude":"-0.72136","Longitude":"37.32264"},"geometry":{"type":"Point","coordinates":[37.32264,-0.72136]}},{"type":"Feature","properties":{"OBJECTID":"563","Facility_N":"Baricho Catholic Health Centre","Type":"Health Centre","Owner":"Kenya Episcopal Conference-Catholic Secretariat","County":"Kirinyaga","Sub_County":"Kirinyaga West","Division":"Ndia","Location":"Mwirua","Sub_Locati":"Kianjanga","Constituen":"NDIA","Nearest_To":"Baricho","Latitude":"-0.55406","Longitude":"37.22931"},"geometry":{"type":"Point","coordinates":[37.22931,-0.55406]}},{"type":"Feature","properties":{"OBJECTID":"565","Facility_N":"Baricho Health Centre","Type":"Health Centre","Owner":"Ministry of Health","County":"Kirinyaga","Sub_County":"Kirinyaga West","Division":"Ndia","Location":"Mwirua","Sub_Locati":"Gitaku","Constituen":"NDIA","Nearest_To":"Baricho","Latitude":"-0.55313","Longitude":"37.23931"},"geometry":{"type":"Point","coordinates":[37.23931,-0.55313]}},{"type":"Feature","properties":{"OBJECTID":"598","Facility_N":"Bcj Medical Centre","Type":"Medical Clinic","Owner":"Private Practice - Nurse / Midwife","County":"Kirinyaga","Sub_County":"Kirinyaga South","Division":"Mwea east","Location":"Tebere","Sub_Locati":"Kiarukungu","Constituen":"MWEA","Nearest_To":"Wanguru","Latitude":"-0.68528","Longitude":"37.35455"},"geometry":{"type":"Point","coordinates":[37.35455,-0.68528]}},{"type":"Feature","properties":{"OBJECTID":"615","Facility_N":"Bens Labs","Type":"Laboratory (Stand-alone)","Owner":"Private Enterprise (Institution)","County":"Kirinyaga","Sub_County":"Kirinyaga Central","Division":"Ndia","Location":"Mutira","Sub_Locati":"Kabari","Constituen":"NDIA","Nearest_To":"Kagumo","Latitude":"-0.47","Longitude":"37.3994"},"geometry":{"type":"Point","coordinates":[37.3994,-0.47]}},{"type":"Feature","properties":{"OBJECTID":"623","Facility_N":"Bethany Clinic","Type":"Medical Clinic","Owner":"Private Practice - Clinical Officer","County":"Kirinyaga","Sub_County":"Kirinyaga West","Division":"Central","Location":"Kerugoya","Sub_Locati":"Kaguyu","Constituen":"KERUGOYA/KUTUS","Nearest_To":"Kerugoya","Latitude":"-0.4764","Longitude":"37.23567"},"geometry":{"type":"Point","coordinates":[37.23567,-0.4764]}},{"type":"Feature","properties":{"OBJECTID":"635","Facility_N":"Bethsaida Clinic (Kirinyaga-Gathiga)","Type":"Medical Clinic","Owner":"Private Enterprise (Institution)","County":"Kirinyaga","Sub_County":"Kirinyaga South","Division":"Mwea","Location":"Kangai","Sub_Locati":"Gathiga","Constituen":"MWEA","Nearest_To":"Kangai","Latitude":"-1.217","Longitude":"36.741"},"geometry":{"type":"Point","coordinates":[36.741,-1.217]}},{"type":"Feature","properties":{"OBJECTID":"636","Facility_N":"Bethsaida Clinic (Kirinyaga-Thiba)","Type":"Medical Clinic","Owner":"Private Enterprise (Institution)","County":"Kirinyaga","Sub_County":"Kirinyaga South","Division":"Mwea","Location":"Nyangati","Sub_Locati":"Nyangati","Constituen":"MWEA","Nearest_To":"Kimbimbi","Latitude":"-0.61046","Longitude":"37.3477"},"geometry":{"type":"Point","coordinates":[37.3477,-0.61046]}},{"type":"Feature","properties":{"OBJECTID":"656","Facility_N":"Bigem Clinic","Type":"Medical Clinic","Owner":"Private Practice - Nurse / Midwife","County":"Kirinyaga","Sub_County":"Kirinyaga South","Division":"Mwea","Location":"Kutus","Sub_Locati":"Kamigua","Constituen":"KERUGOYA/KUTUS","Nearest_To":"Kutus Mjini","Latitude":"-0.62636","Longitude":"37.2557"},"geometry":{"type":"Point","coordinates":[37.2557,-0.62636]}},{"type":"Feature","properties":{"OBJECTID":"684","Facility_N":"Blue Line Clinic","Type":"Medical Clinic","Owner":"Private Practice - General Practitioner","County":"Kirinyaga","Sub_County":"Kirinyaga Central","Division":"Central","Location":"Kerugoya","Sub_Locati":"Kaguyu","Constituen":"KERUGOYA/KUTUS","Nearest_To":"Kerugoya","Latitude":"-0.50566","Longitude":"37.28005"},"geometry":{"type":"Point","coordinates":[37.28005,-0.50566]}},{"type":"Feature","properties":{"OBJECTID":"867","Facility_N":"By Faith Clinic (Kirinyaga)","Type":"Medical Clinic","Owner":"Private Practice - Nurse / Midwife","County":"Kirinyaga","Sub_County":"Kirinyaga South","Division":"Tebere","Location":"Kiarukungu","Sub_Locati":"Ngurubani","Constituen":"MWEA","Nearest_To":"Wanguru","Latitude":"-0.684","Longitude":"37.35608"},"geometry":{"type":"Point","coordinates":[37.35608,-0.684]}},{"type":"Feature","properties":{"OBJECTID":"871","Facility_N":"By Grace Medical (Kutus) Clinic","Type":"Medical Clinic","Owner":"Private Practice - Nurse / Midwife","County":"Kirinyaga","Sub_County":"Kirinyaga North","Division":"Mwea","Location":"Kangai","Sub_Locati":"Kathiga","Constituen":"MWEA","Nearest_To":"Kagio","Latitude":"-0.58591","Longitude":"37.29073"},"geometry":{"type":"Point","coordinates":[37.29073,-0.58591]}},{"type":"Feature","properties":{"OBJECTID":"928","Facility_N":"CFW Kiamugumo Glory","Type":"Medical Clinic","Owner":"Non-Governmental Organizations","County":"Kirinyaga","Sub_County":"Kirinyaga East","Division":" ","Location":" ","Sub_Locati":" ","Constituen":"GICHUGU","Nearest_To":" ","Latitude":"-0.42908","Longitude":"37.41226"},"geometry":{"type":"Point","coordinates":[37.41226,-0.42908]}},{"type":"Feature","properties":{"OBJECTID":"931","Facility_N":"CFW Mwea Clinic","Type":"Medical Clinic","Owner":"Non-Governmental Organizations","County":"Kirinyaga","Sub_County":"Kirinyaga South","Division":"Mwea","Location":"Tebere","Sub_Locati":"Kiarukungu","Constituen":"MWEA","Nearest_To":"Timber Market","Latitude":"-0.6854","Longitude":"37.35626"},"geometry":{"type":"Point","coordinates":[37.35626,-0.6854]}},{"type":"Feature","properties":{"OBJECTID":"1012","Facility_N":"Chemat For Health Solutions Kamweti","Type":"Laboratory (Stand-alone)","Owner":"Private Enterprise (Institution)","County":"Kirinyaga","Sub_County":"Kirinyaga East","Division":"Gichugu","Location":"Karumande","Sub_Locati":"Thumaita","Constituen":"GICHUGU","Nearest_To":"Kamweti","Latitude":"-0.42978","Longitude":"37.3088"},"geometry":{"type":"Point","coordinates":[37.3088,-0.42978]}},{"type":"Feature","properties":{"OBJECTID":"1177","Facility_N":"Christian Community Services Clinic Base Kerugoya","Type":"Dispensary","Owner":"Christian Health Association of Kenya","County":"Kirinyaga","Sub_County":"Kirinyaga Central","Division":"Kirinyaga Central","Location":"Kerugoya","Sub_Locati":"Kaguyu","Constituen":"KERUGOYA/KUTUS","Nearest_To":"Kerugoya","Latitude":"-0.503","Longitude":"37.27916"},"geometry":{"type":"Point","coordinates":[37.27916,-0.503]}},{"type":"Feature","properties":{"OBJECTID":"1179","Facility_N":"Christian Community Services Wang'uru Dispensary","Type":"Dispensary","Owner":"Christian Health Association of Kenya","County":"Kirinyaga","Sub_County":"Kirinyaga South","Division":"Mwea","Location":"Tebere","Sub_Locati":"Kiarukungu","Constituen":"MWEA","Nearest_To":"Wanguru","Latitude":"-0.68737","Longitude":"37.35187"},"geometry":{"type":"Point","coordinates":[37.35187,-0.68737]}},{"type":"Feature","properties":{"OBJECTID":"1199","Facility_N":"Ciagini  Health Centre","Type":"Health Centre","Owner":"Ministry of Health","County":"Kirinyaga","Sub_County":"Kirinyaga North","Division":"Mwea","Location":"Thiba","Sub_Locati":"Wamumu","Constituen":"MWEA","Nearest_To":"Karaba","Latitude":"-0.75627","Longitude":"37.37958"},"geometry":{"type":"Point","coordinates":[37.37958,-0.75627]}},{"type":"Feature","properties":{"OBJECTID":"1231","Facility_N":"Complex Medical Centre","Type":"Medical Clinic","Owner":"Private Practice - Clinical Officer","County":"Kirinyaga","Sub_County":"Kirinyaga North","Division":"Mwea","Location":"Thiba","Sub_Locati":"Wamumu","Constituen":"MWEA","Nearest_To":"Ciagini","Latitude":"-0.74956","Longitude":"37.39569"},"geometry":{"type":"Point","coordinates":[37.39569,-0.74956]}},{"type":"Feature","properties":{"OBJECTID":"1232","Facility_N":"Comrade Nurising Home","Type":"Nursing Home","Owner":"Private Practice - Clinical Officer","County":"Kirinyaga","Sub_County":"Kirinyaga South","Division":"Mwea","Location":"Tebere","Sub_Locati":"Kiarukungu","Constituen":"MWEA","Nearest_To":"Ngurubani","Latitude":"-0.6844","Longitude":"37.3544"},"geometry":{"type":"Point","coordinates":[37.3544,-0.6844]}},{"type":"Feature","properties":{"OBJECTID":"1262","Facility_N":"County Medical Clinic (Kangai)","Type":"Medical Clinic","Owner":"Private Practice - Nurse / Midwife","County":"Kirinyaga","Sub_County":"Kirinyaga North","Division":" ","Location":" ","Sub_Locati":" ","Constituen":"MWEA","Nearest_To":" ","Latitude":"-0.62383","Longitude":"37.29841"},"geometry":{"type":"Point","coordinates":[37.29841,-0.62383]}},{"type":"Feature","properties":{"OBJECTID":"1265","Facility_N":"County Medical Health Clinic (Wanguru)","Type":"Medical Clinic","Owner":"Private Practice - Nurse / Midwife","County":"Kirinyaga","Sub_County":"Kirinyaga South","Division":" ","Location":" ","Sub_Locati":" ","Constituen":"MWEA","Nearest_To":" ","Latitude":"-0.68278","Longitude":"37.35489"},"geometry":{"type":"Point","coordinates":[37.35489,-0.68278]}},{"type":"Feature","properties":{"OBJECTID":"1337","Facility_N":"Dave Laboratory","Type":"Laboratory (Stand-alone)","Owner":"Private Enterprise (Institution)","County":"Kirinyaga","Sub_County":"Kirinyaga East","Division":"Gichugu","Location":"Baragwi","Sub_Locati":"Raimu","Constituen":"GICHUGU","Nearest_To":"Kianyaga","Latitude":"-0.49818","Longitude":"37.35102"},"geometry":{"type":"Point","coordinates":[37.35102,-0.49818]}},{"type":"Feature","properties":{"OBJECTID":"1383","Facility_N":"Difathas Catholic Dispensary","Type":"Dispensary","Owner":"Kenya Episcopal Conference-Catholic Secretariat","County":"Kirinyaga","Sub_County":"Kirinyaga South","Division":"Mwea","Location":"Murinduko","Sub_Locati":"Kamunyange","Constituen":"MWEA","Nearest_To":"Difathas","Latitude":"-0.55497","Longitude":"37.40076"},"geometry":{"type":"Point","coordinates":[37.40076,-0.55497]}},{"type":"Feature","properties":{"OBJECTID":"1384","Facility_N":"Difathas Health Centre","Type":"Health Centre","Owner":"Ministry of Health","County":"Kirinyaga","Sub_County":"Kirinyaga South","Division":"Mwea","Location":"Murinduko","Sub_Locati":"Kamunyange","Constituen":"MWEA","Nearest_To":"Difathas","Latitude":"-0.55419","Longitude":"37.40213"},"geometry":{"type":"Point","coordinates":[37.40213,-0.55419]}},{"type":"Feature","properties":{"OBJECTID":"1428","Facility_N":"Dr B K Njuguna","Type":"Medical Clinic","Owner":"Private Practice - Medical Specialist","County":"Kirinyaga","Sub_County":"Kirinyaga Central","Division":"Central","Location":"Kerugoya","Sub_Locati":"Kaguyu","Constituen":"KERUGOYA/KUTUS","Nearest_To":"Kerugoya","Latitude":"-0.5048","Longitude":"37.28039"},"geometry":{"type":"Point","coordinates":[37.28039,-0.5048]}},{"type":"Feature","properties":{"OBJECTID":"1462","Facility_N":"Dr J K Kimani","Type":"Medical Clinic","Owner":"Private Practice - Medical Specialist","County":"Kirinyaga","Sub_County":"Kirinyaga Central","Division":"Central","Location":"Inoi","Sub_Locati":"Kerugoya","Constituen":"KERUGOYA/KUTUS","Nearest_To":"Kerugoya town","Latitude":"-0.5048","Longitude":"37.28039"},"geometry":{"type":"Point","coordinates":[37.28039,-0.5048]}},{"type":"Feature","properties":{"OBJECTID":"1495","Facility_N":"Dr L M Macharia Dental Clinic","Type":"Medical Clinic","Owner":"Private Practice - Medical Specialist","County":"Kirinyaga","Sub_County":"Kirinyaga Central","Division":"Central","Location":"Kerugoya","Sub_Locati":"Kerugoya","Constituen":"KERUGOYA/KUTUS","Nearest_To":"Kerugoya","Latitude":"-0.472079","Longitude":"37.16342"},"geometry":{"type":"Point","coordinates":[37.16342,-0.472079]}},{"type":"Feature","properties":{"OBJECTID":"1521","Facility_N":"Dr Muraya Clinic","Type":"Medical Clinic","Owner":"Private Practice - Medical Specialist","County":"Kirinyaga","Sub_County":"Kirinyaga Central","Division":"Central","Location":"Kerugoya","Sub_Locati":"Kaguyu","Constituen":"KERUGOYA/KUTUS","Nearest_To":"Kerugoya","Latitude":"-0.50241","Longitude":"37.27912"},"geometry":{"type":"Point","coordinates":[37.27912,-0.50241]}},{"type":"Feature","properties":{"OBJECTID":"1535","Facility_N":"Dr Ndambuki Clinic","Type":"Medical Clinic","Owner":"Private Practice - Medical Specialist","County":"Kirinyaga","Sub_County":"Kirinyaga West","Division":"Central","Location":"Kerugoya","Sub_Locati":"Kaguyu","Constituen":"KERUGOYA/KUTUS","Nearest_To":"Kerugoya","Latitude":"-0.471308","Longitude":"37.1638"},"geometry":{"type":"Point","coordinates":[37.1638,-0.471308]}},{"type":"Feature","properties":{"OBJECTID":"1536","Facility_N":"Dr Ndambuki Clinic","Type":"Medical Clinic","Owner":"Private Practice - Medical Specialist","County":"Kirinyaga","Sub_County":"Kirinyaga Central","Division":"Kerugoya","Location":"Kerugoya","Sub_Locati":"Kerugoya","Constituen":"KERUGOYA/KUTUS","Nearest_To":"Kerugoya","Latitude":"-0.5048","Longitude":"37.28039"},"geometry":{"type":"Point","coordinates":[37.28039,-0.5048]}},{"type":"Feature","properties":{"OBJECTID":"1623","Facility_N":"Eastend Clinic","Type":"Medical Clinic","Owner":"Private Practice - Medical Specialist","County":"Kirinyaga","Sub_County":"Kirinyaga Central","Division":"Central","Location":"Kerugoya","Sub_Locati":"Kaguyu","Constituen":"KERUGOYA/KUTUS","Nearest_To":"Kerugoya","Latitude":"-0.5048","Longitude":"37.28039"},"geometry":{"type":"Point","coordinates":[37.28039,-0.5048]}},{"type":"Feature","properties":{"OBJECTID":"1650","Facility_N":"Ecclesiates Gathuthuma Bamako","Type":"Medical Clinic","Owner":"Non-Governmental Organizations","County":"Kirinyaga","Sub_County":"Kirinyaga Central","Division":"Central","Location":"Mutira","Sub_Locati":"Kaguyu","Constituen":"NDIA","Nearest_To":"Gathuthuma","Latitude":"-0.471308","Longitude":"37.1638"},"geometry":{"type":"Point","coordinates":[37.1638,-0.471308]}},{"type":"Feature","properties":{"OBJECTID":"1898","Facility_N":"Express Medical Clinic (Kirinyaga)","Type":"Medical Clinic","Owner":"Private Practice - Clinical Officer","County":"Kirinyaga","Sub_County":"Kirinyaga West","Division":"Ndia West","Location":"Kiine","Sub_Locati":"Kibingoti","Constituen":"NDIA","Nearest_To":"Kibingoti","Latitude":"-0.568","Longitude":"37.18706"},"geometry":{"type":"Point","coordinates":[37.18706,-0.568]}},{"type":"Feature","properties":{"OBJECTID":"1927","Facility_N":"Family Dental Clinic","Type":"Dental Clinic","Owner":"Private Enterprise (Institution)","County":"Kirinyaga","Sub_County":"Kirinyaga Central","Division":"Central","Location":"Kerugoya","Sub_Locati":"Kaguyu","Constituen":"KERUGOYA/KUTUS","Nearest_To":"Kerugoya","Latitude":"-0.5048","Longitude":"37.28039"},"geometry":{"type":"Point","coordinates":[37.28039,-0.5048]}},{"type":"Feature","properties":{"OBJECTID":"1996","Facility_N":"Frayjoy Clinic (Dr Tumbo)","Type":"Medical Clinic","Owner":"Private Practice - General Practitioner","County":"Kirinyaga","Sub_County":"Kirinyaga South","Division":"Mwea","Location":"Nyangati","Sub_Locati":"Mjini","Constituen":"MWEA","Nearest_To":"Kutus","Latitude":"-0.56817","Longitude":"37.32517"},"geometry":{"type":"Point","coordinates":[37.32517,-0.56817]}},{"type":"Feature","properties":{"OBJECTID":"2001","Facility_N":"Front Line Medical Clinic","Type":"Medical Clinic","Owner":"Private Practice - Nurse / Midwife","County":"Kirinyaga","Sub_County":"Kirinyaga North","Division":" ","Location":" ","Sub_Locati":" ","Constituen":"MWEA","Nearest_To":" ","Latitude":"-0.68439","Longitude":"37.35755"},"geometry":{"type":"Point","coordinates":[37.35755,-0.68439]}},{"type":"Feature","properties":{"OBJECTID":"2028","Facility_N":"Gaciongo Dispensary (Kirinyaga)","Type":"Dispensary","Owner":"Ministry of Health","County":"Kirinyaga","Sub_County":"Kirinyaga East","Division":"Gichugu","Location":"Njukiini","Sub_Locati":"Ngerwe","Constituen":"GICHUGU","Nearest_To":"Muthiigini","Latitude":"-0.47597","Longitude":"37.41332"},"geometry":{"type":"Point","coordinates":[37.41332,-0.47597]}},{"type":"Feature","properties":{"OBJECTID":"2091","Facility_N":"Gathambi Health Centre","Type":"Health Centre","Owner":"Ministry of Health","County":"Kirinyaga","Sub_County":"Kirinyaga West","Division":"Ndia","Location":"Mukure","Sub_Locati":"Mukure","Constituen":"NDIA","Nearest_To":"Gathambi","Latitude":"-0.46888","Longitude":"37.21157"},"geometry":{"type":"Point","coordinates":[37.21157,-0.46888]}},{"type":"Feature","properties":{"OBJECTID":"2098","Facility_N":"Gathigiriri Health Centre","Type":"Health Centre","Owner":"Ministry of Health","County":"Kirinyaga","Sub_County":"Kirinyaga South","Division":"Mwea","Location":"Tebere","Sub_Locati":"Gathigiriri","Constituen":"MWEA","Nearest_To":"Ngurubani","Latitude":"-0.69317","Longitude":"37.40495"},"geometry":{"type":"Point","coordinates":[37.40495,-0.69317]}},{"type":"Feature","properties":{"OBJECTID":"2100","Facility_N":"Gathuthuma Dispensary","Type":"Dispensary","Owner":"Ministry of Health","County":"Kirinyaga","Sub_County":"Kirinyaga Central","Division":"Mutira","Location":"Mutitu","Sub_Locati":"Kaguyu","Constituen":"KERUGOYA/KUTUS","Nearest_To":"Gathuthuma Market","Latitude":"-0.4358","Longitude":"37.289"},"geometry":{"type":"Point","coordinates":[37.289,-0.4358]}},{"type":"Feature","properties":{"OBJECTID":"2109","Facility_N":"Gatithi Dispensary","Type":"Dispensary","Owner":"Ministry of Health","County":"Kirinyaga","Sub_County":"Kirinyaga West","Division":"Ndia West","Location":"Kiini South","Sub_Locati":"Kibingoti","Constituen":"NDIA","Nearest_To":"Kibingoti","Latitude":"-0.5832","Longitude":"37.19138"},"geometry":{"type":"Point","coordinates":[37.19138,-0.5832]}},{"type":"Feature","properties":{"OBJECTID":"2116","Facility_N":"Gatugura Dispensary","Type":"Dispensary","Owner":"Ministry of Health","County":"Kirinyaga","Sub_County":"Kirinyaga East","Division":"Gichugu","Location":"Kirima","Sub_Locati":"Mutige","Constituen":"GICHUGU","Nearest_To":"Gatugura","Latitude":"-0.46074","Longitude":"37.3188"},"geometry":{"type":"Point","coordinates":[37.3188,-0.46074]}},{"type":"Feature","properties":{"OBJECTID":"2118","Facility_N":"Gatumbi (SDA) Dispensary","Type":"Dispensary","Owner":"Christian Health Association of Kenya","County":"Kirinyaga","Sub_County":"Kirinyaga East","Division":"Gichugu","Location":"Ngariama","Sub_Locati":"Kabari","Constituen":"GICHUGU","Nearest_To":"Kamwana","Latitude":"-0.41832","Longitude":"37.39322"},"geometry":{"type":"Point","coordinates":[37.39322,-0.41832]}},{"type":"Feature","properties":{"OBJECTID":"2130","Facility_N":"Gatuto Dispensary","Type":"Dispensary","Owner":"Ministry of Health","County":"Kirinyaga","Sub_County":"Kirinyaga Central","Division":"Central","Location":"Koroma","Sub_Locati":"Ngaru","Constituen":"KERUGOYA/KUTUS","Nearest_To":"Gatuto","Latitude":"-0.57083","Longitude":"37.30204"},"geometry":{"type":"Point","coordinates":[37.30204,-0.57083]}},{"type":"Feature","properties":{"OBJECTID":"2131","Facility_N":"Gatwe Health Centre","Type":"Health Centre","Owner":"Ministry of Health","County":"Kirinyaga","Sub_County":"Kirinyaga Central","Division":"Central","Location":"Mutira","Sub_Locati":"Kabari","Constituen":"NDIA","Nearest_To":"Gatwe","Latitude":"-0.43474","Longitude":"37.28817"},"geometry":{"type":"Point","coordinates":[37.28817,-0.43474]}},{"type":"Feature","properties":{"OBJECTID":"2149","Facility_N":"Genesis Clinic (Kirinyaga)","Type":"Medical Clinic","Owner":"Private Practice - Nurse / Midwife","County":"Kirinyaga","Sub_County":"Kirinyaga West","Division":"Ndia West","Location":"Kariti","Sub_Locati":"Sagana","Constituen":"NDIA","Nearest_To":"Sagana","Latitude":"-0.67011","Longitude":"37.20599"},"geometry":{"type":"Point","coordinates":[37.20599,-0.67011]}},{"type":"Feature","properties":{"OBJECTID":"2150","Facility_N":"Genesis Community Bamako Initiative","Type":"Not in List","Owner":"Non-Governmental Organizations","County":"Kirinyaga","Sub_County":"Kirinyaga West","Division":"Ndia East","Location":"Mukure","Sub_Locati":"Mukure","Constituen":"NDIA","Nearest_To":"Ndiriti","Latitude":"-0.401615","Longitude":"37.222"},"geometry":{"type":"Point","coordinates":[37.222,-0.401615]}},{"type":"Feature","properties":{"OBJECTID":"2258","Facility_N":"Githuani (ACK) Dispensary","Type":"Dispensary","Owner":"Christian Health Association of Kenya","County":"Kirinyaga","Sub_County":"Kirinyaga West","Division":"Ndia West","Location":"Kariti","Sub_Locati":"Thigirici","Constituen":"NDIA","Nearest_To":"Kamoro","Latitude":"-0.62106","Longitude":"37.18441"},"geometry":{"type":"Point","coordinates":[37.18441,-0.62106]}},{"type":"Feature","properties":{"OBJECTID":"2271","Facility_N":"Githure (ACK) Dispensary","Type":"Dispensary","Owner":"Christian Health Association of Kenya","County":"Kirinyaga","Sub_County":"Kirinyaga East","Division":"Gichugu","Location":"Ngariama","Sub_Locati":"Rung'eto","Constituen":"GICHUGU","Nearest_To":"Githure","Latitude":"-0.44404","Longitude":"37.41089"},"geometry":{"type":"Point","coordinates":[37.41089,-0.44404]}},{"type":"Feature","properties":{"OBJECTID":"2304","Facility_N":"GK Prison Dispensary (Gathigiriri )","Type":"Dispensary","Owner":"Ministry of Health","County":"Kirinyaga","Sub_County":"Kirinyaga South","Division":"Mwea","Location":"Tebere","Sub_Locati":"Gathigiriri","Constituen":"MWEA","Nearest_To":"Ngurubani","Latitude":"-0.69435","Longitude":"37.40027"},"geometry":{"type":"Point","coordinates":[37.40027,-0.69435]}},{"type":"Feature","properties":{"OBJECTID":"2379","Facility_N":"Good Samaritan Health Services (Kirinyaga)","Type":"Medical Clinic","Owner":"Private Practice - Nurse / Midwife","County":"Kirinyaga","Sub_County":"Kirinyaga North","Division":"Mwea","Location":"Mwirua","Sub_Locati":"Kithumbu","Constituen":"NDIA","Nearest_To":"Kagio","Latitude":"-0.62261","Longitude":"37.25763"},"geometry":{"type":"Point","coordinates":[37.25763,-0.62261]}},{"type":"Feature","properties":{"OBJECTID":"2386","Facility_N":"Goodwill Clinic","Type":"Medical Clinic","Owner":"Private Enterprise (Institution)","County":"Kirinyaga","Sub_County":"Kirinyaga West","Division":"Ndia","Location":"Mukure","Sub_Locati":"Gitaku","Constituen":"NDIA","Nearest_To":" ","Latitude":"-0.527525","Longitude":"37.2306"},"geometry":{"type":"Point","coordinates":[37.2306,-0.527525]}},{"type":"Feature","properties":{"OBJECTID":"2404","Facility_N":"Grace Baricho Clinic","Type":"Medical Clinic","Owner":"Private Practice - Nurse / Midwife","County":"Kirinyaga","Sub_County":"Kirinyaga West","Division":"Ndia","Location":"Mwirua","Sub_Locati":"Gitaku","Constituen":"NDIA","Nearest_To":"Baricho","Latitude":"-0.55538","Longitude":"37.24196"},"geometry":{"type":"Point","coordinates":[37.24196,-0.55538]}},{"type":"Feature","properties":{"OBJECTID":"2491","Facility_N":"Hebron CFW Clinic","Type":"Medical Clinic","Owner":"Non-Governmental Organizations","County":"Kirinyaga","Sub_County":"Kirinyaga South","Division":" ","Location":" ","Sub_Locati":" ","Constituen":"MWEA","Nearest_To":" ","Latitude":"-0.57572","Longitude":"37.32715"},"geometry":{"type":"Point","coordinates":[37.32715,-0.57572]}},{"type":"Feature","properties":{"OBJECTID":"2492","Facility_N":"Hebron CFW Clinic (Kutus)","Type":"Medical Clinic","Owner":"Non-Governmental Organizations","County":"Kirinyaga","Sub_County":"Kirinyaga South","Division":" ","Location":" ","Sub_Locati":" ","Constituen":"MWEA","Nearest_To":"Kutus market","Latitude":"-0.57572","Longitude":"37.32715"},"geometry":{"type":"Point","coordinates":[37.32715,-0.57572]}},{"type":"Feature","properties":{"OBJECTID":"2511","Facility_N":"Heshima Clinic","Type":"Medical Clinic","Owner":"Private Practice - Nurse / Midwife","County":"Kirinyaga","Sub_County":"Kirinyaga East","Division":"Gichugu","Location":"Ngariama","Sub_Locati":"Rung'eto","Constituen":"GICHUGU","Nearest_To":"Githure","Latitude":"-0.447679","Longitude":"37.4127"},"geometry":{"type":"Point","coordinates":[37.4127,-0.447679]}},{"type":"Feature","properties":{"OBJECTID":"2516","Facility_N":"Hezeman Afya Bora","Type":"Laboratory (Stand-alone)","Owner":"Private Enterprise (Institution)","County":"Kirinyaga","Sub_County":"Kirinyaga West","Division":"Ndia East","Location":"Mwirua","Sub_Locati":"Gitaku","Constituen":"NDIA","Nearest_To":"Baricho","Latitude":"-0.5554","Longitude":"37.24198"},"geometry":{"type":"Point","coordinates":[37.24198,-0.5554]}},{"type":"Feature","properties":{"OBJECTID":"2527","Facility_N":"Highway Medical Clinic (Kirinyaga)","Type":"Medical Clinic","Owner":"Private Practice - Clinical Officer","County":"Kirinyaga","Sub_County":"Kirinyaga Central","Division":"Central","Location":"Kerugoya","Sub_Locati":"Kaguyu","Constituen":"KERUGOYA/KUTUS","Nearest_To":"Kerugoya","Latitude":"-0.50403","Longitude":"37.28047"},"geometry":{"type":"Point","coordinates":[37.28047,-0.50403]}},{"type":"Feature","properties":{"OBJECTID":"2531","Facility_N":"Highway Medical Clinic Kibingoti","Type":"Medical Clinic","Owner":"Private Practice - Nurse / Midwife","County":"Kirinyaga","Sub_County":"Kirinyaga West","Division":"Ndia West","Location":"Kiini North","Sub_Locati":"Nguguini","Constituen":"NDIA","Nearest_To":"Kibingoti","Latitude":"-0.528115","Longitude":"37.1871"},"geometry":{"type":"Point","coordinates":[37.1871,-0.528115]}},{"type":"Feature","properties":{"OBJECTID":"2534","Facility_N":"Highway Medical Enterprises","Type":"Laboratory (Stand-alone)","Owner":"Private Enterprise (Institution)","County":"Kirinyaga","Sub_County":"Kirinyaga Central","Division":"Central","Location":"Kerugoya","Sub_Locati":"Kaguyu","Constituen":"KERUGOYA/KUTUS","Nearest_To":"Kerugoya","Latitude":"-0.50402","Longitude":"37.28047"},"geometry":{"type":"Point","coordinates":[37.28047,-0.50402]}},{"type":"Feature","properties":{"OBJECTID":"2580","Facility_N":"Hope Medical Clinic (Kirinyaga)","Type":"Medical Clinic","Owner":"Private Practice - Nurse / Midwife","County":"Kirinyaga","Sub_County":"Kirinyaga West","Division":"Ndia West","Location":"Kiini","Sub_Locati":"Nguguini","Constituen":"NDIA","Nearest_To":"Kibirigwi market","Latitude":"-0.5649","Longitude":"37.18776"},"geometry":{"type":"Point","coordinates":[37.18776,-0.5649]}},{"type":"Feature","properties":{"OBJECTID":"2608","Facility_N":"Humanity Medical Clinic (Kir South)","Type":"Medical Clinic","Owner":"Private Practice - Nurse / Midwife","County":"Kirinyaga","Sub_County":"Kirinyaga South","Division":" ","Location":" ","Sub_Locati":" ","Constituen":"MWEA","Nearest_To":" ","Latitude":"-0.64333","Longitude":"37.38912"},"geometry":{"type":"Point","coordinates":[37.38912,-0.64333]}},{"type":"Feature","properties":{"OBJECTID":"2609","Facility_N":"Humanity Medical Clinic (Kir West)","Type":"Medical Clinic","Owner":"Private Practice - Nurse / Midwife","County":"Kirinyaga","Sub_County":"Kirinyaga West","Division":" ","Location":" ","Sub_Locati":" ","Constituen":"MWEA","Nearest_To":" ","Latitude":"-0.6682","Longitude":"37.20723"},"geometry":{"type":"Point","coordinates":[37.20723,-0.6682]}},{"type":"Feature","properties":{"OBJECTID":"2857","Facility_N":"Ithare Medical Clinic","Type":"Medical Clinic","Owner":"Private Practice - Nurse / Midwife","County":"Kirinyaga","Sub_County":"Kirinyaga East","Division":"Gichugu","Location":"Kabare","Sub_Locati":"Kiritini","Constituen":"GICHUGU","Nearest_To":"Ithare","Latitude":"-0.541657","Longitude":"37.3267"},"geometry":{"type":"Point","coordinates":[37.3267,-0.541657]}},{"type":"Feature","properties":{"OBJECTID":"2904","Facility_N":"Jaima Clinic","Type":"Medical Clinic","Owner":"Private Practice - Nurse / Midwife","County":"Kirinyaga","Sub_County":"Kirinyaga South","Division":"Mwea","Location":"Tebere","Sub_Locati":"Mahiga","Constituen":"MWEA","Nearest_To":"Mahigaini","Latitude":"-0.652397","Longitude":"37.3954"},"geometry":{"type":"Point","coordinates":[37.3954,-0.652397]}},{"type":"Feature","properties":{"OBJECTID":"2919","Facility_N":"Jamia Mosque Dispensary","Type":"Dispensary","Owner":"Private Practice - Nurse / Midwife","County":"Kirinyaga","Sub_County":"Kirinyaga South","Division":"Mwea","Location":"Tebere","Sub_Locati":"Kiarukungu","Constituen":"MWEA","Nearest_To":"Wanguru","Latitude":"-0.67445","Longitude":"37.35835"},"geometry":{"type":"Point","coordinates":[37.35835,-0.67445]}},{"type":"Feature","properties":{"OBJECTID":"2928","Facility_N":"Jamii Medical Clinic","Type":"Medical Clinic","Owner":"Private Practice - Nurse / Midwife","County":"Kirinyaga","Sub_County":"Kirinyaga East","Division":" ","Location":" ","Sub_Locati":" ","Constituen":"GICHUGU","Nearest_To":" ","Latitude":"-0.44758","Longitude":"37.3477"},"geometry":{"type":"Point","coordinates":[37.3477,-0.44758]}},{"type":"Feature","properties":{"OBJECTID":"2931","Facility_N":"Jamii Medical Clinic (Kirinyaga North)","Type":"Medical Clinic","Owner":"Private Practice - Nurse / Midwife","County":"Kirinyaga","Sub_County":"Kirinyaga North","Division":" ","Location":" ","Sub_Locati":" ","Constituen":"MWEA","Nearest_To":" ","Latitude":"-0.5048","Longitude":"37.28039"},"geometry":{"type":"Point","coordinates":[37.28039,-0.5048]}},{"type":"Feature","properties":{"OBJECTID":"2957","Facility_N":"Jehova Jireh Clinic","Type":"Medical Clinic","Owner":"Private Practice - Nurse / Midwife","County":"Kirinyaga","Sub_County":"Kirinyaga Central","Division":"Ndia","Location":"Mutira","Sub_Locati":"Kirunda","Constituen":"NDIA","Nearest_To":"Kagumo","Latitude":"-0.47564","Longitude":"37.23723"},"geometry":{"type":"Point","coordinates":[37.23723,-0.47564]}},{"type":"Feature","properties":{"OBJECTID":"2972","Facility_N":"Jesmah CFW Clinic","Type":"Medical Clinic","Owner":"Non-Governmental Organizations","County":"Kirinyaga","Sub_County":"Kirinyaga West","Division":"Ndia East","Location":"Mukure","Sub_Locati":"Kagioini","Constituen":"NDIA","Nearest_To":"Kiburu","Latitude":"-0.54194","Longitude":"37.20873"},"geometry":{"type":"Point","coordinates":[37.20873,-0.54194]}},{"type":"Feature","properties":{"OBJECTID":"2973","Facility_N":"Jesmond (ACK) Dispensary (Mburi)","Type":"Dispensary","Owner":"Christian Health Association of Kenya","County":"Kirinyaga","Sub_County":"Kirinyaga East","Division":"Gichugu","Location":"Njukiini","Sub_Locati":"Mirichi","Constituen":"GICHUGU","Nearest_To":"Mburi","Latitude":"-0.52172","Longitude":"37.37006"},"geometry":{"type":"Point","coordinates":[37.37006,-0.52172]}},{"type":"Feature","properties":{"OBJECTID":"3011","Facility_N":"Joshua Memorial Mbai Dispensary","Type":"Dispensary","Owner":"Ministry of Health","County":"Kirinyaga","Sub_County":"Kirinyaga East","Division":"Gichugu","Location":"Ngariama","Sub_Locati":"Rung'eto","Constituen":"GICHUGU","Nearest_To":"Githure","Latitude":"-0.44404","Longitude":"37.41089"},"geometry":{"type":"Point","coordinates":[37.41089,-0.44404]}},{"type":"Feature","properties":{"OBJECTID":"3015","Facility_N":"Joskae Clinic Kibingoti","Type":"Medical Clinic","Owner":"Private Practice - Nurse / Midwife","County":"Kirinyaga","Sub_County":"Kirinyaga West","Division":"Ndia West","Location":"Kiini North","Sub_Locati":"Nguguini","Constituen":"NDIA","Nearest_To":"Kibingoti","Latitude":"-0.528115","Longitude":"37.1871"},"geometry":{"type":"Point","coordinates":[37.1871,-0.528115]}},{"type":"Feature","properties":{"OBJECTID":"3016","Facility_N":"Joskar CFW Clinic (Kibingiti)","Type":"Medical Clinic","Owner":"Private Practice - Unspecified","County":"Kirinyaga","Sub_County":"Kirinyaga West","Division":" ","Location":" ","Sub_Locati":" ","Constituen":"NDIA","Nearest_To":" ","Latitude":"-0.56448","Longitude":"37.18869"},"geometry":{"type":"Point","coordinates":[37.18869,-0.56448]}},{"type":"Feature","properties":{"OBJECTID":"3068","Facility_N":"Kabare Health Centre","Type":"Health Centre","Owner":"Ministry of Health","County":"Kirinyaga","Sub_County":"Kirinyaga East","Division":"Gichugu","Location":"Kabare","Sub_Locati":"Kiritini","Constituen":"GICHUGU","Nearest_To":"Kabare","Latitude":"-0.50573","Longitude":"37.32042"},"geometry":{"type":"Point","coordinates":[37.32042,-0.50573]}},{"type":"Feature","properties":{"OBJECTID":"3122","Facility_N":"Kabuti Clinic","Type":"Medical Clinic","Owner":"Private Practice - Nurse / Midwife","County":"Kirinyaga","Sub_County":"Kirinyaga East","Division":"Gichugu","Location":"Karumande","Sub_Locati":"Guama","Constituen":"GICHUGU","Nearest_To":"Kianyaga","Latitude":"-0.47531","Longitude":"37.3322"},"geometry":{"type":"Point","coordinates":[37.3322,-0.47531]}},{"type":"Feature","properties":{"OBJECTID":"3155","Facility_N":"Kagio Catholic Dispensary (Mary Immucate Catholic","Type":"Dispensary","Owner":"Kenya Episcopal Conference-Catholic Secretariat","County":"Kirinyaga","Sub_County":"Kirinyaga West","Division":"Ndia East","Location":"Mwirua","Sub_Locati":"Githumbu","Constituen":"NDIA","Nearest_To":"Kagio","Latitude":"-0.63112","Longitude":"37.25387"},"geometry":{"type":"Point","coordinates":[37.25387,-0.63112]}},{"type":"Feature","properties":{"OBJECTID":"3156","Facility_N":"Kagio Gyne Centre","Type":"Medical Clinic","Owner":"Private Practice - Medical Specialist","County":"Kirinyaga","Sub_County":"Kirinyaga West","Division":"Ndia","Location":"Mwirua","Sub_Locati":" ","Constituen":"NDIA","Nearest_To":"Kagio Market","Latitude":"-0.37484","Longitude":"37.15345"},"geometry":{"type":"Point","coordinates":[37.15345,-0.37484]}},{"type":"Feature","properties":{"OBJECTID":"3157","Facility_N":"Kagio Nursing Home (Kagio)","Type":"Nursing Home","Owner":"Private Practice - General Practitioner","County":"Kirinyaga","Sub_County":"Kirinyaga West","Division":"Ndia","Location":"Mwirua","Sub_Locati":"Kithumbu","Constituen":"NDIA","Nearest_To":"Kagio","Latitude":"-0.63112","Longitude":"37.25078"},"geometry":{"type":"Point","coordinates":[37.25078,-0.63112]}},{"type":"Feature","properties":{"OBJECTID":"3158","Facility_N":"Kagio Nursing Home (Kerugoya)","Type":"Medical Clinic","Owner":"Private Practice - Nurse / Midwife","County":"Kirinyaga","Sub_County":"Kirinyaga Central","Division":" ","Location":" ","Sub_Locati":" ","Constituen":"KERUGOYA/KUTUS","Nearest_To":" ","Latitude":"-0.49895","Longitude":"37.2777"},"geometry":{"type":"Point","coordinates":[37.2777,-0.49895]}},{"type":"Feature","properties":{"OBJECTID":"3165","Facility_N":"Kagumo Health Centre","Type":"Health Centre","Owner":"Ministry of Health","County":"Kirinyaga","Sub_County":"Kirinyaga Central","Division":"Central","Location":"Mutira","Sub_Locati":"Kabare","Constituen":"KERUGOYA/KUTUS","Nearest_To":"Kagumo","Latitude":"-0.4742","Longitude":"37.23719"},"geometry":{"type":"Point","coordinates":[37.23719,-0.4742]}},{"type":"Feature","properties":{"OBJECTID":"3166","Facility_N":"Kagumo Live Giving Dispensary/Laboratory","Type":"Dispensary","Owner":"Christian Health Association of Kenya","County":"Kirinyaga","Sub_County":"Kirinyaga Central","Division":"Ndia","Location":"Mutira","Sub_Locati":"Kabari","Constituen":"NDIA","Nearest_To":"Kagumo","Latitude":"-0.47255","Longitude":"37.23825"},"geometry":{"type":"Point","coordinates":[37.23825,-0.47255]}},{"type":"Feature","properties":{"OBJECTID":"3167","Facility_N":"Kagumo Maternity","Type":"Maternity Home","Owner":"Private Enterprise (Institution)","County":"Kirinyaga","Sub_County":"Kirinyaga West","Division":"Central","Location":"Kerugoya","Sub_Locati":"Kaguyu","Constituen":"KERUGOYA/KUTUS","Nearest_To":"Kagumo","Latitude":"-0.42733","Longitude":"37.23822"},"geometry":{"type":"Point","coordinates":[37.23822,-0.42733]}},{"type":"Feature","properties":{"OBJECTID":"3168","Facility_N":"Kagumo Surgical and Medical Clinic","Type":"Medical Clinic","Owner":"Private Practice - Medical Specialist","County":"Kirinyaga","Sub_County":"Kirinyaga Central","Division":"Central","Location":"Mutira","Sub_Locati":"Kabari","Constituen":"KERUGOYA/KUTUS","Nearest_To":"Kagumo Town","Latitude":"-0.28598","Longitude":"37.14099"},"geometry":{"type":"Point","coordinates":[37.14099,-0.28598]}},{"type":"Feature","properties":{"OBJECTID":"3216","Facility_N":"Kairini Dispensary","Type":"Dispensary","Owner":"Ministry of Health","County":"Kirinyaga","Sub_County":"Kirinyaga West","Division":"Ndia West","Location":"Kiini North","Sub_Locati":"Ruiru","Constituen":"NDIA","Nearest_To":"Kairini","Latitude":"-0.54418","Longitude":"37.16929"},"geometry":{"type":"Point","coordinates":[37.16929,-0.54418]}},{"type":"Feature","properties":{"OBJECTID":"3384","Facility_N":"Kamfas Clinic","Type":"Medical Clinic","Owner":"Private Practice - Nurse / Midwife","County":"Kirinyaga","Sub_County":"Kirinyaga West","Division":"Ndia","Location":"Kariti","Sub_Locati":"Gacharu","Constituen":"NDIA","Nearest_To":"Kiangwachi","Latitude":"-0.61019","Longitude":"37.20237"},"geometry":{"type":"Point","coordinates":[37.20237,-0.61019]}},{"type":"Feature","properties":{"OBJECTID":"3410","Facility_N":"Kamumo Medical Clinic","Type":"Medical Clinic","Owner":"Private Practice - Clinical Officer","County":"Kirinyaga","Sub_County":"Kirinyaga East","Division":"Gichugu","Location":"Karumande","Sub_Locati":"Thumaita","Constituen":"GICHUGU","Nearest_To":"Kianyaga","Latitude":"-0.49467","Longitude":"37.35109"},"geometry":{"type":"Point","coordinates":[37.35109,-0.49467]}},{"type":"Feature","properties":{"OBJECTID":"3434","Facility_N":"Kamweti Dispensary","Type":"Dispensary","Owner":"Ministry of Health","County":"Kirinyaga","Sub_County":"Kirinyaga East","Division":"Gichugu","Location":"Kirima","Sub_Locati":"Njuku","Constituen":"GICHUGU","Nearest_To":"Kimunye","Latitude":"-0.41442","Longitude":"37.31365"},"geometry":{"type":"Point","coordinates":[37.31365,-0.41442]}},{"type":"Feature","properties":{"OBJECTID":"3449","Facility_N":"Kandongu Dispensary","Type":"Dispensary","Owner":"Ministry of Health","County":"Kirinyaga","Sub_County":"Kirinyaga North","Division":"Mwea","Location":"Mutithi","Sub_Locati":"Kabiriri","Constituen":"MWEA","Nearest_To":"Kandongu","Latitude":"-0.6658","Longitude":"37.29463"},"geometry":{"type":"Point","coordinates":[37.29463,-0.6658]}},{"type":"Feature","properties":{"OBJECTID":"3454","Facility_N":"Kangaita Health Centre","Type":"Health Centre","Owner":"Ministry of Health","County":"Kirinyaga","Sub_County":"Kirinyaga Central","Division":"Central","Location":"Inoi","Sub_Locati":"Mbeti","Constituen":"KERUGOYA/KUTUS","Nearest_To":"Kangaita A","Latitude":"-0.42508","Longitude":"37.27245"},"geometry":{"type":"Point","coordinates":[37.27245,-0.42508]}},{"type":"Feature","properties":{"OBJECTID":"3455","Facility_N":"Kangaita Medical Clinic (Kirinyaga Central)","Type":"Medical Clinic","Owner":"Private Practice - Nurse / Midwife","County":"Kirinyaga","Sub_County":"Kirinyaga Central","Division":"Central","Location":"Inoi","Sub_Locati":"Mbeti","Constituen":"KERUGOYA/KUTUS","Nearest_To":"Kangaita","Latitude":"-0.366425","Longitude":"37.2815"},"geometry":{"type":"Point","coordinates":[37.2815,-0.366425]}},{"type":"Feature","properties":{"OBJECTID":"3463","Facility_N":"Kangaru Dispensary (Kirinyaga)","Type":"Dispensary","Owner":"Ministry of Health","County":"Kirinyaga","Sub_County":"Kirinyaga West","Division":"Ndia","Location":"Mwirua","Sub_Locati":"Kithumbu","Constituen":"NDIA","Nearest_To":"Kagio","Latitude":"-0.63589","Longitude":"37.24518"},"geometry":{"type":"Point","coordinates":[37.24518,-0.63589]}},{"type":"Feature","properties":{"OBJECTID":"3477","Facility_N":"Kangu Dispensary","Type":"Dispensary","Owner":"Ministry of Health","County":"Kirinyaga","Sub_County":"Kirinyaga South","Division":"Central","Location":"Kanjuu","Sub_Locati":"Kangu","Constituen":"MWEA","Nearest_To":"Kimbimbi","Latitude":"-0.57092","Longitude":"37.35595"},"geometry":{"type":"Point","coordinates":[37.35595,-0.57092]}},{"type":"Feature","properties":{"OBJECTID":"3485","Facility_N":"Kanjinji Dispensary","Type":"Dispensary","Owner":"Ministry of Health","County":"Kirinyaga","Sub_County":"Kirinyaga South","Division":"Mwea","Location":"Murinduko","Sub_Locati":"Riagicheru","Constituen":"MWEA","Nearest_To":"Kanjinji","Latitude":"-0.61171","Longitude":"37.40819"},"geometry":{"type":"Point","coordinates":[37.40819,-0.61171]}},{"type":"Feature","properties":{"OBJECTID":"3701","Facility_N":"Karaini (ACK) Dispensary","Type":"Dispensary","Owner":"Christian Health Association of Kenya","County":"Kirinyaga","Sub_County":"Kirinyaga Central","Division":"Central","Location":"Inoi","Sub_Locati":"Kariko","Constituen":"KERUGOYA/KUTUS","Nearest_To":"Karaini","Latitude":"-0.4559","Longitude":"37.24644"},"geometry":{"type":"Point","coordinates":[37.24644,-0.4559]}},{"type":"Feature","properties":{"OBJECTID":"3718","Facility_N":"Karatina Maternity & Nursing Home","Type":"Medical Clinic","Owner":"Other Public Institution","County":"Kirinyaga","Sub_County":"Kirinyaga Central","Division":"Kerugoya","Location":"Inoi","Sub_Locati":"Kerugoya","Constituen":"KERUGOYA/KUTUS","Nearest_To":"Kerugoya","Latitude":"-0.50157","Longitude":"37.2797"},"geometry":{"type":"Point","coordinates":[37.2797,-0.50157]}},{"type":"Feature","properties":{"OBJECTID":"3746","Facility_N":"Kariko Dispensary","Type":"Dispensary","Owner":"Ministry of Health","County":"Kirinyaga","Sub_County":"Kirinyaga Central","Division":"Central","Location":"Inoi","Sub_Locati":"Kariko","Constituen":"KERUGOYA/KUTUS","Nearest_To":"Karaini","Latitude":"-0.45475","Longitude":"37.24698"},"geometry":{"type":"Point","coordinates":[37.24698,-0.45475]}},{"type":"Feature","properties":{"OBJECTID":"3751","Facility_N":"Karimaini Community Dispensary","Type":"Dispensary","Owner":"Ministry of Health","County":"Kirinyaga","Sub_County":"Kirinyaga West","Division":"Ndia East","Location":"Mwerua","Sub_Locati":"Gitaku","Constituen":"NDIA","Nearest_To":" Riakiania","Latitude":"-0.51988","Longitude":"37.21751"},"geometry":{"type":"Point","coordinates":[37.21751,-0.51988]}},{"type":"Feature","properties":{"OBJECTID":"3767","Facility_N":"Karumandi  Health Centre","Type":"Health Centre","Owner":"Ministry of Health","County":"Kirinyaga","Sub_County":"Kirinyaga East","Division":"Gichugu","Location":"Karumandi","Sub_Locati":"Kiaruri","Constituen":"GICHUGU","Nearest_To":"Karumande","Latitude":"-0.44764","Longitude":"37.34951"},"geometry":{"type":"Point","coordinates":[37.34951,-0.44764]}},{"type":"Feature","properties":{"OBJECTID":"4049","Facility_N":"Kerugoya Catholic Dispensary","Type":"Dispensary","Owner":"Kenya Episcopal Conference-Catholic Secretariat","County":"Kirinyaga","Sub_County":"Kirinyaga Central","Division":"Central","Location":"Kerugoya","Sub_Locati":"Kaguyu","Constituen":"KERUGOYA/KUTUS","Nearest_To":"Kerugoya","Latitude":"-0.49822","Longitude":"37.27131"},"geometry":{"type":"Point","coordinates":[37.27131,-0.49822]}},{"type":"Feature","properties":{"OBJECTID":"4050","Facility_N":"Kerugoya District Hospital","Type":"District Hospital","Owner":"Ministry of Health","County":"Kirinyaga","Sub_County":"Kirinyaga Central","Division":"Central","Location":"Kerugoya","Sub_Locati":"Kaguyu","Constituen":"KERUGOYA/KUTUS","Nearest_To":"Kerugoya","Latitude":"-0.50435","Longitude":"37.28065"},"geometry":{"type":"Point","coordinates":[37.28065,-0.50435]}},{"type":"Feature","properties":{"OBJECTID":"4051","Facility_N":"Kerugoya Medical Centre","Type":"Nursing Home","Owner":"Private Practice - General Practitioner","County":"Kirinyaga","Sub_County":"Kirinyaga Central","Division":"Kirinyaga Central","Location":"Kerugoya","Sub_Locati":"Kaguyu","Constituen":"KERUGOYA/KUTUS","Nearest_To":"Kerugoya","Latitude":"-0.50147","Longitude":"37.27727"},"geometry":{"type":"Point","coordinates":[37.27727,-0.50147]}},{"type":"Feature","properties":{"OBJECTID":"4052","Facility_N":"Kerugoya Medical Centre (Annex)","Type":"Other Hospital","Owner":"Private Practice - Medical Specialist","County":"Kirinyaga","Sub_County":"Kirinyaga Central","Division":"Central","Location":"Inoi","Sub_Locati":"Kaguyu","Constituen":"KERUGOYA/KUTUS","Nearest_To":"Kibingo","Latitude":"-0.28993","Longitude":"37.15647"},"geometry":{"type":"Point","coordinates":[37.15647,-0.28993]}},{"type":"Feature","properties":{"OBJECTID":"4053","Facility_N":"Kerugoya Medical Laboratory","Type":"Laboratory (Stand-alone)","Owner":"Private Enterprise (Institution)","County":"Kirinyaga","Sub_County":"Kirinyaga Central","Division":"Gichugu","Location":"Kerugoya","Sub_Locati":"Kaguyu","Constituen":"GICHUGU","Nearest_To":" ","Latitude":"-0.50185","Longitude":"37.27951"},"geometry":{"type":"Point","coordinates":[37.27951,-0.50185]}},{"type":"Feature","properties":{"OBJECTID":"4054","Facility_N":"Kerugoya Medical Services and Advisory Centre","Type":"Medical Clinic","Owner":"Private Practice - Medical Specialist","County":"Kirinyaga","Sub_County":"Kirinyaga Central","Division":"Central","Location":"Kerugoya","Sub_Locati":"Kaguyu","Constituen":"KERUGOYA/KUTUS","Nearest_To":"Kerugoya","Latitude":"-0.471308","Longitude":"37.1638"},"geometry":{"type":"Point","coordinates":[37.1638,-0.471308]}},{"type":"Feature","properties":{"OBJECTID":"4108","Facility_N":"Kiamagunyi (ACK) Clinic","Type":"Dispensary","Owner":"Christian Health Association of Kenya","County":"Kirinyaga","Sub_County":"Kirinyaga West","Division":"Ndia East","Location":"Mukure","Sub_Locati":"Kanyokora","Constituen":"NDIA","Nearest_To":"Rikiania","Latitude":"-0.51872","Longitude":"37.20576"},"geometry":{"type":"Point","coordinates":[37.20576,-0.51872]}},{"type":"Feature","properties":{"OBJECTID":"4109","Facility_N":"Kiamanyeki Dispensary","Type":"Dispensary","Owner":"Ministry of Health","County":"Kirinyaga","Sub_County":"Kirinyaga South","Division":"Mwea","Location":"Tebere","Sub_Locati":"Kiarukungu","Constituen":"MWEA","Nearest_To":"Wanguru","Latitude":"-0.69829","Longitude":"37.38112"},"geometry":{"type":"Point","coordinates":[37.38112,-0.69829]}},{"type":"Feature","properties":{"OBJECTID":"4135","Facility_N":"Kiamuthambi Dispensary","Type":"Dispensary","Owner":"Ministry of Health","County":"Kirinyaga","Sub_County":"Kirinyaga Central","Division":"Mutitu","Location":"Kanyekine","Sub_Locati":"Kanyei","Constituen":"KERUGOYA/KUTUS","Nearest_To":"Kiamuthambi","Latitude":"-0.56236","Longitude":"37.28073"},"geometry":{"type":"Point","coordinates":[37.28073,-0.56236]}},{"type":"Feature","properties":{"OBJECTID":"4136","Facility_N":"Kiamutugu CFW Clinic","Type":"Medical Clinic","Owner":"Private Practice - Nurse / Midwife","County":"Kirinyaga","Sub_County":"Kirinyaga North","Division":"Gichugu","Location":"Ngariama","Sub_Locati":"Thirikwa","Constituen":"GICHUGU","Nearest_To":"Kianyaga","Latitude":"-0.4685","Longitude":"37.3905"},"geometry":{"type":"Point","coordinates":[37.3905,-0.4685]}},{"type":"Feature","properties":{"OBJECTID":"4137","Facility_N":"Kiamutugu Clinic","Type":"Medical Clinic","Owner":"Private Enterprise (Institution)","County":"Kirinyaga","Sub_County":"Kirinyaga East","Division":"Gichugu","Location":"Ngariama","Sub_Locati":"Thirikwa","Constituen":"GICHUGU","Nearest_To":"Kiamutugu","Latitude":"-0.468364","Longitude":"37.3865"},"geometry":{"type":"Point","coordinates":[37.3865,-0.468364]}},{"type":"Feature","properties":{"OBJECTID":"4138","Facility_N":"Kiamutugu Health Centre","Type":"Health Centre","Owner":"Ministry of Health","County":"Kirinyaga","Sub_County":"Kirinyaga East","Division":"Gichugu","Location":"Ngariama","Sub_Locati":"Thirikwa","Constituen":"GICHUGU","Nearest_To":"Kiamutugu","Latitude":"-0.46852","Longitude":"37.39054"},"geometry":{"type":"Point","coordinates":[37.39054,-0.46852]}},{"type":"Feature","properties":{"OBJECTID":"4143","Facility_N":"Kiandai Clinic","Type":"Medical Clinic","Owner":"Private Practice - Nurse / Midwife","County":"Kirinyaga","Sub_County":"Kirinyaga East","Division":"Gichugu","Location":"Karumande","Sub_Locati":"Thimu","Constituen":"GICHUGU","Nearest_To":"Kiandai","Latitude":"-0.47531","Longitude":"37.3322"},"geometry":{"type":"Point","coordinates":[37.3322,-0.47531]}},{"type":"Feature","properties":{"OBJECTID":"4144","Facility_N":"Kiandegwa (Methodist Church of Kenya) Dispensary","Type":"Dispensary","Owner":"Christian Health Association of Kenya","County":"Kirinyaga","Sub_County":"Kirinyaga North","Division":"Mwea","Location":"Mutithi","Sub_Locati":"Wamumu","Constituen":"MWEA","Nearest_To":"Kiandegwa","Latitude":"-0.75419","Longitude":"37.34347"},"geometry":{"type":"Point","coordinates":[37.34347,-0.75419]}},{"type":"Feature","properties":{"OBJECTID":"4146","Facility_N":"Kianderi Dispensary","Type":"Dispensary","Owner":"Ministry of Health","County":"Kirinyaga","Sub_County":"Kirinyaga Central","Division":"Central","Location":"Kerugoya","Sub_Locati":"Kimandi","Constituen":"KERUGOYA/KUTUS","Nearest_To":"Kianderi","Latitude":"-0.47269","Longitude":"37.28507"},"geometry":{"type":"Point","coordinates":[37.28507,-0.47269]}},{"type":"Feature","properties":{"OBJECTID":"4152","Facility_N":"Kiangai Health Centre","Type":"Health Centre","Owner":"Ministry of Health","County":"Kirinyaga","Sub_County":"Kirinyaga West","Division":"Ndia West","Location":"Kiini","Sub_Locati":"Kiangai","Constituen":"NDIA","Nearest_To":"Kiangai","Latitude":"-0.47869","Longitude":"37.17832"},"geometry":{"type":"Point","coordinates":[37.17832,-0.47869]}},{"type":"Feature","properties":{"OBJECTID":"4153","Facility_N":"Kiangai Laboratory","Type":"Laboratory (Stand-alone)","Owner":"Private Practice - Unspecified","County":"Kirinyaga","Sub_County":"Kirinyaga West","Division":"Ndia","Location":"Kiini North","Sub_Locati":"Kiangai","Constituen":"NDIA","Nearest_To":"Kiangai","Latitude":"-0.478893","Longitude":"37.1793"},"geometry":{"type":"Point","coordinates":[37.1793,-0.478893]}},{"type":"Feature","properties":{"OBJECTID":"4154","Facility_N":"Kiangai Medical Clinic","Type":"Medical Clinic","Owner":"Private Practice - Nurse / Midwife","County":"Kirinyaga","Sub_County":"Kirinyaga West","Division":"Ndia West","Location":"Kiini","Sub_Locati":"Kiangai","Constituen":"NDIA","Nearest_To":"Kiangai","Latitude":"-0.48024","Longitude":"37.17676"},"geometry":{"type":"Point","coordinates":[37.17676,-0.48024]}},{"type":"Feature","properties":{"OBJECTID":"4158","Facility_N":"Kiang'ombe Dispensary","Type":"Dispensary","Owner":"Ministry of Health","County":"Kirinyaga","Sub_County":"Kirinyaga East","Division":"Gichugu","Location":"Karima","Sub_Locati":"Gachigi","Constituen":"GICHUGU","Nearest_To":"Kiang'ombe","Latitude":"-0.28066","Longitude":"37.37967"},"geometry":{"type":"Point","coordinates":[37.37967,-0.28066]}},{"type":"Feature","properties":{"OBJECTID":"4163","Facility_N":"Kiangwenyi Clinic","Type":"Medical Clinic","Owner":"Private Enterprise (Institution)","County":"Kirinyaga","Sub_County":"Kirinyaga East","Division":"Gichugu","Location":"Kirima","Sub_Locati":"Gacigi","Constituen":"GICHUGU","Nearest_To":"Kiangwenyi","Latitude":"-0.44517","Longitude":"37.29209"},"geometry":{"type":"Point","coordinates":[37.29209,-0.44517]}},{"type":"Feature","properties":{"OBJECTID":"4164","Facility_N":"Kianjege Dispensary","Type":"Dispensary","Owner":"Ministry of Health","County":"Kirinyaga","Sub_County":"Kirinyaga West","Division":"Ndia","Location":"Kiini North","Sub_Locati":"Nyangio","Constituen":"NDIA","Nearest_To":"Kianjege","Latitude":"-0.574","Longitude":"37.16596"},"geometry":{"type":"Point","coordinates":[37.16596,-0.574]}},{"type":"Feature","properties":{"OBJECTID":"4171","Facility_N":"Kianyaga Catholic Health Centre","Type":"Health Centre","Owner":"Kenya Episcopal Conference-Catholic Secretariat","County":"Kirinyaga","Sub_County":"Kirinyaga East","Division":"Gichugu","Location":"Baragwi","Sub_Locati":"Raimu","Constituen":"GICHUGU","Nearest_To":"Kianyaga","Latitude":"-0.4907","Longitude":"37.36577"},"geometry":{"type":"Point","coordinates":[37.36577,-0.4907]}},{"type":"Feature","properties":{"OBJECTID":"4172","Facility_N":"Kianyaga Sub-District Hospital","Type":"Sub-District Hospital","Owner":"Ministry of Health","County":"Kirinyaga","Sub_County":"Kirinyaga East","Division":"Gichugu","Location":"Baragwi","Sub_Locati":"Raimu","Constituen":"GICHUGU","Nearest_To":"Kianyaga","Latitude":"-0.50418","Longitude":"37.32452"},"geometry":{"type":"Point","coordinates":[37.32452,-0.50418]}},{"type":"Feature","properties":{"OBJECTID":"4175","Facility_N":"Kiaragana Dispensary","Type":"Dispensary","Owner":"Ministry of Health","County":"Kirinyaga","Sub_County":"Kirinyaga West","Division":"Ndia East","Location":"Mukure","Sub_Locati":"Kanyokora","Constituen":"NDIA","Nearest_To":"Kiaragana","Latitude":"-0.498","Longitude":"37.1965"},"geometry":{"type":"Point","coordinates":[37.1965,-0.498]}},{"type":"Feature","properties":{"OBJECTID":"4180","Facility_N":"Kiarukungu Dispensary","Type":"Health Centre","Owner":"Ministry of Health","County":"Kirinyaga","Sub_County":"Kirinyaga South","Division":" ","Location":"Nyangati","Sub_Locati":"Nyangati","Constituen":"MWEA","Nearest_To":"Ngurubani","Latitude":"-0.62345","Longitude":"37.40076"},"geometry":{"type":"Point","coordinates":[37.40076,-0.62345]}},{"type":"Feature","properties":{"OBJECTID":"4187","Facility_N":"Kiawakara Dispensary","Type":"Dispensary","Owner":"Ministry of Health","County":"Kirinyaga","Sub_County":"Kirinyaga Central","Division":"Inoi","Location":"Inoi","Sub_Locati":"Thaita Sub-Location","Constituen":"KERUGOYA/KUTUS","Nearest_To":"Kiawakara Village","Latitude":"-0.45498","Longitude":"37.26481"},"geometry":{"type":"Point","coordinates":[37.26481,-0.45498]}},{"type":"Feature","properties":{"OBJECTID":"4217","Facility_N":"Kibirigwi Health Centre","Type":"Health Centre","Owner":"Ministry of Health","County":"Kirinyaga","Sub_County":"Kirinyaga West","Division":"Ndia West","Location":"Kiini North","Sub_Locati":"Nguguini","Constituen":"NDIA","Nearest_To":"Kibirigwi","Latitude":"-0.52603","Longitude":"37.17958"},"geometry":{"type":"Point","coordinates":[37.17958,-0.52603]}},{"type":"Feature","properties":{"OBJECTID":"4218","Facility_N":"Kibirigwi Laboratory","Type":"Laboratory (Stand-alone)","Owner":"Private Enterprise (Institution)","County":"Kirinyaga","Sub_County":"Kirinyaga West","Division":"Ndia West","Location":"Kiini North","Sub_Locati":"Kibingoti","Constituen":"NDIA","Nearest_To":"Kibirigwi","Latitude":"-0.528115","Longitude":"37.1871"},"geometry":{"type":"Point","coordinates":[37.1871,-0.528115]}},{"type":"Feature","properties":{"OBJECTID":"4242","Facility_N":"Kiburu Dispensary","Type":"Dispensary","Owner":"Ministry of Health","County":"Kirinyaga","Sub_County":"Kirinyaga West","Division":"Ndia East","Location":"Mukure","Sub_Locati":"Kagioini","Constituen":"NDIA","Nearest_To":"Kiburu","Latitude":"-0.5413","Longitude":"37.20747"},"geometry":{"type":"Point","coordinates":[37.20747,-0.5413]}},{"type":"Feature","properties":{"OBJECTID":"4243","Facility_N":"Kiburu Laboratory","Type":"Laboratory (Stand-alone)","Owner":"Private Enterprise (Institution)","County":"Kirinyaga","Sub_County":"Kirinyaga West","Division":"Ndia","Location":" ","Sub_Locati":" ","Constituen":"NDIA","Nearest_To":" ","Latitude":"-0.536785","Longitude":"37.2113"},"geometry":{"type":"Point","coordinates":[37.2113,-0.536785]}},{"type":"Feature","properties":{"OBJECTID":"4377","Facility_N":"Kimbimbi Medical Clinic","Type":"Medical Clinic","Owner":"Private Enterprise (Institution)","County":"Kirinyaga","Sub_County":"Kirinyaga South","Division":"Mwea","Location":"Nyangati","Sub_Locati":"Nyangati","Constituen":"MWEA","Nearest_To":"Kimbimbi","Latitude":"-0.61046","Longitude":"37.3477"},"geometry":{"type":"Point","coordinates":[37.3477,-0.61046]}},{"type":"Feature","properties":{"OBJECTID":"4378","Facility_N":"Kimbimbi Medical Laboratory","Type":"Laboratory (Stand-alone)","Owner":"Private Enterprise (Institution)","County":"Kirinyaga","Sub_County":"Kirinyaga South","Division":"Mwea","Location":"Nyangati","Sub_Locati":"Nyangati","Constituen":"MWEA","Nearest_To":"Kimbimbi","Latitude":"-0.61968","Longitude":"37.3664"},"geometry":{"type":"Point","coordinates":[37.3664,-0.61968]}},{"type":"Feature","properties":{"OBJECTID":"4379","Facility_N":"Kimbimbi Sub-District Hospital","Type":"Sub-District Hospital","Owner":"Ministry of Health","County":"Kirinyaga","Sub_County":"Kirinyaga South","Division":"Mwea","Location":"Nyangati","Sub_Locati":"Nyangati","Constituen":"MWEA","Nearest_To":"Kimbimbi","Latitude":"-0.61965","Longitude":"37.36607"},"geometry":{"type":"Point","coordinates":[37.36607,-0.61965]}},{"type":"Feature","properties":{"OBJECTID":"4574","Facility_N":"Kirimara Clinic","Type":"Medical Clinic","Owner":"Private Practice - Nurse / Midwife","County":"Kirinyaga","Sub_County":"Kirinyaga South","Division":"Mwea","Location":"Nyangati","Sub_Locati":"Nyangati","Constituen":"MWEA","Nearest_To":"Mururi","Latitude":"-0.61046","Longitude":"37.3477"},"geometry":{"type":"Point","coordinates":[37.3477,-0.61046]}},{"type":"Feature","properties":{"OBJECTID":"4580","Facility_N":"Kirinyaga Laboratory Supplies","Type":"Laboratory (Stand-alone)","Owner":"Private Enterprise (Institution)","County":"Kirinyaga","Sub_County":"Kirinyaga Central","Division":"Central","Location":"Kerugoya","Sub_Locati":"Kaguyu","Constituen":"KERUGOYA/KUTUS","Nearest_To":"Kerugoya","Latitude":"-0.471308","Longitude":"37.1638"},"geometry":{"type":"Point","coordinates":[37.1638,-0.471308]}},{"type":"Feature","properties":{"OBJECTID":"4581","Facility_N":"Kirinyaga University College Dispensary","Type":"Dispensary","Owner":"Other Public Institution","County":"Kirinyaga","Sub_County":"Kirinyaga Central","Division":"Kerugoya","Location":"Koroma","Sub_Locati":"Nduini","Constituen":"KERUGOYA/KUTUS","Nearest_To":"Kutus","Latitude":"-0.5702","Longitude":"37.30198"},"geometry":{"type":"Point","coordinates":[37.30198,-0.5702]}},{"type":"Feature","properties":{"OBJECTID":"4587","Facility_N":"Kirogo Dispensary","Type":"Dispensary","Owner":"Ministry of Health","County":"Kirinyaga","Sub_County":"Kirinyaga South","Division":"Mwea","Location":"Tebere","Sub_Locati":"Kirogo","Constituen":"MWEA","Nearest_To":"Wanguru","Latitude":"-0.66408","Longitude":"37.38963"},"geometry":{"type":"Point","coordinates":[37.38963,-0.66408]}},{"type":"Feature","properties":{"OBJECTID":"4724","Facility_N":"Kiumbu Health Centre","Type":"Health Centre","Owner":"Ministry of Health","County":"Kirinyaga","Sub_County":"Kirinyaga South","Division":"Mwea","Location":"Tebere","Sub_Locati":"Kiarukungu","Constituen":"MWEA","Nearest_To":"Kiumbu","Latitude":"-0.71739","Longitude":"37.46682"},"geometry":{"type":"Point","coordinates":[37.46682,-0.71739]}},{"type":"Feature","properties":{"OBJECTID":"4907","Facility_N":"Kutus Catholic Dispensary","Type":"Dispensary","Owner":"Kenya Episcopal Conference-Catholic Secretariat","County":"Kirinyaga","Sub_County":"Kirinyaga South","Division":"Mwea East","Location":"Kutus","Sub_Locati":"Kamiigwa","Constituen":"KERUGOYA/KUTUS","Nearest_To":"Kutus","Latitude":"-0.56706","Longitude":"37.32609"},"geometry":{"type":"Point","coordinates":[37.32609,-0.56706]}},{"type":"Feature","properties":{"OBJECTID":"4908","Facility_N":"Kutus Dispensary","Type":"Dispensary","Owner":"Ministry of Health","County":"Kirinyaga","Sub_County":"Kirinyaga South","Division":"Mwea","Location":"Kutus","Sub_Locati":"Kathiriti","Constituen":"KERUGOYA/KUTUS","Nearest_To":"Kutus","Latitude":"-0.57294","Longitude":"37.32502"},"geometry":{"type":"Point","coordinates":[37.32502,-0.57294]}},{"type":"Feature","properties":{"OBJECTID":"5102","Facility_N":"Lex Medical Clinic","Type":"Medical Clinic","Owner":"Private Practice - Nurse / Midwife","County":"Kirinyaga","Sub_County":"Kirinyaga East","Division":" ","Location":" ","Sub_Locati":" ","Constituen":"GICHUGU","Nearest_To":" ","Latitude":"-0.4605","Longitude":"37.31831"},"geometry":{"type":"Point","coordinates":[37.31831,-0.4605]}},{"type":"Feature","properties":{"OBJECTID":"5325","Facility_N":"M K M Clinic","Type":"Medical Clinic","Owner":"Private Practice - Clinical Officer","County":"Kirinyaga","Sub_County":"Kirinyaga East","Division":"Gichugu","Location":"Baragwi","Sub_Locati":"Raimu","Constituen":"GICHUGU","Nearest_To":"Kianyaga","Latitude":"-0.49623","Longitude":"37.35107"},"geometry":{"type":"Point","coordinates":[37.35107,-0.49623]}},{"type":"Feature","properties":{"OBJECTID":"5427","Facility_N":"Maisha Bora Clinic","Type":"Medical Clinic","Owner":"Private Practice - Nurse / Midwife","County":"Kirinyaga","Sub_County":"Kirinyaga East","Division":"Gichugu","Location":"Karumande","Sub_Locati":"Kariru","Constituen":"GICHUGU","Nearest_To":"Karumande","Latitude":"-0.44475","Longitude":"37.34752"},"geometry":{"type":"Point","coordinates":[37.34752,-0.44475]}},{"type":"Feature","properties":{"OBJECTID":"5550","Facility_N":"Mamuki Medical Clinic","Type":"Medical Clinic","Owner":"Private Practice - Nurse / Midwife","County":"Kirinyaga","Sub_County":"Kirinyaga South","Division":"Mwea East","Location":"Tebere","Sub_Locati":"Kiarukungu","Constituen":"MWEA","Nearest_To":"Wanguru","Latitude":"-0.68305","Longitude":"37.3561"},"geometry":{"type":"Point","coordinates":[37.3561,-0.68305]}},{"type":"Feature","properties":{"OBJECTID":"5560","Facility_N":"Manesh Clinic","Type":"Medical Clinic","Owner":"Private Enterprise (Institution)","County":"Kirinyaga","Sub_County":"Kirinyaga Central","Division":"Kirinyaga Central","Location":"Mutira","Sub_Locati":"Kagumo","Constituen":"NDIA","Nearest_To":"Kagumo","Latitude":"-0.47746","Longitude":"37.23489"},"geometry":{"type":"Point","coordinates":[37.23489,-0.47746]}},{"type":"Feature","properties":{"OBJECTID":"5729","Facility_N":"Masa Medical Clinic (Kirinyaga)","Type":"Medical Clinic","Owner":"Private Enterprise (Institution)","County":"Kirinyaga","Sub_County":"Kirinyaga West","Division":"Ndia","Location":"Kiini South","Sub_Locati":"Gacharu","Constituen":"NDIA","Nearest_To":" ","Latitude":"-0.620559","Longitude":"37.2125"},"geometry":{"type":"Point","coordinates":[37.2125,-0.620559]}},{"type":"Feature","properties":{"OBJECTID":"5916","Facility_N":"Mbiri (ACK) Dispensary","Type":"Dispensary","Owner":"Christian Health Association of Kenya","County":"Kirinyaga","Sub_County":"Kirinyaga East","Division":"Gichugu","Location":"Njukiini","Sub_Locati":"Ngiriambu","Constituen":"GICHUGU","Nearest_To":"Embu","Latitude":"-0.49449","Longitude":"37.39971"},"geometry":{"type":"Point","coordinates":[37.39971,-0.49449]}},{"type":"Feature","properties":{"OBJECTID":"5965","Facility_N":"Medical Centre Clinic","Type":"Medical Clinic","Owner":"Private Practice - Clinical Officer","County":"Kirinyaga","Sub_County":"Kirinyaga Central","Division":"Kirinyaga Central","Location":"Inoi","Sub_Locati":"Kerugoya","Constituen":"KERUGOYA/KUTUS","Nearest_To":"Kerugoya","Latitude":"-0.471308","Longitude":"37.1638"},"geometry":{"type":"Point","coordinates":[37.1638,-0.471308]}},{"type":"Feature","properties":{"OBJECTID":"5973","Facility_N":"Medicure Medical Clinic","Type":"Medical Clinic","Owner":"Private Practice - General Practitioner","County":"Kirinyaga","Sub_County":"Kirinyaga South","Division":"Mwea","Location":"Tebere","Sub_Locati":"Kiarukungu","Constituen":"MWEA","Nearest_To":"Ngurubani","Latitude":"-0.41089","Longitude":"37.41448"},"geometry":{"type":"Point","coordinates":[37.41448,-0.41089]}},{"type":"Feature","properties":{"OBJECTID":"5985","Facility_N":"Medkam Pharmacy","Type":"Medical Clinic","Owner":"Private Practice - Medical Specialist","County":"Kirinyaga","Sub_County":"Kirinyaga Central","Division":" ","Location":" ","Sub_Locati":" ","Constituen":"KERUGOYA/KUTUS","Nearest_To":" ","Latitude":"-0.50359","Longitude":"37.27801"},"geometry":{"type":"Point","coordinates":[37.27801,-0.50359]}},{"type":"Feature","properties":{"OBJECTID":"6016","Facility_N":"Mercy Medical (Kianugu) Clinic","Type":"Medical Clinic","Owner":"Private Practice - Nurse / Midwife","County":"Kirinyaga","Sub_County":"Kirinyaga South","Division":"Mwea","Location":"Tebere","Sub_Locati":"Gathigiriri","Constituen":"MWEA","Nearest_To":"Wanguru","Latitude":"-0.6924","Longitude":"37.40583"},"geometry":{"type":"Point","coordinates":[37.40583,-0.6924]}},{"type":"Feature","properties":{"OBJECTID":"6087","Facility_N":"Metro Optician","Type":"Eye Centre","Owner":"Private Enterprise (Institution)","County":"Kirinyaga","Sub_County":"Kirinyaga West","Division":"Ndia","Location":" ","Sub_Locati":" ","Constituen":"NDIA","Nearest_To":" ","Latitude":"-0.37885","Longitude":"37.25427"},"geometry":{"type":"Point","coordinates":[37.25427,-0.37885]}},{"type":"Feature","properties":{"OBJECTID":"6105","Facility_N":"Micheus Clinic","Type":"Medical Clinic","Owner":"Private Enterprise (Institution)","County":"Kirinyaga","Sub_County":"Kirinyaga West","Division":" ","Location":"Kiini North","Sub_Locati":"Nguguini","Constituen":"NDIA","Nearest_To":" ","Latitude":"-0.528115","Longitude":"37.1871"},"geometry":{"type":"Point","coordinates":[37.1871,-0.528115]}},{"type":"Feature","properties":{"OBJECTID":"6254","Facility_N":"Modesty Outpatient Centre","Type":"Medical Clinic","Owner":"Private Practice - General Practitioner","County":"Kirinyaga","Sub_County":"Kirinyaga South","Division":"Tebere","Location":"Tebere","Sub_Locati":"Kiarukungu","Constituen":"MWEA","Nearest_To":"Wangu'ru Town","Latitude":"-0.6838","Longitude":"37.35418"},"geometry":{"type":"Point","coordinates":[37.35418,-0.6838]}},{"type":"Feature","properties":{"OBJECTID":"6399","Facility_N":"Mt Kenya (ACK) Hospital","Type":"Nursing Home","Owner":"Christian Health Association of Kenya","County":"Kirinyaga","Sub_County":"Kirinyaga Central","Division":"Central","Location":"Kerugoya","Sub_Locati":"Ndimi","Constituen":"KERUGOYA/KUTUS","Nearest_To":"Kerugoya","Latitude":"-0.49185","Longitude":"37.26474"},"geometry":{"type":"Point","coordinates":[37.26474,-0.49185]}},{"type":"Feature","properties":{"OBJECTID":"6458","Facility_N":"Mugumo Clinic/Laboratory","Type":"Laboratory (Stand-alone)","Owner":"Private Practice - Unspecified","County":"Kirinyaga","Sub_County":"Kirinyaga Central","Division":"Central","Location":"Mutira","Sub_Locati":"Kagumo","Constituen":"NDIA","Nearest_To":"Kagumo","Latitude":"-0.368274","Longitude":"37.26411"},"geometry":{"type":"Point","coordinates":[37.26411,-0.368274]}},{"type":"Feature","properties":{"OBJECTID":"6466","Facility_N":"Muguo Clinic","Type":"Medical Clinic","Owner":"Private Practice - Clinical Officer","County":"Kirinyaga","Sub_County":"Kirinyaga East","Division":"Gichugu","Location":" ","Sub_Locati":" ","Constituen":"GICHUGU","Nearest_To":" ","Latitude":"-0.47602","Longitude":"37.235676"},"geometry":{"type":"Point","coordinates":[37.235676,-0.47602]}},{"type":"Feature","properties":{"OBJECTID":"6486","Facility_N":"Mukangu Health Centre","Type":"Health Centre","Owner":"Ministry of Health","County":"Kirinyaga","Sub_County":"Kirinyaga West","Division":"Ndia West","Location":"Kariti","Sub_Locati":"Nyangio","Constituen":"NDIA","Nearest_To":"Mukangu","Latitude":"-0.54987","Longitude":"37.15393"},"geometry":{"type":"Point","coordinates":[37.15393,-0.54987]}},{"type":"Feature","properties":{"OBJECTID":"6542","Facility_N":"Mumbuini Dispensary","Type":"Dispensary","Owner":"Ministry of Health","County":"Kirinyaga","Sub_County":"Kirinyaga South","Division":"Mwea","Location":"Murinduko","Sub_Locati":"Miuu","Constituen":"MWEA","Nearest_To":"Embu","Latitude":"-0.60638","Longitude":"37.46157"},"geometry":{"type":"Point","coordinates":[37.46157,-0.60638]}},{"type":"Feature","properties":{"OBJECTID":"6567","Facility_N":"Mung'ang'a (ACK) Dispensary","Type":"Dispensary","Owner":"Christian Health Association of Kenya","County":"Kirinyaga","Sub_County":"Kirinyaga North","Division":"Mwea","Location":"Kangai","Sub_Locati":"Kathiga","Constituen":"MWEA","Nearest_To":"Kagio","Latitude":"-0.621","Longitude":"37.254"},"geometry":{"type":"Point","coordinates":[37.254,-0.621]}},{"type":"Feature","properties":{"OBJECTID":"6606","Facility_N":"Murinduko Health Centre","Type":"Health Centre","Owner":"Ministry of Health","County":"Kirinyaga","Sub_County":"Kirinyaga South","Division":"Mwea","Location":"Murinduko","Sub_Locati":"Mugambaciura","Constituen":"MWEA","Nearest_To":"PI","Latitude":"-0.57543","Longitude":"37.44161"},"geometry":{"type":"Point","coordinates":[37.44161,-0.57543]}},{"type":"Feature","properties":{"OBJECTID":"6695","Facility_N":"Mutira (ACK) Dispensary","Type":"Dispensary","Owner":"Christian Health Association of Kenya","County":"Kirinyaga","Sub_County":"Kirinyaga Central","Division":"Central","Location":" Mutira","Sub_Locati":"Kagumo","Constituen":"NDIA","Nearest_To":"Kagumo","Latitude":"-0.48835","Longitude":"37.22951"},"geometry":{"type":"Point","coordinates":[37.22951,-0.48835]}},{"type":"Feature","properties":{"OBJECTID":"6696","Facility_N":"Mutira Laboratory","Type":"Laboratory (Stand-alone)","Owner":"Private Enterprise (Institution)","County":"Kirinyaga","Sub_County":"Kirinyaga Central","Division":"Ndia","Location":" ","Sub_Locati":" ","Constituen":"NDIA","Nearest_To":" ","Latitude":"-0.48833","Longitude":"37.22948"},"geometry":{"type":"Point","coordinates":[37.22948,-0.48833]}},{"type":"Feature","properties":{"OBJECTID":"6698","Facility_N":"Mutithi Health Centre","Type":"Health Centre","Owner":"Ministry of Health","County":"Kirinyaga","Sub_County":"Kirinyaga North","Division":"Mwea","Location":"Mutithi","Sub_Locati":"Kiandegwa","Constituen":"MWEA","Nearest_To":"Mutithi","Latitude":"-0.72679","Longitude":"37.32272"},"geometry":{"type":"Point","coordinates":[37.32272,-0.72679]}},{"type":"Feature","properties":{"OBJECTID":"6700","Facility_N":"Mutitu Community Dispensary","Type":"Dispensary","Owner":"Ministry of Health","County":"Kirinyaga","Sub_County":"Kirinyaga Central","Division":"Central","Location":"Kanyekiini","Sub_Locati":"Kathare","Constituen":"KERUGOYA/KUTUS","Nearest_To":"Mutitu","Latitude":"-0.52248","Longitude":"37.24834"},"geometry":{"type":"Point","coordinates":[37.24834,-0.52248]}},{"type":"Feature","properties":{"OBJECTID":"6789","Facility_N":"Mwea Annex Domic Medical Centre","Type":"Medical Clinic","Owner":"Private Practice - General Practitioner","County":"Kirinyaga","Sub_County":"Kirinyaga South","Division":"Tebere","Location":"Wanguru","Sub_Locati":"Wanguru","Constituen":"MWEA","Nearest_To":" ","Latitude":"-0.11168","Longitude":"36.05523"},"geometry":{"type":"Point","coordinates":[36.05523,-0.11168]}},{"type":"Feature","properties":{"OBJECTID":"6790","Facility_N":"Mwea Dental Clinic","Type":"Medical Clinic","Owner":"Private Practice - Medical Specialist","County":"Kirinyaga","Sub_County":"Kirinyaga South","Division":"Mwea East","Location":"Tebere","Sub_Locati":"Kiarukungu","Constituen":"MWEA","Nearest_To":"Wanguru","Latitude":"-0.68588","Longitude":"37.35812"},"geometry":{"type":"Point","coordinates":[37.35812,-0.68588]}},{"type":"Feature","properties":{"OBJECTID":"6791","Facility_N":"Mwea Diabetes / Hypertension Community Clinic","Type":"Medical Clinic","Owner":"Non-Governmental Organizations","County":"Kirinyaga","Sub_County":"Kirinyaga South","Division":"Mwea","Location":"Tebere","Sub_Locati":"Kiarukungu","Constituen":"MWEA","Nearest_To":"Ngurubani town","Latitude":"-0.75016","Longitude":"37.31855"},"geometry":{"type":"Point","coordinates":[37.31855,-0.75016]}},{"type":"Feature","properties":{"OBJECTID":"6792","Facility_N":"Mwea Drop Inn Centre","Type":"Medical Clinic","Owner":"Non-Governmental Organizations","County":"Kirinyaga","Sub_County":"Kirinyaga South","Division":"Mwea","Location":"Tebere","Sub_Locati":"Kiarukungu","Constituen":"MWEA","Nearest_To":"Ngurubani","Latitude":"-0.41296","Longitude":"37.21525"},"geometry":{"type":"Point","coordinates":[37.21525,-0.41296]}},{"type":"Feature","properties":{"OBJECTID":"6793","Facility_N":"Mwea Medical Centre","Type":"Nursing Home","Owner":"Private Practice - General Practitioner","County":"Kirinyaga","Sub_County":"Kirinyaga South","Division":"Mwea","Location":"Tebere","Sub_Locati":"Kiarukungu","Constituen":"MWEA","Nearest_To":"Ngurubani","Latitude":"-0.68873","Longitude":"37.36255"},"geometry":{"type":"Point","coordinates":[37.36255,-0.68873]}},{"type":"Feature","properties":{"OBJECTID":"6794","Facility_N":"Mwea Medical Clinic","Type":"Medical Clinic","Owner":"Private Practice - Nurse / Midwife","County":"Kirinyaga","Sub_County":"Kirinyaga South","Division":"Mwea","Location":"Tebere","Sub_Locati":"Kiarukungu","Constituen":"MWEA","Nearest_To":"Ngurubani","Latitude":"-0.68439","Longitude":"37.35503"},"geometry":{"type":"Point","coordinates":[37.35503,-0.68439]}},{"type":"Feature","properties":{"OBJECTID":"6795","Facility_N":"Mwea Medical Clinic Kagio","Type":"Medical Clinic","Owner":"Private Practice - Clinical Officer","County":"Kirinyaga","Sub_County":"Kirinyaga West","Division":"Ndia","Location":"Mwirua","Sub_Locati":"Kithumbu","Constituen":"NDIA","Nearest_To":"Kagio","Latitude":"-0.62831","Longitude":"37.25011"},"geometry":{"type":"Point","coordinates":[37.25011,-0.62831]}},{"type":"Feature","properties":{"OBJECTID":"6796","Facility_N":"Mwea Medical Laboratory","Type":"Laboratory (Stand-alone)","Owner":"Private Enterprise (Institution)","County":"Kirinyaga","Sub_County":"Kirinyaga South","Division":"Mwea East","Location":"Tebere","Sub_Locati":"Kiarukungu","Constituen":"MWEA","Nearest_To":"Ngurubani","Latitude":"-0.68439","Longitude":"37.35505"},"geometry":{"type":"Point","coordinates":[37.35505,-0.68439]}},{"type":"Feature","properties":{"OBJECTID":"6797","Facility_N":"Mwea Mission (Our Lady of Lourdes) Hospital","Type":"Other Hospital","Owner":"Kenya Episcopal Conference-Catholic Secretariat","County":"Kirinyaga","Sub_County":"Kirinyaga North","Division":"Mwea","Location":"Tebere","Sub_Locati":"Kiarukungu","Constituen":"MWEA","Nearest_To":"Ngurubani","Latitude":"-0.66427","Longitude":"37.34997"},"geometry":{"type":"Point","coordinates":[37.34997,-0.66427]}},{"type":"Feature","properties":{"OBJECTID":"7049","Facility_N":"Ndia Chemist Clinic","Type":"Medical Clinic","Owner":"Private Practice - Nurse / Midwife","County":"Kirinyaga","Sub_County":"Kirinyaga West","Division":" ","Location":" ","Sub_Locati":" ","Constituen":"NDIA","Nearest_To":" ","Latitude":"-0.6226","Longitude":"37.25764"},"geometry":{"type":"Point","coordinates":[37.25764,-0.6226]}},{"type":"Feature","properties":{"OBJECTID":"7124","Facility_N":"Neno Clinic","Type":"Medical Clinic","Owner":"Private Enterprise (Institution)","County":"Kirinyaga","Sub_County":"Kirinyaga South","Division":"Mwea","Location":"Tebere","Sub_Locati":"Kiarukungu","Constituen":"MWEA","Nearest_To":"Wanguru","Latitude":"-0.691765","Longitude":"37.3995"},"geometry":{"type":"Point","coordinates":[37.3995,-0.691765]}},{"type":"Feature","properties":{"OBJECTID":"7145","Facility_N":"New Line Laboratory","Type":"Laboratory (Stand-alone)","Owner":"Private Enterprise (Institution)","County":"Kirinyaga","Sub_County":"Kirinyaga South","Division":"Mwea","Location":"Tebere","Sub_Locati":"Kiarukungu","Constituen":"MWEA","Nearest_To":"Ngurubani","Latitude":"-0.68284","Longitude":"37.35984"},"geometry":{"type":"Point","coordinates":[37.35984,-0.68284]}},{"type":"Feature","properties":{"OBJECTID":"7232","Facility_N":"Ngiriambu (ACK) Dispensary","Type":"Dispensary","Owner":"Christian Health Association of Kenya","County":"Kirinyaga","Sub_County":"Kirinyaga East","Division":"Gichugu","Location":"Njukini","Sub_Locati":"Mirichi","Constituen":"GICHUGU","Nearest_To":"Kianyaga town","Latitude":"-0.46692","Longitude":"37.39063"},"geometry":{"type":"Point","coordinates":[37.39063,-0.46692]}},{"type":"Feature","properties":{"OBJECTID":"7264","Facility_N":"Nguguini Dispensary","Type":"Dispensary","Owner":"Ministry of Health","County":"Kirinyaga","Sub_County":"Kirinyaga West","Division":"Ndia","Location":"Kiini","Sub_Locati":"Nguguini","Constituen":"NDIA","Nearest_To":"Nguguini Market","Latitude":"-0.49899","Longitude":"37.1968"},"geometry":{"type":"Point","coordinates":[37.1968,-0.49899]}},{"type":"Feature","properties":{"OBJECTID":"7265","Facility_N":"Nguka Health Centre","Type":"Health Centre","Owner":"Ministry of Health","County":"Kirinyaga","Sub_County":"Kirinyaga North","Division":"Mwea","Location":"Thiba","Sub_Locati":"Nguka","Constituen":"MWEA","Nearest_To":"Nguka","Latitude":"-0.66503","Longitude":"37.3267"},"geometry":{"type":"Point","coordinates":[37.3267,-0.66503]}},{"type":"Feature","properties":{"OBJECTID":"7275","Facility_N":"Ngurubani Medical Services","Type":"Medical Clinic","Owner":"Private Practice - Nurse / Midwife","County":"Kirinyaga","Sub_County":"Kirinyaga North","Division":" ","Location":" ","Sub_Locati":" ","Constituen":"MWEA","Nearest_To":" ","Latitude":"-0.68347","Longitude":"37.35596"},"geometry":{"type":"Point","coordinates":[37.35596,-0.68347]}},{"type":"Feature","properties":{"OBJECTID":"7307","Facility_N":"Njambi Nursing Home","Type":"Medical Clinic","Owner":"Private Enterprise (Institution)","County":"Kirinyaga","Sub_County":"Kirinyaga South","Division":"Mwea","Location":"Tebere","Sub_Locati":"Kiarukungu","Constituen":"MWEA","Nearest_To":"Ngurubani","Latitude":"-0.691765","Longitude":"37.3995"},"geometry":{"type":"Point","coordinates":[37.3995,-0.691765]}},{"type":"Feature","properties":{"OBJECTID":"7310","Facility_N":"Njegas Health Centre","Type":"Health Centre","Owner":"Ministry of Health","County":"Kirinyaga","Sub_County":"Kirinyaga North","Division":"Mwea","Location":"Kangai","Sub_Locati":"Gathiga","Constituen":"MWEA","Nearest_To":"Njegas","Latitude":"-0.61565","Longitude":"37.34555"},"geometry":{"type":"Point","coordinates":[37.34555,-0.61565]}},{"type":"Feature","properties":{"OBJECTID":"7324","Facility_N":"Njukini Clinic","Type":"Medical Clinic","Owner":"Private Enterprise (Institution)","County":"Kirinyaga","Sub_County":"Kirinyaga South","Division":"Gichugu","Location":"Nyangati","Sub_Locati":"Nyangati","Constituen":"GICHUGU","Nearest_To":"Njukiini","Latitude":"-0.61046","Longitude":"37.3477"},"geometry":{"type":"Point","coordinates":[37.3477,-0.61046]}},{"type":"Feature","properties":{"OBJECTID":"7717","Facility_N":"Olifras Medical Clinic","Type":"Medical Clinic","Owner":"Private Practice - Nurse / Midwife","County":"Kirinyaga","Sub_County":"Kirinyaga Central","Division":" ","Location":" ","Sub_Locati":" ","Constituen":"KERUGOYA/KUTUS","Nearest_To":"Kagumo","Latitude":"-0.47598","Longitude":"37.2368"},"geometry":{"type":"Point","coordinates":[37.2368,-0.47598]}},{"type":"Feature","properties":{"OBJECTID":"7719","Facility_N":"Olive Health Care/Laboratory","Type":"Medical Clinic","Owner":"Private Practice - Nurse / Midwife","County":"Kirinyaga","Sub_County":"Kirinyaga West","Division":"Ndia West","Location":"Kariti","Sub_Locati":"Sagana","Constituen":"NDIA","Nearest_To":"Sagana","Latitude":"-0.66791","Longitude":"37.20748"},"geometry":{"type":"Point","coordinates":[37.20748,-0.66791]}},{"type":"Feature","properties":{"OBJECTID":"7931","Facility_N":"PCEA Gateway","Type":"Dispensary","Owner":"Christian Health Association of Kenya","County":"Kirinyaga","Sub_County":"Kirinyaga East","Division":"Gichugu","Location":"Njukini","Sub_Locati":"Kanjuu","Constituen":"MWEA","Nearest_To":"Gathoge","Latitude":"-0.54099","Longitude":"37.43593"},"geometry":{"type":"Point","coordinates":[37.43593,-0.54099]}},{"type":"Feature","properties":{"OBJECTID":"7955","Facility_N":"Pekaru Medical Centre","Type":"Nursing Home","Owner":"Private Enterprise (Institution)","County":"Kirinyaga","Sub_County":"Kirinyaga Central","Division":"Ndia","Location":"Mwirua","Sub_Locati":"Kithumbu","Constituen":"NDIA","Nearest_To":"Kagio","Latitude":"-0.611282","Longitude":"37.2425"},"geometry":{"type":"Point","coordinates":[37.2425,-0.611282]}},{"type":"Feature","properties":{"OBJECTID":"7972","Facility_N":"Pharma Point Clinic","Type":"Medical Clinic","Owner":"Private Enterprise (Institution)","County":"Kirinyaga","Sub_County":"Kirinyaga East","Division":"Gichugu","Location":"Karumande","Sub_Locati":"Thimu","Constituen":"GICHUGU","Nearest_To":" ","Latitude":"-0.44763","Longitude":"37.33698"},"geometry":{"type":"Point","coordinates":[37.33698,-0.44763]}},{"type":"Feature","properties":{"OBJECTID":"7980","Facility_N":"Physiotherapy Clinic (Kirinyaga)","Type":"Nursing Home","Owner":"Private Enterprise (Institution)","County":"Kirinyaga","Sub_County":"Kirinyaga Central","Division":"Central","Location":"Kerugoya","Sub_Locati":"Kaguyu","Constituen":"KERUGOYA/KUTUS","Nearest_To":"Kerugoya","Latitude":"-0.471308","Longitude":"37.1638"},"geometry":{"type":"Point","coordinates":[37.1638,-0.471308]}},{"type":"Feature","properties":{"OBJECTID":"8175","Facility_N":"Rapha Afya Medical Clinic (Kirinyaga)","Type":"Medical Clinic","Owner":"Private Practice - Clinical Officer","County":"Kirinyaga","Sub_County":"Kirinyaga Central","Division":"Central","Location":"Kerugoya","Sub_Locati":"Kaitheri","Constituen":"KERUGOYA/KUTUS","Nearest_To":"Kerugoya","Latitude":"-0.50524","Longitude":"37.28034"},"geometry":{"type":"Point","coordinates":[37.28034,-0.50524]}},{"type":"Feature","properties":{"OBJECTID":"8250","Facility_N":"Riakithiga Dispensary","Type":"Dispensary","Owner":"Ministry of Health","County":"Kirinyaga","Sub_County":"Kirinyaga East","Division":"Gichugu","Location":"Kabare","Sub_Locati":"Mikarara","Constituen":"GICHUGU","Nearest_To":"Riakithiga Shopping Centre","Latitude":"-0.52383","Longitude":"37.31131"},"geometry":{"type":"Point","coordinates":[37.31131,-0.52383]}},{"type":"Feature","properties":{"OBJECTID":"8287","Facility_N":"Roadside Medical Clinic Kiangai","Type":"Medical Clinic","Owner":"Private Practice - Nurse / Midwife","County":"Kirinyaga","Sub_County":"Kirinyaga West","Division":"Ndia West","Location":"Kiini","Sub_Locati":"Kiangai","Constituen":"NDIA","Nearest_To":"Kiangai","Latitude":"-0.48031","Longitude":"37.17695"},"geometry":{"type":"Point","coordinates":[37.17695,-0.48031]}},{"type":"Feature","properties":{"OBJECTID":"8327","Facility_N":"Rospa Glory Clinic","Type":"Medical Clinic","Owner":"Private Enterprise (Institution)","County":"Kirinyaga","Sub_County":"Kirinyaga South","Division":"Mwea","Location":"Tebere","Sub_Locati":"Kiarukungu","Constituen":"MWEA","Nearest_To":"Wanguru","Latitude":"-0.691765","Longitude":"37.3995"},"geometry":{"type":"Point","coordinates":[37.3995,-0.691765]}},{"type":"Feature","properties":{"OBJECTID":"8336","Facility_N":"Royal Dental Clinic","Type":"Medical Clinic","Owner":"Private Practice - Nurse / Midwife","County":"Kirinyaga","Sub_County":"Kirinyaga Central","Division":" ","Location":" ","Sub_Locati":" ","Constituen":"KERUGOYA/KUTUS","Nearest_To":" ","Latitude":"-0.50176","Longitude":"37.27983"},"geometry":{"type":"Point","coordinates":[37.27983,-0.50176]}},{"type":"Feature","properties":{"OBJECTID":"8366","Facility_N":"Rukanga  Health Centre","Type":"Health Centre","Owner":"Ministry of Health","County":"Kirinyaga","Sub_County":"Kirinyaga North","Division":"Mwea","Location":"Mutithi","Sub_Locati":"Rukanga","Constituen":"MWEA","Nearest_To":"Makutano","Latitude":"-0.72451","Longitude":"37.26481"},"geometry":{"type":"Point","coordinates":[37.26481,-0.72451]}},{"type":"Feature","properties":{"OBJECTID":"8385","Facility_N":"Rurii Kiandegwa Dispensary","Type":"Dispensary","Owner":"Ministry of Health","County":"Kirinyaga","Sub_County":"Kirinyaga North","Division":"Mwea","Location":"Mutithi","Sub_Locati":"Wamumu","Constituen":"MWEA","Nearest_To":"Mutithi","Latitude":"-0.734","Longitude":"37.33627"},"geometry":{"type":"Point","coordinates":[37.33627,-0.734]}},{"type":"Feature","properties":{"OBJECTID":"8421","Facility_N":"Sacred Heart Kangaita Catholic Dispensary","Type":"Dispensary","Owner":"Kenya Episcopal Conference-Catholic Secretariat","County":"Kirinyaga","Sub_County":"Kirinyaga Central","Division":"Central","Location":"Kangaita","Sub_Locati":"Mbeti","Constituen":"KERUGOYA/KUTUS","Nearest_To":"Kangaita","Latitude":"-0.424","Longitude":"37.27027"},"geometry":{"type":"Point","coordinates":[37.27027,-0.424]}},{"type":"Feature","properties":{"OBJECTID":"8426","Facility_N":"Safi Medical Clinic","Type":"Medical Clinic","Owner":"Private Practice - Nurse / Midwife","County":"Kirinyaga","Sub_County":"Kirinyaga South","Division":"Mwea","Location":"Kutus","Sub_Locati":"Kamiigua","Constituen":"KERUGOYA/KUTUS","Nearest_To":"Kutus","Latitude":"-0.57313","Longitude":"37.32644"},"geometry":{"type":"Point","coordinates":[37.32644,-0.57313]}},{"type":"Feature","properties":{"OBJECTID":"8429","Facility_N":"Sagala Medical Clinic","Type":"Medical Clinic","Owner":"Private Practice - Nurse / Midwife","County":"Kirinyaga","Sub_County":"Kirinyaga Central","Division":"Central Division","Location":"Inoi","Sub_Locati":"Kerugoya","Constituen":"KERUGOYA/KUTUS","Nearest_To":"Kerugoya","Latitude":"-0.5048","Longitude":"37.28039"},"geometry":{"type":"Point","coordinates":[37.28039,-0.5048]}},{"type":"Feature","properties":{"OBJECTID":"8432","Facility_N":"Sagana Catholic Dispensary","Type":"Dispensary","Owner":"Kenya Episcopal Conference-Catholic Secretariat","County":"Kirinyaga","Sub_County":"Kirinyaga West","Division":"Ndia","Location":"Kiriti","Sub_Locati":"Sagana","Constituen":"NDIA","Nearest_To":"Sagana","Latitude":"-0.65862","Longitude":"37.21884"},"geometry":{"type":"Point","coordinates":[37.21884,-0.65862]}},{"type":"Feature","properties":{"OBJECTID":"8434","Facility_N":"Sagana Medical Clinic","Type":"Medical Clinic","Owner":"Private Practice - Clinical Officer","County":"Kirinyaga","Sub_County":"Kirinyaga West","Division":"Ndia West","Location":"Kariti","Sub_Locati":"Sagana","Constituen":"NDIA","Nearest_To":"Sagana","Latitude":"-0.66719","Longitude":"37.2082"},"geometry":{"type":"Point","coordinates":[37.2082,-0.66719]}},{"type":"Feature","properties":{"OBJECTID":"8436","Facility_N":"Sagana Sub-District Hospital","Type":"Sub-District Hospital","Owner":"Ministry of Health","County":"Kirinyaga","Sub_County":"Kirinyaga West","Division":"Ndia","Location":"Kariti","Sub_Locati":"Sagana","Constituen":"NDIA","Nearest_To":"Sagana","Latitude":"-0.66671","Longitude":"37.20909"},"geometry":{"type":"Point","coordinates":[37.20909,-0.66671]}},{"type":"Feature","properties":{"OBJECTID":"8507","Facility_N":"Santa Lucia Medical Clinic","Type":"Medical Clinic","Owner":"Private Practice - Nurse / Midwife","County":"Kirinyaga","Sub_County":"Kirinyaga North","Division":"Mwea","Location":"Mutithi","Sub_Locati":"Kiandegwa","Constituen":"MWEA","Nearest_To":"Mutithi","Latitude":"-0.72355","Longitude":"37.32165"},"geometry":{"type":"Point","coordinates":[37.32165,-0.72355]}},{"type":"Feature","properties":{"OBJECTID":"8816","Facility_N":"Slope Optician","Type":"Eye Centre","Owner":"Private Enterprise (Institution)","County":"Kirinyaga","Sub_County":"Kirinyaga Central","Division":"Ndia","Location":"Mwirua","Sub_Locati":"Kithumbu","Constituen":"NDIA","Nearest_To":"Kagio","Latitude":"-0.37668","Longitude":"37.15427"},"geometry":{"type":"Point","coordinates":[37.15427,-0.37668]}},{"type":"Feature","properties":{"OBJECTID":"8885","Facility_N":"South Ngariama Dispensary","Type":"Dispensary","Owner":"Ministry of Health","County":"Kirinyaga","Sub_County":"Kirinyaga South","Division":"Mwea","Location":"Murinduko","Sub_Locati":"South Ngariama","Constituen":"MWEA","Nearest_To":"Itangi","Latitude":"-0.60691","Longitude":"37.4618"},"geometry":{"type":"Point","coordinates":[37.4618,-0.60691]}},{"type":"Feature","properties":{"OBJECTID":"8907","Facility_N":"Ssema Medical Clinic","Type":"Medical Clinic","Owner":"Private Practice - Nurse / Midwife","County":"Kirinyaga","Sub_County":"Kirinyaga West","Division":"Ndia","Location":"Mutithi","Sub_Locati":"Kiamaciri","Constituen":"NDIA","Nearest_To":"Kagio","Latitude":"-0.62636","Longitude":"37.2557"},"geometry":{"type":"Point","coordinates":[37.2557,-0.62636]}},{"type":"Feature","properties":{"OBJECTID":"8915","Facility_N":"St Andrews Kabare (ACK) Dispensary","Type":"Dispensary","Owner":"Christian Health Association of Kenya","County":"Kirinyaga","Sub_County":"Kirinyaga East","Division":"Gichugu","Location":"Kabare","Sub_Locati":"Kiritini","Constituen":"GICHUGU","Nearest_To":" Kabare","Latitude":"-0.50575","Longitude":"37.32045"},"geometry":{"type":"Point","coordinates":[37.32045,-0.50575]}},{"type":"Feature","properties":{"OBJECTID":"8925","Facility_N":"St Anne CFW Clinic","Type":"Medical Clinic","Owner":"Non-Governmental Organizations","County":"Kirinyaga","Sub_County":"Kirinyaga East","Division":" ","Location":" ","Sub_Locati":" ","Constituen":"GICHUGU","Nearest_To":" ","Latitude":"-0.49619","Longitude":"37.05072"},"geometry":{"type":"Point","coordinates":[37.05072,-0.49619]}},{"type":"Feature","properties":{"OBJECTID":"8929","Facility_N":"St Anne's Cry For The World Clinic (Raimu)","Type":"Medical Clinic","Owner":"Non-Governmental Organizations","County":"Kirinyaga","Sub_County":"Kirinyaga East","Division":"Gichugu","Location":"Baragwi","Sub_Locati":"Raimu","Constituen":"GICHUGU","Nearest_To":"Kianyaga","Latitude":"-0.49619","Longitude":"37.05072"},"geometry":{"type":"Point","coordinates":[37.05072,-0.49619]}},{"type":"Feature","properties":{"OBJECTID":"9004","Facility_N":"St James Angilcan Church of Kenya Kiaritha Dispens","Type":"Dispensary","Owner":"Christian Health Association of Kenya","County":"Kirinyaga","Sub_County":"Kirinyaga Central","Division":"Central","Location":"Kerugoya","Sub_Locati":"Kaguyu","Constituen":"KERUGOYA/KUTUS","Nearest_To":"Kerugoya","Latitude":"-0.48811","Longitude":"37.26856"},"geometry":{"type":"Point","coordinates":[37.26856,-0.48811]}},{"type":"Feature","properties":{"OBJECTID":"9031","Facility_N":"St Johns Thaita (ACK) Dispensary","Type":"Dispensary","Owner":"Christian Health Association of Kenya","County":"Kirinyaga","Sub_County":"Kirinyaga Central","Division":"Central","Location":"Inoi","Sub_Locati":"Thaita","Constituen":"KERUGOYA/KUTUS","Nearest_To":"Thaita","Latitude":"-0.45793","Longitude":"37.2611"},"geometry":{"type":"Point","coordinates":[37.2611,-0.45793]}},{"type":"Feature","properties":{"OBJECTID":"9066","Facility_N":"St Jude Clinic","Type":"Medical Clinic","Owner":"Private Practice - Nurse / Midwife","County":"Kirinyaga","Sub_County":"Kirinyaga West","Division":"Ndia West","Location":"Kiini North","Sub_Locati":"Kibingoti","Constituen":"NDIA","Nearest_To":"Kibingoti","Latitude":"-0.56923","Longitude":"37.18777"},"geometry":{"type":"Point","coordinates":[37.18777,-0.56923]}},{"type":"Feature","properties":{"OBJECTID":"9114","Facility_N":"St Mary (ACK) Dispensary (Ngariama)","Type":"Dispensary","Owner":"Christian Health Association of Kenya","County":"Kirinyaga","Sub_County":"Kirinyaga East","Division":"Gichugu","Location":"Ngariama","Sub_Locati":"Nyangeni","Constituen":"GICHUGU","Nearest_To":"Karia","Latitude":"-0.44485","Longitude":"37.38938"},"geometry":{"type":"Point","coordinates":[37.38938,-0.44485]}},{"type":"Feature","properties":{"OBJECTID":"9115","Facility_N":"St Mary (ACK) Mugumo Dispensary","Type":"Dispensary","Owner":"Christian Health Association of Kenya","County":"Kirinyaga","Sub_County":"Kirinyaga East","Division":"Gichugu","Location":"Kirima","Sub_Locati":"Njuku","Constituen":"GICHUGU","Nearest_To":"Kimunye","Latitude":"-0.42916","Longitude":"37.30891"},"geometry":{"type":"Point","coordinates":[37.30891,-0.42916]}},{"type":"Feature","properties":{"OBJECTID":"9117","Facility_N":"St Mary Health Clinic","Type":"Medical Clinic","Owner":"Private Practice - Nurse / Midwife","County":"Kirinyaga","Sub_County":"Kirinyaga North","Division":"Mwea","Location":"Mutithi","Sub_Locati":"Kinyaga","Constituen":"MWEA","Nearest_To":"Kagio","Latitude":"-0.37671","Longitude":"37.15474"},"geometry":{"type":"Point","coordinates":[37.15474,-0.37671]}},{"type":"Feature","properties":{"OBJECTID":"9119","Facility_N":"St Mary Laboratory (Mwea)","Type":"Laboratory (Stand-alone)","Owner":"Private Enterprise (Institution)","County":"Kirinyaga","Sub_County":"Kirinyaga South","Division":"Mwea","Location":"Nyangati","Sub_Locati":"Kirimara","Constituen":"MWEA","Nearest_To":"Mururi","Latitude":"-0.61046","Longitude":"37.3477"},"geometry":{"type":"Point","coordinates":[37.3477,-0.61046]}},{"type":"Feature","properties":{"OBJECTID":"9120","Facility_N":"St Mary Magdalene Kanjuu Dispensary","Type":"Dispensary","Owner":"Christian Health Association of Kenya","County":"Kirinyaga","Sub_County":"Kirinyaga East","Division":"Gichugu","Location":"Njukiini","Sub_Locati":"Kanjuu","Constituen":"GICHUGU","Nearest_To":"Kanjuu","Latitude":"-0.53307","Longitude":"37.40937"},"geometry":{"type":"Point","coordinates":[37.40937,-0.53307]}},{"type":"Feature","properties":{"OBJECTID":"9215","Facility_N":"St Teresa Catholic Dispensary","Type":"Dispensary","Owner":"Kenya Episcopal Conference-Catholic Secretariat","County":"Kirinyaga","Sub_County":"Kirinyaga South","Division":"Mwea","Location":"Tebere","Sub_Locati":"Wamumu","Constituen":"MWEA","Nearest_To":"Ciagini","Latitude":"-0.734994","Longitude":"37.3772"},"geometry":{"type":"Point","coordinates":[37.3772,-0.734994]}},{"type":"Feature","properties":{"OBJECTID":"9526","Facility_N":"Thiba Health Centre","Type":"Health Centre","Owner":"Ministry of Health","County":"Kirinyaga","Sub_County":"Kirinyaga North","Division":"Mwea","Location":"Thiba","Sub_Locati":"Kiritina","Constituen":"MWEA","Nearest_To":"Maendeleo","Latitude":"-0.68995","Longitude":"37.34597"},"geometry":{"type":"Point","coordinates":[37.34597,-0.68995]}},{"type":"Feature","properties":{"OBJECTID":"9529","Facility_N":"Thigirichi Mukui","Type":"Dispensary","Owner":"Ministry of Health","County":"Kirinyaga","Sub_County":"Kirinyaga West","Division":"Ndia","Location":"Kariti","Sub_Locati":"Thigirichi","Constituen":"NDIA","Nearest_To":"Kiangwaci","Latitude":"-0.60256","Longitude":"37.18985"},"geometry":{"type":"Point","coordinates":[37.18985,-0.60256]}},{"type":"Feature","properties":{"OBJECTID":"9547","Facility_N":"Three In One Clinic","Type":"Medical Clinic","Owner":"Private Practice - Clinical Officer","County":"Kirinyaga","Sub_County":"Kirinyaga Central","Division":"Kerugoya","Location":"Kaguyu","Sub_Locati":"Kerugoya","Constituen":"GICHUGU","Nearest_To":" ","Latitude":"-0.52513","Longitude":"37.28042"},"geometry":{"type":"Point","coordinates":[37.28042,-0.52513]}},{"type":"Feature","properties":{"OBJECTID":"9549","Facility_N":"Thumaita (ACK) Dispensary","Type":"Dispensary","Owner":"Christian Health Association of Kenya","County":"Kirinyaga","Sub_County":"Kirinyaga East","Division":"Gichugu","Location":"Karumande","Sub_Locati":"Thumaita","Constituen":"GICHUGU","Nearest_To":"Thumaita","Latitude":"-0.43935","Longitude":"37.3585"},"geometry":{"type":"Point","coordinates":[37.3585,-0.43935]}},{"type":"Feature","properties":{"OBJECTID":"9686","Facility_N":"Tumaini Clinic (Mwea)","Type":"Medical Clinic","Owner":"Private Practice - Nurse / Midwife","County":"Kirinyaga","Sub_County":"Kirinyaga South","Division":"Mwea","Location":"Tebere","Sub_Locati":"Kiarukungu","Constituen":"MWEA","Nearest_To":"Wanguru","Latitude":"-0.691765","Longitude":"37.3995"},"geometry":{"type":"Point","coordinates":[37.3995,-0.691765]}},{"type":"Feature","properties":{"OBJECTID":"9688","Facility_N":"Tumaini Clinic/Laboratory","Type":"Laboratory (Stand-alone)","Owner":"Private Enterprise (Institution)","County":"Kirinyaga","Sub_County":"Kirinyaga West","Division":"Ndia West","Location":"Kariti","Sub_Locati":"Sagana","Constituen":"NDIA","Nearest_To":"Sagana","Latitude":"-0.278797","Longitude":"37.1935"},"geometry":{"type":"Point","coordinates":[37.1935,-0.278797]}},{"type":"Feature","properties":{"OBJECTID":"9774","Facility_N":"Ucheru Community Health Centre","Type":"Health Centre","Owner":"Ministry of Health","County":"Kirinyaga","Sub_County":"Kirinyaga Central","Division":"Central","Location":"Kanyekiini","Sub_Locati":"Kianjege","Constituen":"KERUGOYA/KUTUS","Nearest_To":"Mukinduri","Latitude":"-0.54802","Longitude":"37.26567"},"geometry":{"type":"Point","coordinates":[37.26567,-0.54802]}},