{"type":"FeatureCollection","features":[{"type":"Feature","properties":{"OBJECTID":"125","Facility_N":"Aga Khan","Type":"Medical Clinic","Owner":"Private Practice - General Practitioner","County":"Laikipia","Sub_County":"Laikipia West","Division":"Nyahururu","Location":"Nyahururu Town","Sub_Locati":"Nyahururu Town","Constituen":"LAIKIPIA WEST","Nearest_To":"Nyahururu","Latitude":"0.04165","Longitude":"36.36212"},"geometry":{"type":"Point","coordinates":[36.36212,0.04165]}},{"type":"Feature","properties":{"OBJECTID":"126","Facility_N":"Aga Khan Clinic","Type":"Medical Clinic","Owner":"Private Enterprise (Institution)","County":"Laikipia","Sub_County":"Laikipia Central","Division":"Sweetwaters","Location":"Marura","Sub_Locati":"Marura","Constituen":"LAIKIPIA EAST","Nearest_To":"Nanyuki Town","Latitude":"0.0101","Longitude":"37.07546"},"geometry":{"type":"Point","coordinates":[37.07546,0.0101]}},{"type":"Feature","properties":{"OBJECTID":"370","Facility_N":"Aphia Disc 1 Nanyuki Transport","Type":"Medical Clinic","Owner":"Non-Governmental Organizations","County":"Laikipia","Sub_County":"Laikipia East","Division":"Central","Location":"Town","Sub_Locati":"Town","Constituen":"LAIKIPIA EAST","Nearest_To":"Nanyuki  Town","Latitude":"0.0143","Longitude":"37.07866"},"geometry":{"type":"Point","coordinates":[37.07866,0.0143]}},{"type":"Feature","properties":{"OBJECTID":"371","Facility_N":"Aphia Plus Marps Dic Nanyuki","Type":"Medical Clinic","Owner":"Non-Governmental Organizations","County":"Laikipia","Sub_County":"Laikipia East","Division":"Central","Location":"Manjengo","Sub_Locati":"Town","Constituen":"LAIKIPIA EAST","Nearest_To":"Nanyuki town","Latitude":"0.01413","Longitude":"37.0703"},"geometry":{"type":"Point","coordinates":[37.0703,0.01413]}},{"type":"Feature","properties":{"OBJECTID":"400","Facility_N":"Arjijo Dispensary","Type":"Dispensary","Owner":"Ministry of Health","County":"Laikipia","Sub_County":"Laikipia North","Division":"Mukogodo","Location":"Makurian","Sub_Locati":"Arjijo","Constituen":"LAIKIPIA EAST","Nearest_To":"Doldol","Latitude":"0.30935","Longitude":"37.24632"},"geometry":{"type":"Point","coordinates":[37.24632,0.30935]}},{"type":"Feature","properties":{"OBJECTID":"612","Facility_N":"Bennedict XVI Dispensary","Type":"Dispensary","Owner":"Kenya Episcopal Conference-Catholic Secretariat","County":"Laikipia","Sub_County":"Nyahururu","Division":"Municipality","Location":"Nyahururu","Sub_Locati":"Nyahururu","Constituen":"LAIKIPIA WEST","Nearest_To":"Nyahururu","Latitude":"-0.03948","Longitude":"36.33457"},"geometry":{"type":"Point","coordinates":[36.33457,-0.03948]}},{"type":"Feature","properties":{"OBJECTID":"738","Facility_N":"Borana Dispensary","Type":"Dispensary","Owner":"Private Enterprise (Institution)","County":"Laikipia","Sub_County":"Laikipia North","Division":"Mukogodo","Location":"Ilngwesi","Sub_Locati":"Ngarendare","Constituen":"LAIKIPIA EAST","Nearest_To":"Timau","Latitude":"0.22592","Longitude":"37.28184"},"geometry":{"type":"Point","coordinates":[37.28184,0.22592]}},{"type":"Feature","properties":{"OBJECTID":"893","Facility_N":"Carma Medical Clinic","Type":"Medical Clinic","Owner":"Private Practice - Nurse / Midwife","County":"Laikipia","Sub_County":"Laikipia East","Division":"Central","Location":"Majengo","Sub_Locati":"Town","Constituen":"LAIKIPIA EAST","Nearest_To":"Nanyuki Town","Latitude":"0.0101","Longitude":"37.803"},"geometry":{"type":"Point","coordinates":[37.803,0.0101]}},{"type":"Feature","properties":{"OBJECTID":"959","Facility_N":"Charity Medical Centre","Type":"Other Hospital","Owner":"Private Enterprise (Institution)","County":"Laikipia","Sub_County":"Nyahururu","Division":"Municipality","Location":"Nyahururu","Sub_Locati":"Nyahururu","Constituen":"LAIKIPIA WEST","Nearest_To":"Nyahururu","Latitude":"0.03023","Longitude":"36.35774"},"geometry":{"type":"Point","coordinates":[36.35774,0.03023]}},{"type":"Feature","properties":{"OBJECTID":"1190","Facility_N":"Chumvi Dispensary","Type":"Dispensary","Owner":"Other Faith Based","County":"Laikipia","Sub_County":"Laikipia East","Division":"Daiga","Location":"Ethi","Sub_Locati":"Ethi","Constituen":"LAIKIPIA EAST","Nearest_To":"Nanyuki","Latitude":"0.16869","Longitude":"37.2475"},"geometry":{"type":"Point","coordinates":[37.2475,0.16869]}},{"type":"Feature","properties":{"OBJECTID":"1404","Facility_N":"Doldol Sub District Hospital","Type":"Sub-District Hospital","Owner":"Ministry of Health","County":"Laikipia","Sub_County":"Laikipia North","Division":"Mukogodo","Location":"Kurikuri","Sub_Locati":"Kurikuri","Constituen":"LAIKIPIA EAST","Nearest_To":"Doldol","Latitude":"0.39166","Longitude":"37.16561"},"geometry":{"type":"Point","coordinates":[37.16561,0.39166]}},{"type":"Feature","properties":{"OBJECTID":"1447","Facility_N":"Dr Gacheru Clinic","Type":"Medical Clinic","Owner":"Private Practice - Unspecified","County":"Laikipia","Sub_County":"Laikipia East","Division":"Central","Location":"Nanyuki","Sub_Locati":"Majengo","Constituen":"LAIKIPIA EAST","Nearest_To":"Nanyuki","Latitude":"-0.001332","Longitude":"37.094"},"geometry":{"type":"Point","coordinates":[37.094,-0.001332]}},{"type":"Feature","properties":{"OBJECTID":"1473","Facility_N":"Dr Kanyiri Dental Clinic","Type":"Medical Clinic","Owner":"Private Practice - Unspecified","County":"Laikipia","Sub_County":"Laikipia East","Division":"Central","Location":"Nanyuki","Sub_Locati":"Majengo","Constituen":"LAIKIPIA EAST","Nearest_To":"Nanyuki","Latitude":"-0.001332","Longitude":"37.094"},"geometry":{"type":"Point","coordinates":[37.094,-0.001332]}},{"type":"Feature","properties":{"OBJECTID":"1510","Facility_N":"Dr Mbuthia Clinic","Type":"Medical Clinic","Owner":"Private Practice - Unspecified","County":"Laikipia","Sub_County":"Laikipia East","Division":"Central","Location":"Nanyuki","Sub_Locati":"Majengo","Constituen":"LAIKIPIA EAST","Nearest_To":"Nanyuki","Latitude":"0.01644","Longitude":"37.07632"},"geometry":{"type":"Point","coordinates":[37.07632,0.01644]}},{"type":"Feature","properties":{"OBJECTID":"1526","Facility_N":"Dr Muthiora Clinic","Type":"Medical Clinic","Owner":"Private Practice - Unspecified","County":"Laikipia","Sub_County":"Laikipia East","Division":"Central","Location":"Nanyuki","Sub_Locati":"Majengo","Constituen":"LAIKIPIA EAST","Nearest_To":"Nanyuki","Latitude":"-0.001332","Longitude":"37.094"},"geometry":{"type":"Point","coordinates":[37.094,-0.001332]}},{"type":"Feature","properties":{"OBJECTID":"1537","Facility_N":"Dr Ndanya Medical Clinic","Type":"Medical Clinic","Owner":"Private Enterprise (Institution)","County":"Laikipia","Sub_County":"Laikipia East","Division":"Central","Location":"Town","Sub_Locati":"Town","Constituen":"LAIKIPIA EAST","Nearest_To":"Within Nanyuki Town","Latitude":"0.01584","Longitude":"37.07833"},"geometry":{"type":"Point","coordinates":[37.07833,0.01584]}},{"type":"Feature","properties":{"OBJECTID":"1543","Facility_N":"Dr Njoroge Clinic","Type":"Medical Clinic","Owner":"Private Practice - Unspecified","County":"Laikipia","Sub_County":"Laikipia East","Division":"Central","Location":"Nanyuki","Sub_Locati":"Majengo","Constituen":"LAIKIPIA EAST","Nearest_To":"Nanyuki","Latitude":"0.01625","Longitude":"37.07563"},"geometry":{"type":"Point","coordinates":[37.07563,0.01625]}},{"type":"Feature","properties":{"OBJECTID":"1568","Facility_N":"Dr Somba Clinic","Type":"Medical Clinic","Owner":"Private Practice - Unspecified","County":"Laikipia","Sub_County":"Laikipia East","Division":"Central","Location":"Nanyuki","Sub_Locati":"Majengo","Constituen":"LAIKIPIA EAST","Nearest_To":"Nanyuki","Latitude":"-0.001332","Longitude":"37.094"},"geometry":{"type":"Point","coordinates":[37.094,-0.001332]}},{"type":"Feature","properties":{"OBJECTID":"1620","Facility_N":"East Laikipia Dispensary","Type":"Dispensary","Owner":"Ministry of Health","County":"Laikipia","Sub_County":"Laikipia East","Division":"Daiga","Location":"Ethi","Sub_Locati":"Ngenia","Constituen":"LAIKIPIA EAST","Nearest_To":"Timau","Latitude":"0.10678","Longitude":"37.21163"},"geometry":{"type":"Point","coordinates":[37.21163,0.10678]}},{"type":"Feature","properties":{"OBJECTID":"1878","Facility_N":"Ethi Dispensary","Type":"Dispensary","Owner":"Christian Health Association of Kenya","County":"Laikipia","Sub_County":"Laikipia East","Division":"Daiga","Location":"Daiga","Sub_Locati":"Ethi","Constituen":"LAIKIPIA EAST","Nearest_To":"Nanyuki","Latitude":"0.02148","Longitude":"37.07114"},"geometry":{"type":"Point","coordinates":[37.07114,0.02148]}},{"type":"Feature","properties":{"OBJECTID":"1889","Facility_N":"Ewaso Dispensary","Type":"Dispensary","Owner":"Ministry of Health","County":"Laikipia","Sub_County":"Laikipia North","Division":"Kirimon","Location":"Loiborsoit","Sub_Locati":"Ewaso","Constituen":"LAIKIPIA EAST","Nearest_To":"Ewaso","Latitude":"0.56029","Longitude":"36.90231"},"geometry":{"type":"Point","coordinates":[36.90231,0.56029]}},{"type":"Feature","properties":{"OBJECTID":"2094","Facility_N":"Gathanji Clinic","Type":"Medical Clinic","Owner":"Private Practice - Nurse / Midwife","County":"Laikipia","Sub_County":"Laikipia East","Division":"Central","Location":"Daiga","Sub_Locati":"Nyariginu","Constituen":"LAIKIPIA EAST","Nearest_To":"Gatheri","Latitude":"0.05483","Longitude":"37.1903"},"geometry":{"type":"Point","coordinates":[37.1903,0.05483]}},{"type":"Feature","properties":{"OBJECTID":"2259","Facility_N":"Githuci Dispesary","Type":"Dispensary","Owner":"Ministry of Health","County":"Laikipia","Sub_County":"Laikipia East","Division":"Daiga","Location":"Nyaringinu","Sub_Locati":"Mwireri","Constituen":"LAIKIPIA EAST","Nearest_To":"Mwireri","Latitude":"0.06227","Longitude":"37.12193"},"geometry":{"type":"Point","coordinates":[37.12193,0.06227]}},{"type":"Feature","properties":{"OBJECTID":"2299","Facility_N":"GK Prison Dispensary","Type":"Dispensary","Owner":"Ministry of Health","County":"Laikipia","Sub_County":"Nyahururu","Division":"Municipality","Location":"Nyahururu","Sub_Locati":"Nyahururu","Constituen":"LAIKIPIA WEST","Nearest_To":"Nyahururu","Latitude":"0.03212","Longitude":"36.42123"},"geometry":{"type":"Point","coordinates":[36.42123,0.03212]}},{"type":"Feature","properties":{"OBJECTID":"2327","Facility_N":"GK Prisons Dispensary (Laikipia East)","Type":"Dispensary","Owner":"Ministry of Health","County":"Laikipia","Sub_County":"Laikipia Central","Division":"Central","Location":"Nanyuki","Sub_Locati":"Majengo","Constituen":"LAIKIPIA EAST","Nearest_To":"Nanyuki","Latitude":"0.01278","Longitude":"37.02752"},"geometry":{"type":"Point","coordinates":[37.02752,0.01278]}},{"type":"Feature","properties":{"OBJECTID":"2361","Facility_N":"GOK Rumuruti Prisons Dispensary","Type":"Dispensary","Owner":"Ministry of Health","County":"Laikipia","Sub_County":"Laikipia West","Division":"Rumuruti","Location":"Rumuruti","Sub_Locati":"Township","Constituen":"LAIKIPIA WEST","Nearest_To":"Rumuruti Town","Latitude":"0.26702","Longitude":"36.54144"},"geometry":{"type":"Point","coordinates":[36.54144,0.26702]}},{"type":"Feature","properties":{"OBJECTID":"2374","Facility_N":"Good Hope Hospital","Type":"Other Hospital","Owner":"Private Enterprise (Institution)","County":"Laikipia","Sub_County":"Nyahururu","Division":"Municipality","Location":"Nyahururu","Sub_Locati":"Nyahururu","Constituen":"LAIKIPIA WEST","Nearest_To":"Nyahururu","Latitude":"0.03553","Longitude":"36.36618"},"geometry":{"type":"Point","coordinates":[36.36618,0.03553]}},{"type":"Feature","properties":{"OBJECTID":"2499","Facility_N":"Helna Medical Clinic","Type":"Medical Clinic","Owner":"Private Practice - Clinical Officer","County":"Laikipia","Sub_County":"Nyahururu","Division":"Nyahururu","Location":"Nyahururu","Sub_Locati":"Nyahururu","Constituen":"LAIKIPIA WEST","Nearest_To":"Nyahururu","Latitude":"0.03369","Longitude":"36.36389"},"geometry":{"type":"Point","coordinates":[36.36389,0.03369]}},{"type":"Feature","properties":{"OBJECTID":"2618","Facility_N":"Huruma Health Centre (Laikipia East)","Type":"Health Centre","Owner":"Kenya Episcopal Conference-Catholic Secretariat","County":"Laikipia","Sub_County":"Laikipia East","Division":"Central","Location":"Nanyuki","Sub_Locati":"Nanyuki","Constituen":"LAIKIPIA EAST","Nearest_To":"Nanyuki","Latitude":"0.00295","Longitude":"37.08995"},"geometry":{"type":"Point","coordinates":[37.08995,0.00295]}},{"type":"Feature","properties":{"OBJECTID":"2732","Facility_N":"Ilmotiok Dispensary","Type":"Dispensary","Owner":"Ministry of Health","County":"Laikipia","Sub_County":"Laikipia North","Division":"Kirimon","Location":"Loiborsoit","Sub_Locati":"Ilmotiok","Constituen":"LAIKIPIA EAST","Nearest_To":"Kimanjo","Latitude":"0.47444","Longitude":"37.01297"},"geometry":{"type":"Point","coordinates":[37.01297,0.47444]}},{"type":"Feature","properties":{"OBJECTID":"2734","Facility_N":"Ilpolei Dispensary","Type":"Dispensary","Owner":"Ministry of Health","County":"Laikipia","Sub_County":"Laikipia North","Division":"Ildigiri","Location":"Ilpolei","Sub_Locati":"Ilpolei","Constituen":"LAIKIPIA EAST","Nearest_To":"Ilpolei","Latitude":"0.35968","Longitude":"37.07226"},"geometry":{"type":"Point","coordinates":[37.07226,0.35968]}},{"type":"Feature","properties":{"OBJECTID":"3075","Facility_N":"Kabati Dispensary (Laikipia West)","Type":"Dispensary","Owner":"Ministry of Health","County":"Laikipia","Sub_County":"Laikipia West","Division":"Ngarua","Location":"Sipili","Sub_Locati":" ","Constituen":"LAIKIPIA WEST","Nearest_To":"Kabati town","Latitude":"0.46905","Longitude":"36.39072"},"geometry":{"type":"Point","coordinates":[36.39072,0.46905]}},{"type":"Feature","properties":{"OBJECTID":"3275","Facility_N":"Kalalu Dispensary","Type":"Dispensary","Owner":"Ministry of Health","County":"Laikipia","Sub_County":"Laikipia East","Division":"Daiga","Location":"Daiga","Sub_Locati":"Umande","Constituen":"LAIKIPIA EAST","Nearest_To":"Nanyuki","Latitude":"0.08227","Longitude":"37.16625"},"geometry":{"type":"Point","coordinates":[37.16625,0.08227]}},{"type":"Feature","properties":{"OBJECTID":"3503","Facility_N":"Kanyoni Dispensary","Type":"Dispensary","Owner":"Ministry of Health","County":"Laikipia","Sub_County":"Laikipia East","Division":"Central","Location":"Manjego","Sub_Locati":"Kanyoni","Constituen":"LAIKIPIA EAST","Nearest_To":"Nanyuki Town","Latitude":"0.031115","Longitude":"37.11638"},"geometry":{"type":"Point","coordinates":[37.11638,0.031115]}},{"type":"Feature","properties":{"OBJECTID":"3694","Facility_N":"Karaba Dispensary (Laikipia West)","Type":"Dispensary","Owner":"Ministry of Health","County":"Laikipia","Sub_County":"Laikipia West","Division":"Rumuruti","Location":"Muhotetu","Sub_Locati":"Karaba","Constituen":"LAIKIPIA WEST","Nearest_To":"Muhotetu","Latitude":"0.32703","Longitude":"36.37916"},"geometry":{"type":"Point","coordinates":[36.37916,0.32703]}},{"type":"Feature","properties":{"OBJECTID":"4091","Facility_N":"KHE Farm Dispensary","Type":"Dispensary","Owner":"Private Enterprise (Institution)","County":"Laikipia","Sub_County":"Laikipia East","Division":"Naibor","Location":"Umande","Sub_Locati":"Muramati","Constituen":"LAIKIPIA EAST","Nearest_To":"Naibor","Latitude":"0.12097","Longitude":"37.05427"},"geometry":{"type":"Point","coordinates":[37.05427,0.12097]}},{"type":"Feature","properties":{"OBJECTID":"4283","Facility_N":"Kihato Dispensary","Type":"Dispensary","Owner":"Other Public Institution","County":"Laikipia","Sub_County":"Laikipia Central","Division":"Lamuria","Location":"Lamuria","Sub_Locati":"Lamuria","Constituen":"LAIKIPIA EAST","Nearest_To":"Naromoru","Latitude":"-0.14404","Longitude":"36.97967"},"geometry":{"type":"Point","coordinates":[36.97967,-0.14404]}},{"type":"Feature","properties":{"OBJECTID":"4371","Facility_N":"Kimanjo Dispensary","Type":"Dispensary","Owner":"Ministry of Health","County":"Laikipia","Sub_County":"Laikipia North","Division":"Ildigiri","Location":"Tura","Sub_Locati":"Kimanjo","Constituen":"LAIKIPIA EAST","Nearest_To":"Kimanjo","Latitude":"0.47444","Longitude":"37.01297"},"geometry":{"type":"Point","coordinates":[37.01297,0.47444]}},{"type":"Feature","properties":{"OBJECTID":"4595","Facility_N":"Kiruri Dispensary (Laikipia West)","Type":"Dispensary","Owner":"Ministry of Health","County":"Laikipia","Sub_County":"Laikipia West","Division":"Rumuruti","Location":"Mutara","Sub_Locati":"Mutara","Constituen":"LAIKIPIA WEST","Nearest_To":"Rumuruti Town","Latitude":"0.01519","Longitude":"36.62407"},"geometry":{"type":"Point","coordinates":[36.62407,0.01519]}},{"type":"Feature","properties":{"OBJECTID":"4832","Facility_N":"Kongoni Dispensary","Type":"Dispensary","Owner":"Private Enterprise (Institution)","County":"Laikipia","Sub_County":"Laikipia East","Division":"Central","Location":"Nanyuki","Sub_Locati":"Nanyuki","Constituen":"LAIKIPIA EAST","Nearest_To":"Nanyuki","Latitude":"0.08227","Longitude":"37.16625"},"geometry":{"type":"Point","coordinates":[37.16625,0.08227]}},{"type":"Feature","properties":{"OBJECTID":"4903","Facility_N":"Kurum Dispensary","Type":"Dispensary","Owner":"Ministry of Health","County":"Laikipia","Sub_County":"Laikipia North","Division":"Mukogodo","Location":"Mumonyot","Sub_Locati":"Soitoudo","Constituen":"LAIKIPIA EAST","Nearest_To":"Doldol","Latitude":"0.39168","Longitude":"37.16563"},"geometry":{"type":"Point","coordinates":[37.16563,0.39168]}},{"type":"Feature","properties":{"OBJECTID":"5006","Facility_N":"Laikipia county Beyond Zero mobile clinic","Type":"Medical Clinic","Owner":"Ministry of Health","County":"Laikipia","Sub_County":"Laikipia East","Division":"Central","Location":"Majengo","Sub_Locati":"Town","Constituen":"LAIKIPIA EAST","Nearest_To":"Nanyuki Town","Latitude":"0.02121","Longitude":"37.071"},"geometry":{"type":"Point","coordinates":[37.071,0.02121]}},{"type":"Feature","properties":{"OBJECTID":"5007","Facility_N":"Laikipia University Medical Centre","Type":"Medical Centre","Owner":"Other Public Institution","County":"Laikipia","Sub_County":"Nyahururu","Division":"Nyahururu","Location":"Igwamiti","Sub_Locati":"Igwamiti","Constituen":"LAIKIPIA WEST","Nearest_To":"Karuga","Latitude":"0.02832","Longitude":"36.2733"},"geometry":{"type":"Point","coordinates":[36.2733,0.02832]}},{"type":"Feature","properties":{"OBJECTID":"5026","Facility_N":"Lamuria Dispensary (Laikipia East)","Type":"Dispensary","Owner":"Ministry of Health","County":"Laikipia","Sub_County":"Laikipia Central","Division":"Lamuria","Location":"Lamuria","Sub_Locati":"Lamuria","Constituen":"LAIKIPIA EAST","Nearest_To":"Lamuria","Latitude":"-0.13434","Longitude":"36.86165"},"geometry":{"type":"Point","coordinates":[36.86165,-0.13434]}},{"type":"Feature","properties":{"OBJECTID":"5127","Facility_N":"Likii Dispensary","Type":"Dispensary","Owner":"Other Public Institution","County":"Laikipia","Sub_County":"Laikipia East","Division":"Central","Location":"Nturukuma","Sub_Locati":"Likii","Constituen":"LAIKIPIA EAST","Nearest_To":"Nanyuki","Latitude":"0.02416","Longitude":"37.07758"},"geometry":{"type":"Point","coordinates":[37.07758,0.02416]}},{"type":"Feature","properties":{"OBJECTID":"5128","Facility_N":"Likii VCT","Type":"VCT Centre (Stand-Alone)","Owner":"Private Enterprise (Institution)","County":"Laikipia","Sub_County":"Laikipia East","Division":"Central","Location":"Ntrukuma","Sub_Locati":"Likii","Constituen":"LAIKIPIA EAST","Nearest_To":"Nanyuki","Latitude":"0.02416","Longitude":"37.07758"},"geometry":{"type":"Point","coordinates":[37.07758,0.02416]}},{"type":"Feature","properties":{"OBJECTID":"5169","Facility_N":"Location Medical Clinic","Type":"Medical Clinic","Owner":"Private Practice - Nurse / Midwife","County":"Laikipia","Sub_County":"Laikipia West","Division":"Rumuruti","Location":"Rumuruti","Sub_Locati":"Rumuruti Town","Constituen":"LAIKIPIA WEST","Nearest_To":"Near Water Tank","Latitude":"0.26491","Longitude":"36.53696"},"geometry":{"type":"Point","coordinates":[36.53696,0.26491]}},{"type":"Feature","properties":{"OBJECTID":"5203","Facility_N":"Lokusero Dispensary","Type":"Dispensary","Owner":"Ministry of Health","County":"Laikipia","Sub_County":"Laikipia North","Division":"Mukogodo","Location":"Ilngwesi","Sub_Locati":"Sangaa","Constituen":"LAIKIPIA EAST","Nearest_To":"Nandungoro","Latitude":"0.30832","Longitude":"37.29749"},"geometry":{"type":"Point","coordinates":[37.29749,0.30832]}},{"type":"Feature","properties":{"OBJECTID":"5244","Facility_N":"Lorien Dispensary","Type":"Dispensary","Owner":"Ministry of Health","County":"Laikipia","Sub_County":"Laikipia West","Division":"Rumuruti","Location":"Salama","Sub_Locati":"Lorien","Constituen":"LAIKIPIA WEST","Nearest_To":"Rumuruti Town","Latitude":"0.19176","Longitude":"36.48778"},"geometry":{"type":"Point","coordinates":[36.48778,0.19176]}},{"type":"Feature","properties":{"OBJECTID":"5254","Facility_N":"Losogwa Dispensary","Type":"Dispensary","Owner":"Ministry of Health","County":"Laikipia","Sub_County":"Nyahururu","Division":"Nyahururu","Location":"Igwamiti","Sub_Locati":"Losogwa","Constituen":"LAIKIPIA WEST","Nearest_To":"Nyahururu Town","Latitude":"0.04376","Longitude":"36.29938"},"geometry":{"type":"Point","coordinates":[36.29938,0.04376]}},{"type":"Feature","properties":{"OBJECTID":"5302","Facility_N":"Luoniek Dispensary","Type":"Dispensary","Owner":"Ministry of Health","County":"Laikipia","Sub_County":"Laikipia West","Division":"Olmoran","Location":"Olmoran","Sub_Locati":"Olmoran","Constituen":"LAIKIPIA WEST","Nearest_To":"Olmoran Centre","Latitude":"0.7146","Longitude":"36.54421"},"geometry":{"type":"Point","coordinates":[36.54421,0.7146]}},{"type":"Feature","properties":{"OBJECTID":"5405","Facility_N":"Mahianyu Dispensary","Type":"Dispensary","Owner":"Ministry of Health","County":"Laikipia","Sub_County":"Nyahururu","Division":"Nyahururu","Location":"Mutitu","Sub_Locati":"Ngoru","Constituen":"LAIKIPIA WEST","Nearest_To":"Maihianyu","Latitude":"0.09116","Longitude":"36.42505"},"geometry":{"type":"Point","coordinates":[36.42505,0.09116]}},{"type":"Feature","properties":{"OBJECTID":"5421","Facility_N":"Maina Village Dispensary","Type":"Dispensary","Owner":"Ministry of Health","County":"Laikipia","Sub_County":"Nyahururu","Division":"Nyahururu","Location":"Nyahururu","Sub_Locati":"Maina","Constituen":"LAIKIPIA WEST","Nearest_To":"Nyahururu","Latitude":"0.06065","Longitude":"36.35762"},"geometry":{"type":"Point","coordinates":[36.35762,0.06065]}},{"type":"Feature","properties":{"OBJECTID":"5709","Facility_N":"Marura Dispensary","Type":"Dispensary","Owner":"Ministry of Health","County":"Laikipia","Sub_County":"Laikipia Central","Division":"Central","Location":"Marura","Sub_Locati":"Marura","Constituen":"LAIKIPIA EAST","Nearest_To":"Nanyuki","Latitude":"-0.00452","Longitude":"36.94614"},"geometry":{"type":"Point","coordinates":[36.94614,-0.00452]}},{"type":"Feature","properties":{"OBJECTID":"5719","Facility_N":"Mary Hill Medical Clinic","Type":"Medical Clinic","Owner":"Private Practice - Clinical Officer","County":"Laikipia","Sub_County":"Nyahururu","Division":"Municipality","Location":"Nyahururu","Sub_Locati":"Nyahururu","Constituen":"LAIKIPIA WEST","Nearest_To":"Nyahururu","Latitude":"0.03854","Longitude":"36.36336"},"geometry":{"type":"Point","coordinates":[36.36336,0.03854]}},{"type":"Feature","properties":{"OBJECTID":"5723","Facility_N":"Mary Immaculate Dispensary (Laikipia East)","Type":"Dispensary","Owner":"Kenya Episcopal Conference-Catholic Secretariat","County":"Laikipia","Sub_County":"Laikipia East","Division":"Central","Location":"Nturukuma","Sub_Locati":"Likii","Constituen":"LAIKIPIA EAST","Nearest_To":"Nanyuki","Latitude":"0.01976","Longitude":"37.08418"},"geometry":{"type":"Point","coordinates":[37.08418,0.01976]}},{"type":"Feature","properties":{"OBJECTID":"5779","Facility_N":"Matanya Dispensary","Type":"Dispensary","Owner":"Ministry of Health","County":"Laikipia","Sub_County":"Laikipia Central","Division":"Lamuria","Location":"Tigithi","Sub_Locati":"Matanya","Constituen":"LAIKIPIA EAST","Nearest_To":"Nanyuki","Latitude":"-0.05046","Longitude":"36.9402"},"geometry":{"type":"Point","coordinates":[36.9402,-0.05046]}},{"type":"Feature","properties":{"OBJECTID":"5998","Facility_N":"Melwa Health Centre","Type":"Health Centre","Owner":"Ministry of Health","County":"Laikipia","Sub_County":"Laikipia West","Division":"Rumuruti","Location":"Marmanet","Sub_Locati":"Melwa","Constituen":"LAIKIPIA WEST","Nearest_To":"Gatundia","Latitude":"0.23419","Longitude":"36.43895"},"geometry":{"type":"Point","coordinates":[36.43895,0.23419]}},{"type":"Feature","properties":{"OBJECTID":"6165","Facility_N":"Minjore Dispensary","Type":"Dispensary","Owner":"Ministry of Health","County":"Laikipia","Sub_County":"Laikipia West","Division":"Olmoran","Location":"Olmoran","Sub_Locati":"Minjore","Constituen":"LAIKIPIA WEST","Nearest_To":"Olmoran Centre","Latitude":"0.43966","Longitude":"36.4569"},"geometry":{"type":"Point","coordinates":[36.4569,0.43966]}},{"type":"Feature","properties":{"OBJECTID":"6366","Facility_N":"Mpala Mobile Clinic","Type":"Health Programme","Owner":"Non-Governmental Organizations","County":"Laikipia","Sub_County":"Laikipia West","Division":"Rumuruti","Location":"Rumuruti","Sub_Locati":"Rumuuruti","Constituen":"LAIKIPIA WEST","Nearest_To":"Rumuruti Town","Latitude":"0.26621","Longitude":"36.54003"},"geometry":{"type":"Point","coordinates":[36.54003,0.26621]}},{"type":"Feature","properties":{"OBJECTID":"6367","Facility_N":"Mpalla Dispensary","Type":"Dispensary","Owner":"Private Enterprise (Institution)","County":"Laikipia","Sub_County":"Laikipia North","Division":"Kirimon","Location":"Loiborsoit","Sub_Locati":"Ilmotiok","Constituen":"LAIKIPIA EAST","Nearest_To":"Ewaso","Latitude":"0.32399","Longitude":"36.90438"},"geometry":{"type":"Point","coordinates":[36.90438,0.32399]}},{"type":"Feature","properties":{"OBJECTID":"6476","Facility_N":"Muhotetu Dispensary","Type":"Dispensary","Owner":"Ministry of Health","County":"Laikipia","Sub_County":"Laikipia West","Division":"Ngarua","Location":"Muhotetu","Sub_Locati":"Muhotetu","Constituen":"LAIKIPIA WEST","Nearest_To":"Muhotetu","Latitude":"0.2859","Longitude":"36.3553"},"geometry":{"type":"Point","coordinates":[36.3553,0.2859]}},{"type":"Feature","properties":{"OBJECTID":"6592","Facility_N":"Muramati Dispensary","Type":"Dispensary","Owner":"Ministry of Health","County":"Laikipia","Sub_County":"Laikipia East","Division":"Daiga","Location":"Daiga","Sub_Locati":"Umande","Constituen":"LAIKIPIA EAST","Nearest_To":"Nanyuki","Latitude":"0.06971","Longitude":"37.15996"},"geometry":{"type":"Point","coordinates":[37.15996,0.06971]}},{"type":"Feature","properties":{"OBJECTID":"6621","Facility_N":"Muruku Dispensary","Type":"Dispensary","Owner":"Ministry of Health","County":"Laikipia","Sub_County":"Nyahururu","Division":"Rumuruti","Location":"Salama","Sub_Locati":"Muruku","Constituen":"LAIKIPIA WEST","Nearest_To":"Muruku","Latitude":"0.08846","Longitude":"36.54325"},"geometry":{"type":"Point","coordinates":[36.54325,0.08846]}},{"type":"Feature","properties":{"OBJECTID":"6647","Facility_N":"Mutara Dispensary","Type":"Dispensary","Owner":"Ministry of Health","County":"Laikipia","Sub_County":"Laikipia West","Division":"Rumuruti","Location":"Mutara","Sub_Locati":"Mutara","Constituen":"LAIKIPIA WEST","Nearest_To":"Rumuruti Town","Latitude":"0.08959","Longitude":"36.65773"},"geometry":{"type":"Point","coordinates":[36.65773,0.08959]}},{"type":"Feature","properties":{"OBJECTID":"6669","Facility_N":"Muthegera Dispensary","Type":"Dispensary","Owner":"Ministry of Health","County":"Laikipia","Sub_County":"Nyahururu","Division":"Rumuruti","Location":"Muthengera","Sub_Locati":"Muthengera","Constituen":"LAIKIPIA WEST","Nearest_To":"Muthengera Town","Latitude":"0.21304","Longitude":"36.32398"},"geometry":{"type":"Point","coordinates":[36.32398,0.21304]}},{"type":"Feature","properties":{"OBJECTID":"6810","Facility_N":"Mwenje Dispensary","Type":"Dispensary","Owner":"Ministry of Health","County":"Laikipia","Sub_County":"Nyahururu","Division":"Ngarua","Location":"Kinamba","Sub_Locati":"Mwenje","Constituen":"LAIKIPIA WEST","Nearest_To":"Kinamba","Latitude":"0.44229","Longitude":"36.29176"},"geometry":{"type":"Point","coordinates":[36.29176,0.44229]}},{"type":"Feature","properties":{"OBJECTID":"6829","Facility_N":"Mwituria Dispensary","Type":"Dispensary","Owner":"Ministry of Health","County":"Laikipia","Sub_County":"Laikipia Central","Division":"Lamuria","Location":"Withare","Sub_Locati":"Withare","Constituen":"LAIKIPIA EAST","Nearest_To":"Nyahururu","Latitude":"0.03204","Longitude":"36.72502"},"geometry":{"type":"Point","coordinates":[36.72502,0.03204]}},{"type":"Feature","properties":{"OBJECTID":"6857","Facility_N":"Naibor Dispensary","Type":"Dispensary","Owner":"Ministry of Health","County":"Laikipia","Sub_County":"Laikipia East","Division":"Daiga","Location":"segera","Sub_Locati":"Naibor","Constituen":"LAIKIPIA EAST","Nearest_To":"Naibor centre","Latitude":"0.16548","Longitude":"37.02107"},"geometry":{"type":"Point","coordinates":[37.02107,0.16548]}},{"type":"Feature","properties":{"OBJECTID":"6957","Facility_N":"Nanyuki Cottage Hospital","Type":"Other Hospital","Owner":"Private Enterprise (Institution)","County":"Laikipia","Sub_County":"Laikipia East","Division":"Central","Location":"Nanyuki","Sub_Locati":"Manjengo","Constituen":"LAIKIPIA EAST","Nearest_To":"Nanyuki","Latitude":"-0.001332","Longitude":"37.094"},"geometry":{"type":"Point","coordinates":[37.094,-0.001332]}},{"type":"Feature","properties":{"OBJECTID":"6958","Facility_N":"Nanyuki District Hospital","Type":"District Hospital","Owner":"Ministry of Health","County":"Laikipia","Sub_County":"Laikipia East","Division":"Central","Location":"Nanyuki","Sub_Locati":"Thingithu","Constituen":"LAIKIPIA EAST","Nearest_To":"Nanyuki","Latitude":"0.0212","Longitude":"37.07181"},"geometry":{"type":"Point","coordinates":[37.07181,0.0212]}},{"type":"Feature","properties":{"OBJECTID":"7052","Facility_N":"Ndindika Health Centre","Type":"Health Centre","Owner":"Ministry of Health","County":"Laikipia","Sub_County":"Nyahururu","Division":"Ngarua","Location":"Kinamba","Sub_Locati":"Muthiga","Constituen":"LAIKIPIA WEST","Nearest_To":"Kinamba","Latitude":"0.41551","Longitude":"36.31975"},"geometry":{"type":"Point","coordinates":[36.31975,0.41551]}},{"type":"Feature","properties":{"OBJECTID":"7089","Facility_N":"Ndurumo Dispensary","Type":"Dispensary","Owner":"Ministry of Health","County":"Laikipia","Sub_County":"Laikipia West","Division":"Rumuruti","Location":"Rumuruti","Sub_Locati":"Ndurumo","Constituen":"LAIKIPIA WEST","Nearest_To":"Kinamba","Latitude":"0.37358","Longitude":"36.4227"},"geometry":{"type":"Point","coordinates":[36.4227,0.37358]}},{"type":"Feature","properties":{"OBJECTID":"7185","Facility_N":"Ngarua Catholic Dispensary","Type":"Dispensary","Owner":"Kenya Episcopal Conference-Catholic Secretariat","County":"Laikipia","Sub_County":"Nyahururu","Division":"Ngarua","Location":"Kinamba","Sub_Locati":"Gituamba","Constituen":"LAIKIPIA WEST","Nearest_To":"Kinamba","Latitude":"0.4115","Longitude":"36.3196"},"geometry":{"type":"Point","coordinates":[36.3196,0.4115]}},{"type":"Feature","properties":{"OBJECTID":"7186","Facility_N":"Ngarua Health Centre","Type":"Health Centre","Owner":"Ministry of Health","County":"Laikipia","Sub_County":"Nyahururu","Division":"Ngarua","Location":"Kinamba","Sub_Locati":"Gituamba","Constituen":"LAIKIPIA WEST","Nearest_To":"Karandi Town","Latitude":"0.27811","Longitude":"36.31641"},"geometry":{"type":"Point","coordinates":[36.31641,0.27811]}},{"type":"Feature","properties":{"OBJECTID":"7207","Facility_N":"Ngenia Dispensary","Type":"Dispensary","Owner":"Ministry of Health","County":"Laikipia","Sub_County":"Laikipia East","Division":"Daiga","Location":" ","Sub_Locati":" ","Constituen":"LAIKIPIA EAST","Nearest_To":"Nanyuki  Town","Latitude":"0.06629","Longitude":"37.20187"},"geometry":{"type":"Point","coordinates":[37.20187,0.06629]}},{"type":"Feature","properties":{"OBJECTID":"7236","Facility_N":"Ngobit Dispensary","Type":"Dispensary","Owner":"Ministry of Health","County":"Laikipia","Sub_County":"Laikipia Central","Division":"Lamuria","Location":"Ngobit","Sub_Locati":"Ngobit","Constituen":"LAIKIPIA EAST","Nearest_To":"Nyahururu","Latitude":"-0.08813","Longitude":"36.57541"},"geometry":{"type":"Point","coordinates":[36.57541,-0.08813]}},{"type":"Feature","properties":{"OBJECTID":"7385","Facility_N":"Nturukuma Dispensary","Type":"Dispensary","Owner":"Ministry of Health","County":"Laikipia","Sub_County":"Laikipia East","Division":"Central","Location":"Nturukuma","Sub_Locati":"Nturukuma","Constituen":"LAIKIPIA EAST","Nearest_To":"Nanyuki","Latitude":"0.04384","Longitude":"37.09034"},"geometry":{"type":"Point","coordinates":[37.09034,0.04384]}},{"type":"Feature","properties":{"OBJECTID":"7433","Facility_N":"Nyahururu Catholic Dispensary","Type":"Dispensary","Owner":"Kenya Episcopal Conference-Catholic Secretariat","County":"Laikipia","Sub_County":"Nyahururu","Division":"Municipality","Location":"Nyahururu","Sub_Locati":"Nyahururu","Constituen":"LAIKIPIA WEST","Nearest_To":"Nyahururu","Latitude":"-0.04164","Longitude":"36.36211"},"geometry":{"type":"Point","coordinates":[36.36211,-0.04164]}},{"type":"Feature","properties":{"OBJECTID":"7434","Facility_N":"Nyahururu District Hospital","Type":"District Hospital","Owner":"Ministry of Health","County":"Laikipia","Sub_County":"Nyahururu","Division":"Nyahururu","Location":"Municipality","Sub_Locati":"Nyahururu","Constituen":"LAIKIPIA WEST","Nearest_To":"Nyahururu","Latitude":"0.03783","Longitude":"36.36194"},"geometry":{"type":"Point","coordinates":[36.36194,0.03783]}},{"type":"Feature","properties":{"OBJECTID":"7435","Facility_N":"Nyahururu Private Hospital","Type":"Other Hospital","Owner":"Private Enterprise (Institution)","County":"Laikipia","Sub_County":"Nyahururu","Division":"Nyahururu","Location":"Municipality","Sub_Locati":"Nyahururu","Constituen":"LAIKIPIA WEST","Nearest_To":"Nyahururu","Latitude":"-0.02929","Longitude":"36.36546"},"geometry":{"type":"Point","coordinates":[36.36546,-0.02929]}},{"type":"Feature","properties":{"OBJECTID":"7680","Facility_N":"Ol Jabet Medical Clinic","Type":"Medical Clinic","Owner":"Private Practice - Clinical Officer","County":"Laikipia","Sub_County":"Nyahururu","Division":"Nyahururu","Location":"Nyahururu","Sub_Locati":"Nyahururu","Constituen":"LAIKIPIA WEST","Nearest_To":"Nyahururu","Latitude":"-0.03713","Longitude":"36.36121"},"geometry":{"type":"Point","coordinates":[36.36121,-0.03713]}},{"type":"Feature","properties":{"OBJECTID":"7722","Facility_N":"Oljabet Health Centre","Type":"Health Centre","Owner":"Ministry of Health","County":"Laikipia","Sub_County":"Nyahururu","Division":"Rumuruti","Location":"Marmanet","Sub_Locati":"Oljabet","Constituen":"LAIKIPIA WEST","Nearest_To":"Marmanet","Latitude":"0.17297","Longitude":"36.37788"},"geometry":{"type":"Point","coordinates":[36.37788,0.17297]}},{"type":"Feature","properties":{"OBJECTID":"7723","Facility_N":"Oljabet Medical Clinic","Type":"Nursing Home","Owner":"Private Practice - Clinical Officer","County":"Laikipia","Sub_County":"Nyahururu","Division":"Rumuruti","Location":"Marmanet","Sub_Locati":"Oljabet","Constituen":"LAIKIPIA WEST","Nearest_To":"Oljabet","Latitude":"0.17519","Longitude":"36.37817"},"geometry":{"type":"Point","coordinates":[36.37817,0.17519]}},{"type":"Feature","properties":{"OBJECTID":"7724","Facility_N":"Oljogi Dispensary","Type":"Dispensary","Owner":"Private Enterprise (Institution)","County":"Laikipia","Sub_County":"Laikipia North","Division":"Mukogodo","Location":"Ilpolei","Sub_Locati":"Ilpolei","Constituen":"LAIKIPIA EAST","Nearest_To":"Ilpolei","Latitude":"0.27961","Longitude":"36.94219"},"geometry":{"type":"Point","coordinates":[36.94219,0.27961]}},{"type":"Feature","properties":{"OBJECTID":"7741","Facility_N":"Olmoran Catholic Dispensary","Type":"Dispensary","Owner":"Kenya Episcopal Conference-Catholic Secretariat","County":"Laikipia","Sub_County":"Laikipia West","Division":"Olmoran","Location":"Olmoran","Sub_Locati":"Olmoran","Constituen":"LAIKIPIA WEST","Nearest_To":"Olmoran Centre","Latitude":"0.53615","Longitude":"36.49258"},"geometry":{"type":"Point","coordinates":[36.49258,0.53615]}},{"type":"Feature","properties":{"OBJECTID":"7742","Facility_N":"Olmoran Health Centre","Type":"Health Centre","Owner":"Ministry of Health","County":"Laikipia","Sub_County":"Laikipia West","Division":"Olmoran","Location":"Olmoran","Sub_Locati":"Olmoran","Constituen":"LAIKIPIA WEST","Nearest_To":"Olmoran Centre","Latitude":"0.53766","Longitude":"36.49132"},"geometry":{"type":"Point","coordinates":[36.49132,0.53766]}},{"type":"Feature","properties":{"OBJECTID":"7765","Facility_N":"Olpajeta Dispensary","Type":"Dispensary","Owner":"Ministry of Health","County":"Laikipia","Sub_County":"Laikipia Central","Division":"Lamuria","Location":"Lamuria","Sub_Locati":"Lamuria","Constituen":"LAIKIPIA EAST","Nearest_To":"Nanyuki","Latitude":"0.06207","Longitude":"36.81183"},"geometry":{"type":"Point","coordinates":[36.81183,0.06207]}},{"type":"Feature","properties":{"OBJECTID":"7970","Facility_N":"Pesi Dispensary (Laikipia West)","Type":"Dispensary","Owner":"Ministry of Health","County":"Laikipia","Sub_County":"Nyahururu","Division":"Rumuruti","Location":"Salama","Sub_Locati":"Pesi","Constituen":"LAIKIPIA WEST","Nearest_To":"Pesi Centre","Latitude":"0.08596","Longitude":"36.57845"},"geometry":{"type":"Point","coordinates":[36.57845,0.08596]}},{"type":"Feature","properties":{"OBJECTID":"8372","Facility_N":"Rumuruti Catholic Dispensary","Type":"Dispensary","Owner":"Kenya Episcopal Conference-Catholic Secretariat","County":"Laikipia","Sub_County":"Laikipia West","Division":"Rumuruti","Location":"Rumuruti","Sub_Locati":"Township","Constituen":"LAIKIPIA WEST","Nearest_To":"Rumuruti Town","Latitude":"0.2686","Longitude":"36.54161"},"geometry":{"type":"Point","coordinates":[36.54161,0.2686]}},{"type":"Feature","properties":{"OBJECTID":"8373","Facility_N":"Rumuruti District Hospital","Type":"District Hospital","Owner":"Ministry of Health","County":"Laikipia","Sub_County":"Laikipia West","Division":"Rumuruti","Location":"Rumuruti","Sub_Locati":"Township","Constituen":"LAIKIPIA WEST","Nearest_To":"Rumuruti Town","Latitude":"0.27151","Longitude":"36.53315"},"geometry":{"type":"Point","coordinates":[36.53315,0.27151]}},{"type":"Feature","properties":{"OBJECTID":"8458","Facility_N":"Salama Health Centre (Laikipia West)","Type":"Dispensary","Owner":"Ministry of Health","County":"Laikipia","Sub_County":"Nyahururu","Division":"Rumuruti","Location":"Salama","Sub_Locati":"Salama","Constituen":"LAIKIPIA WEST","Nearest_To":"Salama Centre","Latitude":"0.12182","Longitude":"36.49105"},"geometry":{"type":"Point","coordinates":[36.49105,0.12182]}},{"type":"Feature","properties":{"OBJECTID":"8554","Facility_N":"Segera Mission Dispensary","Type":"Dispensary","Owner":"Christian Health Association of Kenya","County":"Laikipia","Sub_County":"Laikipia East","Division":"Central","Location":"Segera","Sub_Locati":"Segera","Constituen":"LAIKIPIA EAST","Nearest_To":"Nanyuki","Latitude":"0.15182","Longitude":"36.88787"},"geometry":{"type":"Point","coordinates":[36.88787,0.15182]}},{"type":"Feature","properties":{"OBJECTID":"8607","Facility_N":"Shallom Dispensary","Type":"Dispensary","Owner":"Ministry of Health","County":"Laikipia","Sub_County":"Laikipia Central","Division":"Munyaka","Location":" ","Sub_Locati":" ","Constituen":"LAIKIPIA EAST","Nearest_To":"Winyumiririe","Latitude":"-0.04865","Longitude":"36.65074"},"geometry":{"type":"Point","coordinates":[36.65074,-0.04865]}},{"type":"Feature","properties":{"OBJECTID":"8775","Facility_N":"Sipili Catholic Dispensary","Type":"Dispensary","Owner":"Kenya Episcopal Conference-Catholic Secretariat","County":"Laikipia","Sub_County":"Laikipia West","Division":"Ngarua","Location":"Sipili","Sub_Locati":"Donyo Loip","Constituen":"LAIKIPIA WEST","Nearest_To":"Sipili Town","Latitude":"0.40978","Longitude":"36.3737"},"geometry":{"type":"Point","coordinates":[36.3737,0.40978]}},{"type":"Feature","properties":{"OBJECTID":"8776","Facility_N":"Sipili Health Centre","Type":"Health Centre","Owner":"Ministry of Health","County":"Laikipia","Sub_County":"Laikipia West","Division":"Ngarua","Location":"Sipili","Sub_Locati":"Donyo Loip","Constituen":"LAIKIPIA WEST","Nearest_To":"Sipili Town","Latitude":"0.40426","Longitude":"36.3797"},"geometry":{"type":"Point","coordinates":[36.3797,0.40426]}},{"type":"Feature","properties":{"OBJECTID":"8777","Facility_N":"Sipili Maternity and Nursing Home","Type":"Medical Clinic","Owner":"Private Practice - Nurse / Midwife","County":"Laikipia","Sub_County":"Laikipia West","Division":"Sipili","Location":"Sipili","Sub_Locati":"Dimcom","Constituen":"LAIKIPIA WEST","Nearest_To":"Sipili","Latitude":"0.40737","Longitude":"36.37903"},"geometry":{"type":"Point","coordinates":[36.37903,0.40737]}},{"type":"Feature","properties":{"OBJECTID":"8866","Facility_N":"Sosian Dispensary","Type":"Dispensary","Owner":"Ministry of Health","County":"Laikipia","Sub_County":"Laikipia West","Division":"Rumuruti","Location":"Sosian","Sub_Locati":"Sosian","Constituen":"LAIKIPIA WEST","Nearest_To":"Kinamba ( Sosian)","Latitude":"0.43175","Longitude":"36.68142"},"geometry":{"type":"Point","coordinates":[36.68142,0.43175]}},{"type":"Feature","properties":{"OBJECTID":"9020","Facility_N":"St John Medical Surgical Centre","Type":"Medical Clinic","Owner":"Private Practice - Nurse / Midwife","County":"Laikipia","Sub_County":"Laikipia West","Division":"Sipili","Location":"Dimcom","Sub_Locati":"Dimcom","Constituen":"LAIKIPIA WEST","Nearest_To":"Sipili town","Latitude":"0.40689","Longitude":"36.37735"},"geometry":{"type":"Point","coordinates":[36.37735,0.40689]}},{"type":"Feature","properties":{"OBJECTID":"9021","Facility_N":"St John Ndururumo Medical Clinic","Type":"Medical Clinic","Owner":"Private Practice - Clinical Officer","County":"Laikipia","Sub_County":"Nyahururu","Division":"Municipality","Location":"Nyahururu","Sub_Locati":"Nyahururu","Constituen":"LAIKIPIA WEST","Nearest_To":"Nyahururu","Latitude":"0.03369","Longitude":"36.36389"},"geometry":{"type":"Point","coordinates":[36.36389,0.03369]}},{"type":"Feature","properties":{"OBJECTID":"9038","Facility_N":"St Joseph Catholic Dispensary (Laikipia East)","Type":"Dispensary","Owner":"Kenya Episcopal Conference-Catholic Secretariat","County":"Laikipia","Sub_County":"Laikipia Central","Division":"Lamuria","Location":"Sirima","Sub_Locati":"Withare","Constituen":"LAIKIPIA EAST","Nearest_To":"Lamuria","Latitude":"-0.06497","Longitude":"36.79982"},"geometry":{"type":"Point","coordinates":[36.79982,-0.06497]}},{"type":"Feature","properties":{"OBJECTID":"9358","Facility_N":"Survey Dispensary","Type":"Dispensary","Owner":"Ministry of Health","County":"Laikipia","Sub_County":"Laikipia West","Division":"Olmoran","Location":"Magadi","Sub_Locati":"Survey","Constituen":"LAIKIPIA WEST","Nearest_To":"Survey  Centre","Latitude":"0.58255","Longitude":"36.55362"},"geometry":{"type":"Point","coordinates":[36.55362,0.58255]}},{"type":"Feature","properties":{"OBJECTID":"9363","Facility_N":"Sweet Waters Dispensary","Type":"Dispensary","Owner":"Ministry of Health","County":"Laikipia","Sub_County":"Laikipia Central","Division":"Central","Location":"Marura","Sub_Locati":"Marura","Constituen":"LAIKIPIA EAST","Nearest_To":"Nanyuki","Latitude":"-0.02799","Longitude":"37.00347"},"geometry":{"type":"Point","coordinates":[37.00347,-0.02799]}},{"type":"Feature","properties":{"OBJECTID":"9528","Facility_N":"Thigio Dispensary (Laikipia West)","Type":"Dispensary","Owner":"Ministry of Health","County":"Laikipia","Sub_County":"Laikipia West","Division":"Ngarua","Location":"Gituamba","Sub_Locati":"Thigio","Constituen":"LAIKIPIA WEST","Nearest_To":"Thigio","Latitude":"0.32664","Longitude":"36.2663"},"geometry":{"type":"Point","coordinates":[36.2663,0.32664]}},{"type":"Feature","properties":{"OBJECTID":"9544","Facility_N":"Thome Catholic Dispensary","Type":"Dispensary","Owner":"Kenya Episcopal Conference-Catholic Secretariat","County":"Laikipia","Sub_County":"Laikipia West","Division":"Rumuruti","Location":"Mutara","Sub_Locati":"Thome","Constituen":"LAIKIPIA WEST","Nearest_To":"Thome","Latitude":"0.30103","Longitude":"36.60386"},"geometry":{"type":"Point","coordinates":[36.60386,0.30103]}},{"type":"Feature","properties":{"OBJECTID":"9545","Facility_N":"Thome Clinic","Type":"Medical Clinic","Owner":"Private Practice - Nurse / Midwife","County":"Laikipia","Sub_County":"Laikipia East","Division":" ","Location":" ","Sub_Locati":" ","Constituen":"LAIKIPIA EAST","Nearest_To":" ","Latitude":"-0.07361","Longitude":"36.93475"},"geometry":{"type":"Point","coordinates":[36.93475,-0.07361]}},{"type":"Feature","properties":{"OBJECTID":"9616","Facility_N":"Top Choice Maternity and Nursing Home","Type":"Nursing Home","Owner":"Private Enterprise (Institution)","County":"Laikipia","Sub_County":"Laikipia East","Division":"Central","Location":"Nanyuki","Sub_Locati":"Thingithu","Constituen":"LAIKIPIA EAST","Nearest_To":"Nanyuki","Latitude":"0.02172","Longitude":"37.068"},"geometry":{"type":"Point","coordinates":[37.068,0.02172]}},{"type":"Feature","properties":{"OBJECTID":"9816","Facility_N":"Unison Medical Clinic","Type":"Medical Clinic","Owner":"Private Practice - Clinical Officer","County":"Laikipia","Sub_County":"Laikipia West","Division":"Rumuruti","Location":"Rumuruti","Sub_Locati":"Rumuruti Town","Constituen":"LAIKIPIA WEST","Nearest_To":"Rumuruti Town","Latitude":"0.26217","Longitude":"36.53789"},"geometry":{"type":"Point","coordinates":[36.53789,0.26217]}},{"type":"Feature","properties":{"OBJECTID":"9894","Facility_N":"Uzima Medical Clinic","Type":"Medical Clinic","Owner":"Private Practice - Clinical Officer","County":"Laikipia","Sub_County":"Nyahururu","Division":"Nyahururu","Location":"Nyahururu","Sub_Locati":"Nyahururu","Constituen":"LAIKIPIA WEST","Nearest_To":"Nyahururu","Latitude":"-0.77132","Longitude":"36.59995"},"geometry":{"type":"Point","coordinates":[36.59995,-0.77132]}},{"type":"Feature","properties":{"OBJECTID":"9968","Facility_N":"Vuma VCT","Type":"VCT Centre (Stand-Alone)","Owner":"Private Enterprise (Institution)","County":"Laikipia","Sub_County":"Laikipia East","Division":"Central","Location":"Nanyuki","Sub_Locati":"Majengo","Constituen":"LAIKIPIA EAST","Nearest_To":"Nanyuki","Latitude":"-0.001332","Longitude":"37.094"},"geometry":{"type":"Point","coordinates":[37.094,-0.001332]}}]}