{"type":"FeatureCollection","features":[{"type":"Feature","properties":{"OBJECTID":"26","Facility_N":"ABC Thange Dispensary","Type":"Dispensary","Owner":"Other Faith Based","County":"Makueni","Sub_County":"Kibwezi","Division":"Kibwezi","Location":"Utithi","Sub_Locati":"Thange","Constituen":"KIBWEZI","Nearest_To":"Thange","Latitude":"-2.50087","Longitude":"38.01595"},"geometry":{"type":"Point","coordinates":[38.01595,-2.50087]}},{"type":"Feature","properties":{"OBJECTID":"61","Facility_N":"Administration Police Senior Staff College Dispens","Type":"Dispensary","Owner":"Ministry of Health","County":"Makueni","Sub_County":"Nzaui","Division":"Emali","Location":"Emali","Sub_Locati":"Emali","Constituen":"MAKUENI","Nearest_To":"Emali","Latitude":"-2.14277","Longitude":"37.56218"},"geometry":{"type":"Point","coordinates":[37.56218,-2.14277]}},{"type":"Feature","properties":{"OBJECTID":"167","Facility_N":"AIC Kalamba Dispensary","Type":"Dispensary","Owner":"Other Faith Based","County":"Makueni","Sub_County":"Nzaui","Division":"Kalamba","Location":"Kalamba","Sub_Locati":"Kalamba","Constituen":"MAKUENI","Nearest_To":"Kalamba","Latitude":"-1.86649","Longitude":"37.51275"},"geometry":{"type":"Point","coordinates":[37.51275,-1.86649]}},{"type":"Feature","properties":{"OBJECTID":"170","Facility_N":"AIC Mukaa Dispensary","Type":"Dispensary","Owner":"Christian Health Association of Kenya","County":"Makueni","Sub_County":"Mukaa","Division":"Kilome","Location":"Mukaa","Sub_Locati":"Mukaa","Constituen":"KILOME","Nearest_To":" Nunguni","Latitude":"-1.83442","Longitude":"37.32693"},"geometry":{"type":"Point","coordinates":[37.32693,-1.83442]}},{"type":"Feature","properties":{"OBJECTID":"269","Facility_N":"Alpha Medical Clinic (Kambu)","Type":"Medical Clinic","Owner":"Private Practice - Clinical Officer","County":"Makueni","Sub_County":"Kibwezi","Division":"Kambu","Location":"Kambu","Sub_Locati":"Kambu","Constituen":"KIBWEZI","Nearest_To":"Kambu town","Latitude":"-2.5961","Longitude":"38.07333"},"geometry":{"type":"Point","coordinates":[38.07333,-2.5961]}},{"type":"Feature","properties":{"OBJECTID":"294","Facility_N":"Amani Medical Clinic (Kambu)","Type":"Medical Clinic","Owner":"Private Enterprise (Institution)","County":"Makueni","Sub_County":"Kibwezi","Division":"Mtito Andei","Location":"Kambu","Sub_Locati":"Kambu","Constituen":"KIBWEZI","Nearest_To":"Kambu","Latitude":"-2.59398","Longitude":"38.07652"},"geometry":{"type":"Point","coordinates":[38.07652,-2.59398]}},{"type":"Feature","properties":{"OBJECTID":"426","Facility_N":"Assumption Sisters Mbooni Clinic","Type":"Medical Clinic","Owner":"Kenya Episcopal Conference-Catholic Secretariat","County":"Makueni","Sub_County":"Mbooni West","Division":"Mbooni","Location":"Mbooni","Sub_Locati":"Mutitu","Constituen":"MBOONI","Nearest_To":"Kikima Market","Latitude":"-1.66007","Longitude":"37.44812"},"geometry":{"type":"Point","coordinates":[37.44812,-1.66007]}},{"type":"Feature","properties":{"OBJECTID":"436","Facility_N":"Athi Kamunyuni Dispensary","Type":"Dispensary","Owner":"Ministry of Health","County":"Makueni","Sub_County":"Kibwezi","Division":"Mtito Andei","Location":"Kambu","Sub_Locati":"Kiteng'ei","Constituen":"KIBWEZI","Nearest_To":"Kambu","Latitude":"-2.50586","Longitude":"38.26188"},"geometry":{"type":"Point","coordinates":[38.26188,-2.50586]}},{"type":"Feature","properties":{"OBJECTID":"541","Facility_N":"Baraka Medical Clinic (Makindu)","Type":"Medical Clinic","Owner":"Private Practice - Clinical Officer","County":"Makueni","Sub_County":"Makindu","Division":"Makindu","Location":"Makindu","Sub_Locati":"Manyatta","Constituen":"KIBWEZI","Nearest_To":"Makindu","Latitude":"-2.27853","Longitude":"37.81889"},"geometry":{"type":"Point","coordinates":[37.81889,-2.27853]}},{"type":"Feature","properties":{"OBJECTID":"559","Facility_N":"Barazani Medical Clinic","Type":"Dispensary","Owner":"Private Practice - General Practitioner","County":"Makueni","Sub_County":"Nzaui","Division":"mbitini","Location":"Mutyambua","Sub_Locati":"Mutiswa","Constituen":"MAKUENI","Nearest_To":"Sultan Hamud","Latitude":"-1.94626","Longitude":"37.43785"},"geometry":{"type":"Point","coordinates":[37.43785,-1.94626]}},{"type":"Feature","properties":{"OBJECTID":"601","Facility_N":"Becca Medical Clinic","Type":"Medical Clinic","Owner":"Ministry of Health","County":"Makueni","Sub_County":"Makueni","Division":"Wote","Location":"Wote","Sub_Locati":"Unoa","Constituen":"MAKUENI","Nearest_To":"Wote","Latitude":"-1.77963","Longitude":"37.62704"},"geometry":{"type":"Point","coordinates":[37.62704,-1.77963]}},{"type":"Feature","properties":{"OBJECTID":"626","Facility_N":"Bethany Health Services Clinic","Type":"Dispensary","Owner":"Private Practice - Nurse / Midwife","County":"Makueni","Sub_County":"Nzaui","Division":"Kalamba","Location":"Kalamba","Sub_Locati":"Kalamba","Constituen":"MAKUENI","Nearest_To":"Kalamba","Latitude":"-1.87708","Longitude":"37.52179"},"geometry":{"type":"Point","coordinates":[37.52179,-1.87708]}},{"type":"Feature","properties":{"OBJECTID":"903","Facility_N":"Catholic Mission Dispensary Makueni","Type":"Dispensary","Owner":"Kenya Episcopal Conference-Catholic Secretariat","County":"Makueni","Sub_County":"Makueni","Division":"Wote","Location":"Wote","Sub_Locati":"Unoa","Constituen":"MAKUENI","Nearest_To":"Unoa","Latitude":"-1.8046","Longitude":"37.62472"},"geometry":{"type":"Point","coordinates":[37.62472,-1.8046]}},{"type":"Feature","properties":{"OBJECTID":"949","Facility_N":"Chandaria Mwania Dispensary","Type":"Dispensary","Owner":"Ministry of Health","County":"Makueni","Sub_County":"Kathonzweni","Division":"Kitise","Location":"Mwania","Sub_Locati":"Mwania","Constituen":"MAKUENI","Nearest_To":"Kitise","Latitude":"-2.078","Longitude":"37.92649"},"geometry":{"type":"Point","coordinates":[37.92649,-2.078]}},{"type":"Feature","properties":{"OBJECTID":"1198","Facility_N":"Chyulu Medicare services","Type":"Medical Clinic","Owner":"Private Practice - Clinical Officer","County":"Makueni","Sub_County":"Kibwezi","Division":"Mtito Andei","Location":"Mtito Andei","Sub_Locati":"Mtito Andei","Constituen":"KIBWEZI","Nearest_To":"Mtito Andei Town","Latitude":"-2.69148","Longitude":"38.16721"},"geometry":{"type":"Point","coordinates":[38.16721,-2.69148]}},{"type":"Feature","properties":{"OBJECTID":"1355","Facility_N":"Demanje Medical Clinic","Type":"Medical Clinic","Owner":"Private Practice - Clinical Officer","County":"Makueni","Sub_County":"Kilungu","Division":"kilungu","Location":"kilungu","Sub_Locati":" ","Constituen":"KAITI","Nearest_To":"nunguni","Latitude":"-1.79158","Longitude":"37.3606"},"geometry":{"type":"Point","coordinates":[37.3606,-1.79158]}},{"type":"Feature","properties":{"OBJECTID":"1373","Facility_N":"DG Peters Med Clinic","Type":"Medical Clinic","Owner":"Private Practice - Clinical Officer","County":"Makueni","Sub_County":"Mbooni West","Division":"Mbooni","Location":"Mbooni","Sub_Locati":"Mutitu","Constituen":"MBOONI","Nearest_To":"Kikima","Latitude":"-1.66309","Longitude":"37.44515"},"geometry":{"type":"Point","coordinates":[37.44515,-1.66309]}},{"type":"Feature","properties":{"OBJECTID":"1609","Facility_N":"Dwa Health Centre","Type":"Health Centre","Owner":"Company Medical Service","County":"Makueni","Sub_County":"Kibwezi","Division":"Kibwezi","Location":"Kikumbulyu","Sub_Locati":"Ngandani","Constituen":"KIBWEZI","Nearest_To":"Kibwezi","Latitude":"-2.39765","Longitude":"38.01388"},"geometry":{"type":"Point","coordinates":[38.01388,-2.39765]}},{"type":"Feature","properties":{"OBJECTID":"1615","Facility_N":"Eagles Health Solution Clinic","Type":"Medical Clinic","Owner":"Private Practice - Clinical Officer","County":"Makueni","Sub_County":"Mukaa","Division":"Malili","Location":"Malili","Sub_Locati":"Malili","Constituen":"KILOME","Nearest_To":"Malili","Latitude":"-1.73765","Longitude":"37.19897"},"geometry":{"type":"Point","coordinates":[37.19897,-1.73765]}},{"type":"Feature","properties":{"OBJECTID":"1630","Facility_N":"Ebenezer Dispensary","Type":"Dispensary","Owner":"Ministry of Health","County":"Makueni","Sub_County":"Mbooni West","Division":"Mbooni","Location":"Mbooni","Sub_Locati":"Uthiuni","Constituen":"MBOONI","Nearest_To":"Tuvilani Market","Latitude":"-1.63077","Longitude":"37.46831"},"geometry":{"type":"Point","coordinates":[37.46831,-1.63077]}},{"type":"Feature","properties":{"OBJECTID":"1739","Facility_N":"Emali Manchester Medical Clinic","Type":"Medical Clinic","Owner":"Private Practice - General Practitioner","County":"Makueni","Sub_County":"Nzaui","Division":"Mbitini","Location":"Mbitini","Sub_Locati":"Emali","Constituen":"MAKUENI","Nearest_To":"Emali Town","Latitude":"-2.08098","Longitude":"37.47271"},"geometry":{"type":"Point","coordinates":[37.47271,-2.08098]}},{"type":"Feature","properties":{"OBJECTID":"1740","Facility_N":"Emali Model Health Centre","Type":"Health Centre","Owner":"Ministry of Health","County":"Makueni","Sub_County":"Nzaui","Division":"Mulala","Location":"Mbitini","Sub_Locati":"Emali","Constituen":"MAKUENI","Nearest_To":"Emali","Latitude":"-2.07437","Longitude":"37.46138"},"geometry":{"type":"Point","coordinates":[37.46138,-2.07437]}},{"type":"Feature","properties":{"OBJECTID":"1741","Facility_N":"Emali Nursing Home","Type":"Medical Clinic","Owner":"Private Enterprise (Institution)","County":"Makueni","Sub_County":"Nzaui","Division":"Mulala","Location":"Emali","Sub_Locati":"Emali","Constituen":"MAKUENI","Nearest_To":"Emali Town","Latitude":"-2.07911","Longitude":"37.47308"},"geometry":{"type":"Point","coordinates":[37.47308,-2.07911]}},{"type":"Feature","properties":{"OBJECTID":"1837","Facility_N":"Enzai Afya Medical Clinic","Type":"Medical Clinic","Owner":"Private Practice - Nurse / Midwife","County":"Makueni","Sub_County":"Mukaa","Division":"Kilome","Location":"kilome","Sub_Locati":"kilome","Constituen":"KILOME","Nearest_To":"Salama","Latitude":"-1.84144","Longitude":"37.31469"},"geometry":{"type":"Point","coordinates":[37.31469,-1.84144]}},{"type":"Feature","properties":{"OBJECTID":"1844","Facility_N":"Equity Medical Clinic","Type":"Medical Clinic","Owner":"Private Practice - Clinical Officer","County":"Makueni","Sub_County":"Kibwezi","Division":"Kibwezi","Location":"Kikumbulyu","Sub_Locati":"Mikuyuni","Constituen":"KIBWEZI","Nearest_To":"Kibwezi","Latitude":"-2.4128","Longitude":"37.96625"},"geometry":{"type":"Point","coordinates":[37.96625,-2.4128]}},{"type":"Feature","properties":{"OBJECTID":"1881","Facility_N":"Eunik Highway Medical Clinic","Type":"Medical Clinic","Owner":"Private Practice - Nurse / Midwife","County":"Makueni","Sub_County":"Makueni","Division":"Wote","Location":"Wote","Sub_Locati":"Unoa","Constituen":"MAKUENI","Nearest_To":"Wote Town","Latitude":"-1.78173","Longitude":"37.6267"},"geometry":{"type":"Point","coordinates":[37.6267,-1.78173]}},{"type":"Feature","properties":{"OBJECTID":"2455","Facility_N":"Haifa Med Clinic","Type":"Medical Clinic","Owner":"Private Practice - Clinical Officer","County":"Makueni","Sub_County":"Mbooni West","Division":"Mbooni","Location":"Mbooni","Sub_Locati":"Mutitu","Constituen":"MAKUENI","Nearest_To":"Kikima","Latitude":"-1.6594","Longitude":"37.44871"},"geometry":{"type":"Point","coordinates":[37.44871,-1.6594]}},{"type":"Feature","properties":{"OBJECTID":"2588","Facility_N":"Hope World Wide (Makindu)","Type":"VCT Centre (Stand-Alone)","Owner":"Non-Governmental Organizations","County":"Makueni","Sub_County":"Makindu","Division":"Makindu","Location":"Makindu","Sub_Locati":"Manyatta","Constituen":"KIBWEZI","Nearest_To":"Makindu","Latitude":"-2.27988","Longitude":"37.91828"},"geometry":{"type":"Point","coordinates":[37.91828,-2.27988]}},{"type":"Feature","properties":{"OBJECTID":"2685","Facility_N":"Iiani Dispensary","Type":"Dispensary","Owner":"Ministry of Health","County":"Makueni","Sub_County":"Kathonzweni","Division":"Mavindini","Location":"Kanthuni","Sub_Locati":"Iiani","Constituen":"MAKUENI","Nearest_To":"Mavindini","Latitude":"-1.87555","Longitude":"37.87856"},"geometry":{"type":"Point","coordinates":[37.87856,-1.87555]}},{"type":"Feature","properties":{"OBJECTID":"2686","Facility_N":"Iiani Dispensary (Kibwezi)","Type":"Dispensary","Owner":"Ministry of Health","County":"Makueni","Sub_County":"Kibwezi","Division":"Mtito Andei","Location":"Nzambani","Sub_Locati":"Liani","Constituen":"KIBWEZI","Nearest_To":"Kambu","Latitude":"-2.6436","Longitude":"38.02712"},"geometry":{"type":"Point","coordinates":[38.02712,-2.6436]}},{"type":"Feature","properties":{"OBJECTID":"2687","Facility_N":"Iiani/Kiatineni Dispensary","Type":"Dispensary","Owner":"Ministry of Health","County":"Makueni","Sub_County":"Mbooni West","Division":"Tulimani","Location":"Tulimani","Sub_Locati":"Iiani","Constituen":"MBOONI","Nearest_To":"Iiani Markret","Latitude":"-1.55041","Longitude":"37.3583"},"geometry":{"type":"Point","coordinates":[37.3583,-1.55041]}},{"type":"Feature","properties":{"OBJECTID":"2693","Facility_N":"Ikalyoni Dispensary","Type":"Dispensary","Owner":"Ministry of Health","County":"Makueni","Sub_County":"Makueni","Division":"Kaiti","Location":"Ukia","Sub_Locati":"Utaati","Constituen":"KAITI","Nearest_To":"Ikalyoni MARKET","Latitude":"-1.79243","Longitude":"37.4961"},"geometry":{"type":"Point","coordinates":[37.4961,-1.79243]}},{"type":"Feature","properties":{"OBJECTID":"2714","Facility_N":"Ilatu Dispensary (Makindu)","Type":"Dispensary","Owner":"Ministry of Health","County":"Makueni","Sub_County":"Makindu","Division":"Makindu","Location":"Nguumo","Sub_Locati":"Muuni","Constituen":"KIBWEZI","Nearest_To":"Ilatu","Latitude":"-2.35735","Longitude":"37.85057"},"geometry":{"type":"Point","coordinates":[37.85057,-2.35735]}},{"type":"Feature","properties":{"OBJECTID":"2790","Facility_N":"Innocent Med Clinic","Type":"Medical Clinic","Owner":"Private Practice - Clinical Officer","County":"Makueni","Sub_County":"Mbooni West","Division":"Mbooni","Location":"Mbooni","Sub_Locati":"Mutitu","Constituen":"MBOONI","Nearest_To":"Kikima","Latitude":"-1.66095","Longitude":"37.44753"},"geometry":{"type":"Point","coordinates":[37.44753,-1.66095]}},{"type":"Feature","properties":{"OBJECTID":"2852","Facility_N":"Itetani Dispensary","Type":"Dispensary","Owner":"Ministry of Health","County":"Makueni","Sub_County":"Mbooni West","Division":"Tulimani","Location":"Itetani","Sub_Locati":"Itetani","Constituen":"MBOONI","Nearest_To":"Itetani Market","Latitude":"-1.58761","Longitude":"37.38642"},"geometry":{"type":"Point","coordinates":[37.38642,-1.58761]}},{"type":"Feature","properties":{"OBJECTID":"2870","Facility_N":"Itithini Dispensary","Type":"Dispensary","Owner":"Ministry of Health","County":"Makueni","Sub_County":"Makueni","Division":"Kaiti","Location":"Iuani","Sub_Locati":"iuani","Constituen":"KAITI","Nearest_To":"Kilala","Latitude":"-1.7266","Longitude":"37.54733"},"geometry":{"type":"Point","coordinates":[37.54733,-1.7266]}},{"type":"Feature","properties":{"OBJECTID":"2878","Facility_N":"Itumbule (Makueni) Dispensary","Type":"Dispensary","Owner":"Ministry of Health","County":"Makueni","Sub_County":"Makueni","Division":"Kathonzweni","Location":"Kathonzweni","Sub_Locati":"Kwakavisi","Constituen":"MAKUENI","Nearest_To":"Kathonzweni","Latitude":"-1.85321","Longitude":"37.66794"},"geometry":{"type":"Point","coordinates":[37.66794,-1.85321]}},{"type":"Feature","properties":{"OBJECTID":"2879","Facility_N":"Itumbule Dispensary","Type":"Dispensary","Owner":"Ministry of Health","County":"Makueni","Sub_County":"Mukaa","Division":"Malili","Location":"Kiima Kiu","Sub_Locati":"Ngaamba","Constituen":"KILOME","Nearest_To":"SalamaA(Yoani)","Latitude":"-1.92643","Longitude":"37.70288"},"geometry":{"type":"Point","coordinates":[37.70288,-1.92643]}},{"type":"Feature","properties":{"OBJECTID":"2884","Facility_N":"Iuani Health Centre","Type":"Health Centre","Owner":"Ministry of Health","County":"Makueni","Sub_County":"Makueni","Division":"Kaiti","Location":"Iuani","Sub_Locati":"Iuani","Constituen":"KAITI","Nearest_To":"Kilala","Latitude":"-1.72986","Longitude":"37.52299"},"geometry":{"type":"Point","coordinates":[37.52299,-1.72986]}},{"type":"Feature","properties":{"OBJECTID":"2886","Facility_N":"Ivinga Nzia Dispensary","Type":"Dispensary","Owner":"Ministry of Health","County":"Makueni","Sub_County":"Makueni","Division":"Mavindini","Location":"kanthuni","Sub_Locati":"Ivinganzia","Constituen":"MAKUENI","Nearest_To":"Ivinganziz","Latitude":"-1.83636","Longitude":"37.86382"},"geometry":{"type":"Point","coordinates":[37.86382,-1.83636]}},{"type":"Feature","properties":{"OBJECTID":"2887","Facility_N":"Ivingoni Dispensary (Kibwezi)","Type":"Dispensary","Owner":"Ministry of Health","County":"Makueni","Sub_County":"Kibwezi","Division":"Mtito Andei","Location":"Nthongoni","Sub_Locati":"Mang'elete","Constituen":"KIBWEZI","Nearest_To":"Kambu","Latitude":"-2.64834","Longitude":"38.08289"},"geometry":{"type":"Point","coordinates":[38.08289,-2.64834]}},{"type":"Feature","properties":{"OBJECTID":"3201","Facility_N":"Kai Dispensary","Type":"Dispensary","Owner":"Ministry of Health","County":"Makueni","Sub_County":"Makindu","Division":"Makindu","Location":"Makindu","Sub_Locati":"Kai","Constituen":"KIBWEZI","Nearest_To":"Kai","Latitude":"-2.27199","Longitude":"37.87936"},"geometry":{"type":"Point","coordinates":[37.87936,-2.27199]}},{"type":"Feature","properties":{"OBJECTID":"3202","Facility_N":"Kaia Dispensary","Type":"Dispensary","Owner":"Ministry of Health","County":"Makueni","Sub_County":"Kilungu","Division":"Kilungu","Location":"Kithembe","Sub_Locati":"Nduu","Constituen":"KAITI","Nearest_To":"Kitandi Market","Latitude":"-1.74983","Longitude":"37.34643"},"geometry":{"type":"Point","coordinates":[37.34643,-1.74983]}},{"type":"Feature","properties":{"OBJECTID":"3253","Facility_N":"Kako Dispensary","Type":"Dispensary","Owner":"Ministry of Health","County":"Makueni","Sub_County":"Mbooni East","Division":"Kako","Location":"Kako","Sub_Locati":"Kako","Constituen":"MBOONI","Nearest_To":"Kako Market","Latitude":"-1.70279","Longitude":"37.6473"},"geometry":{"type":"Point","coordinates":[37.6473,-1.70279]}},{"type":"Feature","properties":{"OBJECTID":"3262","Facility_N":"Kakutha Dispensary","Type":"Dispensary","Owner":"Ministry of Health","County":"Makueni","Sub_County":"Nzaui","Division":"Mbitini","Location":"Kakutha","Sub_Locati":"Kithimani","Constituen":"MAKUENI","Nearest_To":"Matiliku","Latitude":"-1.92508","Longitude":"37.46834"},"geometry":{"type":"Point","coordinates":[37.46834,-1.92508]}},{"type":"Feature","properties":{"OBJECTID":"3281","Facility_N":"Kalanzoni Dispensary","Type":"Dispensary","Owner":"Ministry of Health","County":"Makueni","Sub_County":"Mukaa","Division":"Malili","Location":"kalanzoni","Sub_Locati":"kalanzoni","Constituen":"KILOME","Nearest_To":"kalanzoni market","Latitude":"-1.70816","Longitude":"37.25748"},"geometry":{"type":"Point","coordinates":[37.25748,-1.70816]}},{"type":"Feature","properties":{"OBJECTID":"3283","Facility_N":"Kalawa Health Centre","Type":"Health Centre","Owner":"Ministry of Health","County":"Makueni","Sub_County":"Mbooni East","Division":"Kalawa","Location":"Kalawa","Sub_Locati":"Kalawa","Constituen":"MBOONI","Nearest_To":"Kalawa Market","Latitude":"-1.64758","Longitude":"37.71254"},"geometry":{"type":"Point","coordinates":[37.71254,-1.64758]}},{"type":"Feature","properties":{"OBJECTID":"3288","Facility_N":"Kali Dispensary","Type":"Dispensary","Owner":"Ministry of Health","County":"Makueni","Sub_County":"Mbooni West","Division":"Mbooni","Location":"Mbooni","Sub_Locati":"Nzeveni","Constituen":"MBOONI","Nearest_To":"Kali Market","Latitude":"-1.63348","Longitude":"37.3863"},"geometry":{"type":"Point","coordinates":[37.3863,-1.63348]}},{"type":"Feature","properties":{"OBJECTID":"3291","Facility_N":"Kaliani Health Centre","Type":"Health Centre","Owner":"Ministry of Health","County":"Makueni","Sub_County":"Mbooni West","Division":"Mbooni","Location":"Kithungo","Sub_Locati":"Kaliani","Constituen":"MBOONI","Nearest_To":"Munyetani Market","Latitude":"-1.64099","Longitude":"37.494"},"geometry":{"type":"Point","coordinates":[37.494,-1.64099]}},{"type":"Feature","properties":{"OBJECTID":"3293","Facility_N":"Kalii Dispensary","Type":"Dispensary","Owner":"Ministry of Health","County":"Makueni","Sub_County":"Makindu","Division":"Makindu","Location":"Twaandu","Sub_Locati":"Kalii","Constituen":"KIBWEZI","Nearest_To":"Makindu","Latitude":"-2.10373","Longitude":"37.76118"},"geometry":{"type":"Point","coordinates":[37.76118,-2.10373]}},{"type":"Feature","properties":{"OBJECTID":"3297","Facility_N":"Kalima Dispensary","Type":"Dispensary","Owner":"Ministry of Health","County":"Makueni","Sub_County":"Nzaui","Division":"Matiliku","Location":"Kawala","Sub_Locati":"Kawala","Constituen":"MAKUENI","Nearest_To":" ","Latitude":"-1.98491","Longitude":"37.59554"},"geometry":{"type":"Point","coordinates":[37.59554,-1.98491]}},{"type":"Feature","properties":{"OBJECTID":"3299","Facility_N":"Kalimani Dispensary","Type":"Dispensary","Owner":"Ministry of Health","County":"Makueni","Sub_County":"Kibwezi","Division":"Mtito Andei","Location":"Kalimani","Sub_Locati":"Kalimani","Constituen":"KIBWEZI","Nearest_To":"Mtito Andei","Latitude":"-2.55138","Longitude":"38.09909"},"geometry":{"type":"Point","coordinates":[38.09909,-2.55138]}},{"type":"Feature","properties":{"OBJECTID":"3316","Facility_N":"Kalulini Dispensary (Kibwezi)","Type":"Health Centre","Owner":"Ministry of Health","County":"Makueni","Sub_County":"Kibwezi","Division":"Kibwezi","Location":"Masongaleni","Sub_Locati":"Masimbani","Constituen":"KIBWEZI","Nearest_To":"Masongaleni","Latitude":"-2.35123","Longitude":"37.9948"},"geometry":{"type":"Point","coordinates":[37.9948,-2.35123]}},{"type":"Feature","properties":{"OBJECTID":"3319","Facility_N":"Kalungu Dispensary","Type":"Dispensary","Owner":"Ministry of Health","County":"Makueni","Sub_County":"Makindu","Division":"Kibwezi","Location":"kalungu","Sub_Locati":"Matua","Constituen":"KIBWEZI","Nearest_To":"Kalungu","Latitude":"-2.35504","Longitude":"37.95359"},"geometry":{"type":"Point","coordinates":[37.95359,-2.35504]}},{"type":"Feature","properties":{"OBJECTID":"3366","Facility_N":"Kambimawe Dispensary","Type":"Dispensary","Owner":"Ministry of Health","County":"Makueni","Sub_County":"Makueni","Division":"Wote","Location":"Kikumini","Sub_Locati":"KambiMawe","Constituen":"MAKUENI","Nearest_To":"Wote","Latitude":"-1.85218","Longitude":"37.66094"},"geometry":{"type":"Point","coordinates":[37.66094,-1.85218]}},{"type":"Feature","properties":{"OBJECTID":"3372","Facility_N":"Kamboo Dispensary","Type":"Dispensary","Owner":"Ministry of Health","County":"Makueni","Sub_County":"Makindu","Division":"Makindu","Location":"Makindu","Sub_Locati":"Kamboo","Constituen":"KIBWEZI","Nearest_To":"Makindu","Latitude":"-2.20382","Longitude":"37.90091"},"geometry":{"type":"Point","coordinates":[37.90091,-2.20382]}},{"type":"Feature","properties":{"OBJECTID":"3373","Facility_N":"Kambu Catholic Dispensary","Type":"Dispensary","Owner":"Kenya Episcopal Conference-Catholic Secretariat","County":"Makueni","Sub_County":"Kibwezi","Division":"Mtito Andei","Location":"Kambu","Sub_Locati":"Kambu","Constituen":"KIBWEZI","Nearest_To":"Kambu","Latitude":"-2.5967","Longitude":"38.07592"},"geometry":{"type":"Point","coordinates":[38.07592,-2.5967]}},{"type":"Feature","properties":{"OBJECTID":"3374","Facility_N":"Kambu Integrated Health Clinic","Type":"Medical Clinic","Owner":"Private Enterprise (Institution)","County":"Makueni","Sub_County":"Kibwezi","Division":"Mtito Andei","Location":"Kambu","Sub_Locati":"Kambu","Constituen":"KIBWEZI","Nearest_To":"Kambu","Latitude":"-2.59388","Longitude":"38.07531"},"geometry":{"type":"Point","coordinates":[38.07531,-2.59388]}},{"type":"Feature","properties":{"OBJECTID":"3375","Facility_N":"Kambu Model Health Centre","Type":"Health Centre","Owner":"Ministry of Health","County":"Makueni","Sub_County":"Kibwezi","Division":"Mtito Andei","Location":"Kambu","Sub_Locati":"Kambu","Constituen":"KIBWEZI","Nearest_To":"Kambu market","Latitude":"-2.5976","Longitude":"38.07714"},"geometry":{"type":"Point","coordinates":[38.07714,-2.5976]}},{"type":"Feature","properties":{"OBJECTID":"3425","Facility_N":"Kamuthini Dispensary","Type":"Dispensary","Owner":"Ministry of Health","County":"Makueni","Sub_County":"Mukaa","Division":"Kilome","Location":"Kitaingo","Sub_Locati":"Kiongwani","Constituen":"KILOME","Nearest_To":"Maiani market","Latitude":"-1.8788","Longitude":"37.30331"},"geometry":{"type":"Point","coordinates":[37.30331,-1.8788]}},{"type":"Feature","properties":{"OBJECTID":"3488","Facility_N":"Kanthuni Dispensary","Type":"Dispensary","Owner":"Ministry of Health","County":"Makueni","Sub_County":"Makueni","Division":"Kanthuni","Location":"Kanthuni","Sub_Locati":"Kanthuni","Constituen":"MAKUENI","Nearest_To":"Kanthuni mkt.","Latitude":"-1.88788","Longitude":"37.83849"},"geometry":{"type":"Point","coordinates":[37.83849,-1.88788]}},{"type":"Feature","properties":{"OBJECTID":"3506","Facility_N":"Kanyungu Dispensary","Type":"Dispensary","Owner":"Ministry of Health","County":"Makueni","Sub_County":"Kibwezi","Division":"Kibwezi","Location":"Kikumbulyu","Sub_Locati":"Kathyaka","Constituen":"KIBWEZI","Nearest_To":"Kanyungu","Latitude":"-2.29088","Longitude":"38.07589"},"geometry":{"type":"Point","coordinates":[38.07589,-2.29088]}},{"type":"Feature","properties":{"OBJECTID":"3513","Facility_N":"Kanzokea Health Centre","Type":"Health Centre","Owner":"Ministry of Health","County":"Makueni","Sub_County":"Kathonzweni","Division":"Kithuki","Location":"Kanzokea","Sub_Locati":"Kimundi","Constituen":"MAKUENI","Nearest_To":"Kathonzweni","Latitude":"-1.92718","Longitude":"37.79707"},"geometry":{"type":"Point","coordinates":[37.79707,-1.92718]}},{"type":"Feature","properties":{"OBJECTID":"3739","Facility_N":"Kari Dispensary (Kiboko)","Type":"Dispensary","Owner":"Ministry of Health","County":"Makueni","Sub_County":"Makindu","Division":"Makindu","Location":"Kiboko","Sub_Locati":"Kasuvi","Constituen":"KIBWEZI","Nearest_To":"Kiboko","Latitude":"-2.25029","Longitude":"37.72685"},"geometry":{"type":"Point","coordinates":[37.72685,-2.25029]}},{"type":"Feature","properties":{"OBJECTID":"3793","Facility_N":"Kasarani Medical Clinic Wote","Type":"Medical Clinic","Owner":"Private Practice - Clinical Officer","County":"Makueni","Sub_County":"Makueni","Division":"Wote","Location":"Wote","Sub_Locati":"Unoa","Constituen":"MAKUENI","Nearest_To":"Wote Town","Latitude":"-1.77848","Longitude":"37.62951"},"geometry":{"type":"Point","coordinates":[37.62951,-1.77848]}},{"type":"Feature","properties":{"OBJECTID":"3796","Facility_N":"Kasayani Dispensary","Type":"Dispensary","Owner":"Ministry of Health","County":"Makueni","Sub_County":"Makindu","Division":"Kibwezi","Location":"Kathyaka","Sub_Locati":"Kasayani","Constituen":"KIBWEZI","Nearest_To":"Kasayani","Latitude":"-2.33019","Longitude":"38.01241"},"geometry":{"type":"Point","coordinates":[38.01241,-2.33019]}},{"type":"Feature","properties":{"OBJECTID":"3798","Facility_N":"Kasemeini Dispensary","Type":"Dispensary","Owner":"Ministry of Health","County":"Makueni","Sub_County":"Makindu","Division":"Kibwezi","Location":"Kikumbulyu North","Sub_Locati":"Ngandani","Constituen":"KIBWEZI","Nearest_To":"Kasemeini Market","Latitude":"-2.36111","Longitude":"38.08776"},"geometry":{"type":"Point","coordinates":[38.08776,-2.36111]}},{"type":"Feature","properties":{"OBJECTID":"3806","Facility_N":"Kasikeu Catholic Health Centre","Type":"Health Centre","Owner":"Kenya Episcopal Conference-Catholic Secretariat","County":"Makueni","Sub_County":"Mukaa","Division":"Kasikeu","Location":"Kasikeu","Sub_Locati":"Kasikeu","Constituen":"KILOME","Nearest_To":"Kasikeu Mkt","Latitude":"-1.95045","Longitude":"37.38488"},"geometry":{"type":"Point","coordinates":[37.38488,-1.95045]}},{"type":"Feature","properties":{"OBJECTID":"3807","Facility_N":"Kasikeu Dispensary ","Type":"Dispensary","Owner":"Ministry of Health","County":"Makueni","Sub_County":"Mukaa","Division":"Kasikeu","Location":"Kasikeu","Sub_Locati":"Kasikeu","Constituen":"KILOME","Nearest_To":"Kasikeu Mkt","Latitude":"-1.94705","Longitude":"37.38233"},"geometry":{"type":"Point","coordinates":[37.38233,-1.94705]}},{"type":"Feature","properties":{"OBJECTID":"3810","Facility_N":"Kasimba Medical Clinic","Type":"Medical Clinic","Owner":"Private Practice - Clinical Officer","County":"Makueni","Sub_County":"Kilungu","Division":"Kilungu","Location":"Kilungu","Sub_Locati":"Nduu","Constituen":"KAITI","Nearest_To":"Nunguni","Latitude":"-1.79439","Longitude":"37.36226"},"geometry":{"type":"Point","coordinates":[37.36226,-1.79439]}},{"type":"Feature","properties":{"OBJECTID":"3824","Facility_N":"Katagini Dispensary","Type":"Dispensary","Owner":"Ministry of Health","County":"Makueni","Sub_County":"Mbooni East","Division":"Kalawa","Location":"Katangini","Sub_Locati":"Ititu","Constituen":"MBOONI","Nearest_To":"Katangini Market","Latitude":"-1.74623","Longitude":"37.72376"},"geometry":{"type":"Point","coordinates":[37.72376,-1.74623]}},{"type":"Feature","properties":{"OBJECTID":"3837","Facility_N":"Kathamboni Dispensary","Type":"Dispensary","Owner":"Ministry of Health","County":"Makueni","Sub_County":"Makueni","Division":"Kathonzweni","Location":"Kathonzweni","Sub_Locati":"Kathonzweni","Constituen":"MAKUENI","Nearest_To":" ","Latitude":"-1.90969","Longitude":"37.77456"},"geometry":{"type":"Point","coordinates":[37.77456,-1.90969]}},{"type":"Feature","properties":{"OBJECTID":"3864","Facility_N":"Kathonzweni Catholic Dispensary","Type":"Dispensary","Owner":"Kenya Episcopal Conference-Catholic Secretariat","County":"Makueni","Sub_County":"Kathonzweni","Division":"Kathonzweni","Location":"Kathonzweni","Sub_Locati":"Ituka","Constituen":"MAKUENI","Nearest_To":"Kathonzweni","Latitude":"-1.91371","Longitude":"37.73276"},"geometry":{"type":"Point","coordinates":[37.73276,-1.91371]}},{"type":"Feature","properties":{"OBJECTID":"3865","Facility_N":"Kathonzweni Health Centre","Type":"Health Centre","Owner":"Ministry of Health","County":"Makueni","Sub_County":"Kathonzweni","Division":"Kathonzweni","Location":"Kathonzweni","Sub_Locati":"Ituka","Constituen":"MAKUENI","Nearest_To":"Kathonzweni","Latitude":"-1.91533","Longitude":"37.72972"},"geometry":{"type":"Point","coordinates":[37.72972,-1.91533]}},{"type":"Feature","properties":{"OBJECTID":"3867","Facility_N":"Kathulumbi Dispensary","Type":"Dispensary","Owner":"Ministry of Health","County":"Makueni","Sub_County":"Mbooni East","Division":"Kalawa","Location":"Kathulumbi","Sub_Locati":"Kathiani","Constituen":"MBOONI","Nearest_To":"Kathiani","Latitude":"-1.73296","Longitude":"37.78868"},"geometry":{"type":"Point","coordinates":[37.78868,-1.73296]}},{"type":"Feature","properties":{"OBJECTID":"3868","Facility_N":"Kathuma Dispensary","Type":"Dispensary","Owner":"Ministry of Health","County":"Makueni","Sub_County":"Makueni","Division":"wote","Location":"wote","Sub_Locati":"Nziu","Constituen":"MAKUENI","Nearest_To":"Nziu MKT","Latitude":"-1.84455","Longitude":"37.56073"},"geometry":{"type":"Point","coordinates":[37.56073,-1.84455]}},{"type":"Feature","properties":{"OBJECTID":"3871","Facility_N":"Kathyaka Dispensary","Type":"Dispensary","Owner":"Ministry of Health","County":"Makueni","Sub_County":"Kibwezi","Division":"Kibwezi","Location":"Kikumbulyu","Sub_Locati":"Kathyaka","Constituen":"KIBWEZI","Nearest_To":"Kathyaka","Latitude":"-2.26501","Longitude":"37.99044"},"geometry":{"type":"Point","coordinates":[37.99044,-2.26501]}},{"type":"Feature","properties":{"OBJECTID":"3874","Facility_N":"Katilini Dispensary","Type":"Dispensary","Owner":"Ministry of Health","County":"Makueni","Sub_County":"Mbooni West","Division":"Mbooni","Location":"Kyuu","Sub_Locati":"Kyuu","Constituen":"MBOONI","Nearest_To":"Katilini","Latitude":"-1.66687","Longitude":"37.42724"},"geometry":{"type":"Point","coordinates":[37.42724,-1.66687]}},{"type":"Feature","properties":{"OBJECTID":"3892","Facility_N":"Katulye Dispensary (Kibwezi)","Type":"Dispensary","Owner":"Ministry of Health","County":"Makueni","Sub_County":"Kibwezi","Division":"Mtito Andei","Location":"Mtito Andei","Sub_Locati":" ","Constituen":"KIBWEZI","Nearest_To":"Mtito Andei Town","Latitude":"-2.47366","Longitude":"38.15684"},"geometry":{"type":"Point","coordinates":[38.15684,-2.47366]}},{"type":"Feature","properties":{"OBJECTID":"3893","Facility_N":"Katulye Dispensary-Nzaui","Type":"Dispensary","Owner":"Ministry of Health","County":"Makueni","Sub_County":"Nzaui","Division":"Kalamba","Location":"Ikangavya","Sub_Locati":"Ikangavya","Constituen":"MAKUENI","Nearest_To":"Kalamba","Latitude":"-1.85238","Longitude":"37.49655"},"geometry":{"type":"Point","coordinates":[37.49655,-1.85238]}},{"type":"Feature","properties":{"OBJECTID":"3897","Facility_N":"Katune Dispensary","Type":"Dispensary","Owner":"Ministry of Health","County":"Makueni","Sub_County":"Nzaui","Division":"Mulala","Location":"Mulala","Sub_Locati":"Katune","Constituen":"KIBWEZI","Nearest_To":"Kwakotoe","Latitude":"-2.04235","Longitude":"37.4763"},"geometry":{"type":"Point","coordinates":[37.4763,-2.04235]}},{"type":"Feature","properties":{"OBJECTID":"3909","Facility_N":"Kaunguni Dispensary","Type":"Dispensary","Owner":"Ministry of Health","County":"Makueni","Sub_County":"Makindu","Division":"Makindu","Location":"Nguumo","Sub_Locati":"kaunguni","Constituen":"KIBWEZI","Nearest_To":"Mbui Nzau","Latitude":"-2.40076","Longitude":"37.86735"},"geometry":{"type":"Point","coordinates":[37.86735,-2.40076]}},{"type":"Feature","properties":{"OBJECTID":"3914","Facility_N":"Kavata Nzou Dispensary","Type":"Dispensary","Owner":"Ministry of Health","County":"Makueni","Sub_County":"Kilungu","Division":"Kilungu","Location":"Kilungu","Sub_Locati":"Musalala","Constituen":"KAITI","Nearest_To":"Nunguni","Latitude":"-1.79139","Longitude":"37.43367"},"geometry":{"type":"Point","coordinates":[37.43367,-1.79139]}},{"type":"Feature","properties":{"OBJECTID":"3915","Facility_N":"Kavatanzou Dispensary","Type":"Dispensary","Owner":"Ministry of Health","County":"Makueni","Sub_County":"Makueni","Division":"Kilungu","Location":"Kilungu","Sub_Locati":"Musalala","Constituen":"KAITI","Nearest_To":"Kavatanzou","Latitude":"-1.79142","Longitude":"37.43373"},"geometry":{"type":"Point","coordinates":[37.43373,-1.79142]}},{"type":"Feature","properties":{"OBJECTID":"3916","Facility_N":"Kavete Dispensary (Makindu)","Type":"Dispensary","Owner":"Ministry of Health","County":"Makueni","Sub_County":"Makindu","Division":"Makindu","Location":"Twaandu","Sub_Locati":"Kyale","Constituen":"KIBWEZI","Nearest_To":"Kavete","Latitude":"-2.15726","Longitude":"37.77472"},"geometry":{"type":"Point","coordinates":[37.77472,-2.15726]}},{"type":"Feature","properties":{"OBJECTID":"3922","Facility_N":"Kavuko Dispensary","Type":"Dispensary","Owner":"Ministry of Health","County":"Makueni","Sub_County":"Mukaa","Division":" ","Location":" ","Sub_Locati":" ","Constituen":"KILOME","Nearest_To":"Kavuko market","Latitude":"-1.8879","Longitude":"37.28444"},"geometry":{"type":"Point","coordinates":[37.28444,-1.8879]}},{"type":"Feature","properties":{"OBJECTID":"3923","Facility_N":"Kavumbu Dispensary","Type":"Dispensary","Owner":"Ministry of Health","County":"Makueni","Sub_County":"Mbooni East","Division":"Kalawa","Location":"Athi","Sub_Locati":"Kavumbu","Constituen":"MBOONI","Nearest_To":"Kavumbu Market","Latitude":"-1.58347","Longitude":"37.74638"},"geometry":{"type":"Point","coordinates":[37.74638,-1.58347]}},{"type":"Feature","properties":{"OBJECTID":"3926","Facility_N":"Kavuthu H/Centre","Type":"Health Centre","Owner":"Ministry of Health","County":"Makueni","Sub_County":"Nzaui","Division":"Mbitini","Location":"Kavuthu","Sub_Locati":"Vulueni","Constituen":"MAKUENI","Nearest_To":"Sultan Hamud","Latitude":"-1.99738","Longitude":"37.41496"},"geometry":{"type":"Point","coordinates":[37.41496,-1.99738]}},{"type":"Feature","properties":{"OBJECTID":"3929","Facility_N":"Kawala Dispensary-Makueni","Type":"Dispensary","Owner":"Ministry of Health","County":"Makueni","Sub_County":"Makueni","Division":"Matiliku","Location":"Kilili","Sub_Locati":"Kilili","Constituen":"MAKUENI","Nearest_To":"Kawala","Latitude":"-1.95524","Longitude":"37.58059"},"geometry":{"type":"Point","coordinates":[37.58059,-1.95524]}},{"type":"Feature","properties":{"OBJECTID":"3951","Facility_N":"Kee Dispensary","Type":"Dispensary","Owner":"Ministry of Health","County":"Makueni","Sub_County":"Makueni","Division":"Kee","Location":"Kee","Sub_Locati":"Kee","Constituen":"KAITI","Nearest_To":"Kee Market","Latitude":"-1.7212","Longitude":"37.34096"},"geometry":{"type":"Point","coordinates":[37.34096,-1.7212]}},{"type":"Feature","properties":{"OBJECTID":"4156","Facility_N":"Kiangini Dispensary","Type":"Dispensary","Owner":"Ministry of Health","County":"Makueni","Sub_County":"Kathonzweni","Division":"Kathonzweni","Location":"Mbuvo","Sub_Locati":"Kiangini","Constituen":"MAKUENI","Nearest_To":"Kiangini","Latitude":"-2.07231","Longitude":"37.76967"},"geometry":{"type":"Point","coordinates":[37.76967,-2.07231]}},{"type":"Feature","properties":{"OBJECTID":"4173","Facility_N":"Kiaoni Dispensary (Kibwezi)","Type":"Dispensary","Owner":"Ministry of Health","County":"Makueni","Sub_County":"Kibwezi","Division":"Kibwezi","Location":"Kikumbulyu","Sub_Locati":"Ngulu","Constituen":"KIBWEZI","Nearest_To":"Athi Kiaoni","Latitude":"-2.20358","Longitude":"38.05542"},"geometry":{"type":"Point","coordinates":[38.05542,-2.20358]}},{"type":"Feature","properties":{"OBJECTID":"4226","Facility_N":"Kiboko Dispensary (Makindu)","Type":"Dispensary","Owner":"Ministry of Health","County":"Makueni","Sub_County":"Makindu","Division":"Makindu","Location":"Kiboko","Sub_Locati":"Kaasuvi","Constituen":"KIBWEZI","Nearest_To":"Kiboko","Latitude":"-2.20999","Longitude":"37.72367"},"geometry":{"type":"Point","coordinates":[37.72367,-2.20999]}},{"type":"Feature","properties":{"OBJECTID":"4227","Facility_N":"Kiboko Medical Clinic","Type":"Medical Clinic","Owner":"Private Practice - Nurse / Midwife","County":"Makueni","Sub_County":"Makindu","Division":"Makindu","Location":"Kiboko","Sub_Locati":"Kiboko","Constituen":"KIBWEZI","Nearest_To":" ","Latitude":"-2.21035","Longitude":"37.72018"},"geometry":{"type":"Point","coordinates":[37.72018,-2.21035]}},{"type":"Feature","properties":{"OBJECTID":"4249","Facility_N":"Kibwezi Catholic Dispensary","Type":"Dispensary","Owner":"Kenya Episcopal Conference-Catholic Secretariat","County":"Makueni","Sub_County":"Kibwezi","Division":"Kibwezi","Location":"Kikumbulyu","Sub_Locati":"Mikuyuni","Constituen":"KIBWEZI","Nearest_To":"Kibwezi","Latitude":"-2.41053","Longitude":"37.96905"},"geometry":{"type":"Point","coordinates":[37.96905,-2.41053]}},{"type":"Feature","properties":{"OBJECTID":"4250","Facility_N":"Kibwezi Health Care Clinic","Type":"Medical Clinic","Owner":"Private Enterprise (Institution)","County":"Makueni","Sub_County":"Kibwezi","Division":"Kibwezi","Location":"Kikumbulyu","Sub_Locati":"Mikuyuni","Constituen":"KIBWEZI","Nearest_To":"Kibwezi","Latitude":"-2.41031","Longitude":"37.96771"},"geometry":{"type":"Point","coordinates":[37.96771,-2.41031]}},{"type":"Feature","properties":{"OBJECTID":"4251","Facility_N":"Kibwezi Huruma Medical Clinic and Laboratory","Type":"Medical Clinic","Owner":"Private Practice - Nurse / Midwife","County":"Makueni","Sub_County":"Kibwezi","Division":"Kibwezi","Location":"Kikumbulyu","Sub_Locati":"Mikuyuni","Constituen":"KIBWEZI","Nearest_To":"Kibwezi","Latitude":"-2.4114","Longitude":"37.96687"},"geometry":{"type":"Point","coordinates":[37.96687,-2.4114]}},{"type":"Feature","properties":{"OBJECTID":"4252","Facility_N":"Kibwezi Sub County Hospital","Type":"Sub-District Hospital","Owner":"Ministry of Health","County":"Makueni","Sub_County":"Kibwezi","Division":"Kibwezi","Location":"Kikumbulyu","Sub_Locati":"Mikuyuni","Constituen":"KIBWEZI","Nearest_To":"Kibwezi","Latitude":"-2.41203","Longitude":"37.96728"},"geometry":{"type":"Point","coordinates":[37.96728,-2.41203]}},{"type":"Feature","properties":{"OBJECTID":"4300","Facility_N":"Kiima Kiu Dispensary","Type":"Dispensary","Owner":"Ministry of Health","County":"Makueni","Sub_County":"Mukaa","Division":"Malili","Location":"Kiima Kiu","Sub_Locati":"Kiima Kiu","Constituen":"KILOME","Nearest_To":"Salama Market","Latitude":"-1.82668","Longitude":"37.25803"},"geometry":{"type":"Point","coordinates":[37.25803,-1.82668]}},{"type":"Feature","properties":{"OBJECTID":"4301","Facility_N":"Kiima Kiu Health Care Services Dispensary","Type":"Dispensary","Owner":"Private Practice - Nurse / Midwife","County":"Makueni","Sub_County":"Mukaa","Division":"Malili","Location":"Kiima Kiu","Sub_Locati":"Kiima Kiu","Constituen":"MAKUENI","Nearest_To":"Salama","Latitude":"-1.85309","Longitude":"37.26192"},"geometry":{"type":"Point","coordinates":[37.26192,-1.85309]}},{"type":"Feature","properties":{"OBJECTID":"4318","Facility_N":"Kikoko Mission Hospital","Type":"Other Hospital","Owner":"Other Faith Based","County":"Makueni","Sub_County":"Kilungu","Division":"Kilungu","Location":"Kikoko","Sub_Locati":"Kalongo","Constituen":"KAITI","Nearest_To":"Nunguni","Latitude":"-1.80639","Longitude":"37.39615"},"geometry":{"type":"Point","coordinates":[37.39615,-1.80639]}},{"type":"Feature","properties":{"OBJECTID":"4325","Facility_N":"Kikumini Dispensary (Makueni)","Type":"Dispensary","Owner":"Ministry of Health","County":"Makueni","Sub_County":"Makueni","Division":"Wote","Location":"Kikumini","Sub_Locati":"Kikumini","Constituen":"MAKUENI","Nearest_To":"Wote Town","Latitude":"-1.78687","Longitude":"37.70638"},"geometry":{"type":"Point","coordinates":[37.70638,-1.78687]}},{"type":"Feature","properties":{"OBJECTID":"4326","Facility_N":"Kikumini Health Centre","Type":"Health Centre","Owner":"Ministry of Health","County":"Makueni","Sub_County":"Nzaui","Division":"Nguu","Location":"Nguu","Sub_Locati":"Kikumini","Constituen":"MAKUENI","Nearest_To":"Kiikumini Mkt","Latitude":"-2.04569","Longitude":"37.5747"},"geometry":{"type":"Point","coordinates":[37.5747,-2.04569]}},{"type":"Feature","properties":{"OBJECTID":"4331","Facility_N":"Kilala Health Centre","Type":"Health Centre","Owner":"Ministry of Health","County":"Makueni","Sub_County":"Makueni","Division":"Kaiti","Location":"Kilala","Sub_Locati":"Kilala","Constituen":"KAITI","Nearest_To":"Kilala","Latitude":"-1.76626","Longitude":"37.55628"},"geometry":{"type":"Point","coordinates":[37.55628,-1.76626]}},{"type":"Feature","properties":{"OBJECTID":"4345","Facility_N":"Kilili Dispensary","Type":"Dispensary","Owner":"Ministry of Health","County":"Makueni","Sub_County":"Nzaui","Division":"Matiliku","Location":"Matiliku","Sub_Locati":"Kilili","Constituen":"MAKUENI","Nearest_To":"Matiliku Mkt","Latitude":"-1.91736","Longitude":"37.59505"},"geometry":{"type":"Point","coordinates":[37.59505,-1.91736]}},{"type":"Feature","properties":{"OBJECTID":"4354","Facility_N":"Kilisa Dispensary","Type":"Dispensary","Owner":"Ministry of Health","County":"Makueni","Sub_County":"Makueni","Division":"Wote","Location":"Wote","Sub_Locati":"Itaa","Constituen":"MAKUENI","Nearest_To":"Mandoi mkt","Latitude":"-1.90975","Longitude":"37.63222"},"geometry":{"type":"Point","coordinates":[37.63222,-1.90975]}},{"type":"Feature","properties":{"OBJECTID":"4356","Facility_N":"Kilome Nursing Home","Type":"Nursing Home","Owner":"Private Enterprise (Institution)","County":"Makueni","Sub_County":"Nzaui","Division":"Mbitini","Location":"Mbitini","Sub_Locati":"Emali","Constituen":"MAKUENI","Nearest_To":"Emali Town","Latitude":"-2.07796","Longitude":"37.46289"},"geometry":{"type":"Point","coordinates":[37.46289,-2.07796]}},{"type":"Feature","properties":{"OBJECTID":"4360","Facility_N":"Kilungu Sub-District Hospital","Type":"Sub-District Hospital","Owner":"Ministry of Health","County":"Makueni","Sub_County":"Kilungu","Division":"Kilungu","Location":"Kithembe","Sub_Locati":"Kauti","Constituen":"KAITI","Nearest_To":"Nunguni","Latitude":"-1.78614","Longitude":"37.36064"},"geometry":{"type":"Point","coordinates":[37.36064,-1.78614]}},{"type":"Feature","properties":{"OBJECTID":"4381","Facility_N":"Kimeeni Dispensary","Type":"Dispensary","Owner":"Ministry of Health","County":"Makueni","Sub_County":"Mbooni East","Division":"Kalawa","Location":"Kalawa","Sub_Locati":"Kimeeni","Constituen":"MBOONI","Nearest_To":"Katoloka Market","Latitude":"-1.6939","Longitude":"37.7391"},"geometry":{"type":"Point","coordinates":[37.7391,-1.6939]}},{"type":"Feature","properties":{"OBJECTID":"4460","Facility_N":"Kinyambu Dispensary","Type":"Dispensary","Owner":"Ministry of Health","County":"Makueni","Sub_County":"Kibwezi","Division":"Machinery","Location":"Kinyambu","Sub_Locati":"Kinyambu","Constituen":"KIBWEZI","Nearest_To":"Machinery","Latitude":"-2.4604","Longitude":"38.01374"},"geometry":{"type":"Point","coordinates":[38.01374,-2.4604]}},{"type":"Feature","properties":{"OBJECTID":"4461","Facility_N":"Kinyambu Kwitu Medical Clinic","Type":"Medical Clinic","Owner":"Private Practice - Clinical Officer","County":"Makueni","Sub_County":"Kibwezi","Division":"Machinery","Location":"Kinyambu","Sub_Locati":"Kinyambu","Constituen":"KIBWEZI","Nearest_To":"Kinyambu Market","Latitude":"-2.48025","Longitude":"37.99675"},"geometry":{"type":"Point","coordinates":[37.99675,-2.48025]}},{"type":"Feature","properties":{"OBJECTID":"4463","Facility_N":"Kinyau Dispensary","Type":"Dispensary","Owner":"Ministry of Health","County":"Makueni","Sub_County":"Mbooni West","Division":"Kathulumbi","Location":"Katangini","Sub_Locati":"Thwake","Constituen":"MBOONI","Nearest_To":"Thwake Market","Latitude":"-1.69856","Longitude":"37.67983"},"geometry":{"type":"Point","coordinates":[37.67983,-1.69856]}},{"type":"Feature","properties":{"OBJECTID":"4607","Facility_N":"Kisau Sub District Hospital","Type":"Sub-District Hospital","Owner":"Ministry of Health","County":"Makueni","Sub_County":"Mbooni East","Division":"Kisau","Location":"Waia","Sub_Locati":"Waia","Constituen":"MBOONI","Nearest_To":"Mbumbuni Market","Latitude":"-1.62784","Longitude":"37.55771"},"geometry":{"type":"Point","coordinates":[37.55771,-1.62784]}},{"type":"Feature","properties":{"OBJECTID":"4612","Facility_N":"Kisayani Medical Clinic-kibwezi west","Type":"Medical Clinic","Owner":"Private Practice - Clinical Officer","County":"Makueni","Sub_County":"Makindu","Division":"Kibwezi","Location":"Kikumbulyu North","Sub_Locati":" ","Constituen":"KIBWEZI","Nearest_To":"Kisayani Market","Latitude":"-2.32357","Longitude":"38.01552"},"geometry":{"type":"Point","coordinates":[38.01552,-2.32357]}},{"type":"Feature","properties":{"OBJECTID":"4636","Facility_N":"Kisoi Munyao Memorial Dispensary","Type":"Dispensary","Owner":"Ministry of Health","County":"Makueni","Sub_County":"Mbooni East","Division":"Waia","Location":"Sakai","Sub_Locati":"Muiu","Constituen":"MBOONI","Nearest_To":"Muiu Market","Latitude":"-1.69107","Longitude":"37.57943"},"geometry":{"type":"Point","coordinates":[37.57943,-1.69107]}},{"type":"Feature","properties":{"OBJECTID":"4667","Facility_N":"kitende Dispensary","Type":"Dispensary","Owner":"Ministry of Health","County":"Makueni","Sub_County":"Makindu","Division":"Nguu","Location":" ","Sub_Locati":" ","Constituen":"KIBWEZI","Nearest_To":"Masumba Market","Latitude":"-1.99368","Longitude":"37.65609"},"geometry":{"type":"Point","coordinates":[37.65609,-1.99368]}},{"type":"Feature","properties":{"OBJECTID":"4668","Facility_N":"Kiteng'ei Dispensary","Type":"Dispensary","Owner":"Ministry of Health","County":"Makueni","Sub_County":"Kibwezi","Division":" ","Location":" ","Sub_Locati":" ","Constituen":"KIBWEZI","Nearest_To":" ","Latitude":"-2.49868","Longitude":"38.234"},"geometry":{"type":"Point","coordinates":[38.234,-2.49868]}},{"type":"Feature","properties":{"OBJECTID":"4687","Facility_N":"Kithituni Health Care Clinic","Type":"Medical Clinic","Owner":"Other Faith Based","County":"Makueni","Sub_County":"Nzaui","Division":"Kasikeu","Location":"Kasikeu","Sub_Locati":"Kasikeu","Constituen":"KILOME","Nearest_To":"Kasikeu","Latitude":"-2.07986","Longitude":"37.47466"},"geometry":{"type":"Point","coordinates":[37.47466,-2.07986]}},{"type":"Feature","properties":{"OBJECTID":"4690","Facility_N":"Kithuki Health Centre","Type":"Health Centre","Owner":"Ministry of Health","County":"Makueni","Sub_County":"Kathonzweni","Division":"Kithuki","Location":"Kithuki","Sub_Locati":"Yikithuki","Constituen":"MAKUENI","Nearest_To":"Mavindini","Latitude":"-1.99199","Longitude":"37.85613"},"geometry":{"type":"Point","coordinates":[37.85613,-1.99199]}},{"type":"Feature","properties":{"OBJECTID":"4693","Facility_N":"Kithuni Dispensary","Type":"Dispensary","Owner":"Ministry of Health","County":"Makueni","Sub_County":"Makueni","Division":"Kee","Location":"Kithuni","Sub_Locati":"Ikalyoni","Constituen":"KAITI","Nearest_To":"Kee Market","Latitude":"-1.74712","Longitude":"37.3756"},"geometry":{"type":"Point","coordinates":[37.3756,-1.74712]}},{"type":"Feature","properties":{"OBJECTID":"4696","Facility_N":"Kithyululu Dispensary","Type":"Dispensary","Owner":"Ministry of Health","County":"Makueni","Sub_County":"Kibwezi","Division":"Kibwezi","Location":"Masongaleni","Sub_Locati":"Ulilinzi","Constituen":"KIBWEZI","Nearest_To":"Machinery","Latitude":"-2.3992","Longitude":"38.17276"},"geometry":{"type":"Point","coordinates":[38.17276,-2.3992]}},{"type":"Feature","properties":{"OBJECTID":"4698","Facility_N":"Kitise Health Centre","Type":"Health Centre","Owner":"Ministry of Health","County":"Makueni","Sub_County":"Kathonzweni","Division":"Kitise","Location":"Kitise","Sub_Locati":"Kitise","Constituen":"MAKUENI","Nearest_To":"Kathonzweni","Latitude":"-2.05866","Longitude":"37.87776"},"geometry":{"type":"Point","coordinates":[37.87776,-2.05866]}},{"type":"Feature","properties":{"OBJECTID":"4699","Facility_N":"Kitise Rural Development VCT","Type":"VCT Centre (Stand-Alone)","Owner":"Non-Governmental Organizations","County":"Makueni","Sub_County":"Kathonzweni","Division":"Kathonzweni","Location":"Kitise","Sub_Locati":" ","Constituen":"MAKUENI","Nearest_To":"Kitise Market","Latitude":"-2.05336","Longitude":"37.88399"},"geometry":{"type":"Point","coordinates":[37.88399,-2.05336]}},{"type":"Feature","properties":{"OBJECTID":"4705","Facility_N":"Kitonyoni Dispensary","Type":"Dispensary","Owner":"Ministry of Health","County":"Makueni","Sub_County":"Makueni","Division":"Wote","Location":"Muvau","Sub_Locati":"Kitonyoni","Constituen":"MAKUENI","Nearest_To":"Kangondi Mkt","Latitude":"-1.95395","Longitude":"37.65402"},"geometry":{"type":"Point","coordinates":[37.65402,-1.95395]}},{"type":"Feature","properties":{"OBJECTID":"4715","Facility_N":"Kitundu (GOK) Dispensary","Type":"Dispensary","Owner":"Ministry of Health","County":"Makueni","Sub_County":"Mbooni West","Division":"Mbooni","Location":"Kitundu","Sub_Locati":"Kitundu","Constituen":"MBOONI","Nearest_To":"Kitundu","Latitude":"-1.68968","Longitude":"37.47366"},"geometry":{"type":"Point","coordinates":[37.47366,-1.68968]}},{"type":"Feature","properties":{"OBJECTID":"4716","Facility_N":"Kitundu (SDA) Dispensary","Type":"Dispensary","Owner":"Christian Health Association of Kenya","County":"Makueni","Sub_County":"Mbooni West","Division":"Mbooni","Location":"Kitundu","Sub_Locati":"Kitundu","Constituen":"MBOONI","Nearest_To":"Kitundu","Latitude":"-1.68698","Longitude":"37.48007"},"geometry":{"type":"Point","coordinates":[37.48007,-1.68698]}},{"type":"Feature","properties":{"OBJECTID":"4723","Facility_N":"Kiu (AIC) Dispensary","Type":"Dispensary","Owner":"Christian Health Association of Kenya","County":"Makueni","Sub_County":"Mukaa","Division":"Malili","Location":"Kiima Kiu","Sub_Locati":"Ngaamba","Constituen":"KILOME","Nearest_To":"Salama Mkt","Latitude":"-1.89923","Longitude":"37.16335"},"geometry":{"type":"Point","coordinates":[37.16335,-1.89923]}},{"type":"Feature","properties":{"OBJECTID":"4732","Facility_N":"Kivani Dispensary","Type":"Dispensary","Owner":"Ministry of Health","County":"Makueni","Sub_County":"Makueni","Division":"Kaiti","Location":"Kivani","Sub_Locati":"Kivani","Constituen":"KAITI","Nearest_To":"Kola","Latitude":"-1.72171","Longitude":"37.37571"},"geometry":{"type":"Point","coordinates":[37.37571,-1.72171]}},{"type":"Feature","properties":{"OBJECTID":"4734","Facility_N":"Kiveetyo Dispensary","Type":"Dispensary","Owner":"Ministry of Health","County":"Makueni","Sub_County":"Mbooni West","Division":"Mbooni","Location":"Nzeveni","Sub_Locati":"Nzeveni","Constituen":"MBOONI","Nearest_To":"Nthungoni Market","Latitude":"-1.64286","Longitude":"37.41525"},"geometry":{"type":"Point","coordinates":[37.41525,-1.64286]}},{"type":"Feature","properties":{"OBJECTID":"4926","Facility_N":"Kwakalui dispensary","Type":"Dispensary","Owner":"Ministry of Health","County":"Makueni","Sub_County":"Makueni","Division":"Kalamba","Location":"Kalamba","Sub_Locati":"Kalamba","Constituen":"MAKUENI","Nearest_To":"Kwakalui","Latitude":"-1.86626","Longitude":"37.53895"},"geometry":{"type":"Point","coordinates":[37.53895,-1.86626]}},{"type":"Feature","properties":{"OBJECTID":"4928","Facility_N":"Kwakavisi Dispensary","Type":"Dispensary","Owner":"Ministry of Health","County":"Makueni","Sub_County":"Kathonzweni","Division":"Kathonzweni","Location":"Kwakavisi","Sub_Locati":"Kwakavisi","Constituen":"MAKUENI","Nearest_To":"Kathonzweni","Latitude":"-1.98399","Longitude":"37.69768"},"geometry":{"type":"Point","coordinates":[37.69768,-1.98399]}},{"type":"Feature","properties":{"OBJECTID":"4930","Facility_N":"Kwakotoe Dispensary","Type":"Dispensary","Owner":"Ministry of Health","County":"Makueni","Sub_County":"Makindu","Division":"Nguu/Mulala","Location":"Mulala","Sub_Locati":"Mulala","Constituen":"KIBWEZI","Nearest_To":"Kwakotoe","Latitude":"-2.0424","Longitude":"37.47625"},"geometry":{"type":"Point","coordinates":[37.47625,-2.0424]}},{"type":"Feature","properties":{"OBJECTID":"4932","Facility_N":"Kwale Dispensary","Type":"Dispensary","Owner":"Ministry of Health","County":"Makueni","Sub_County":"Mukaa","Division":"Kilome","Location":"Ngaamba","Sub_Locati":"Ngaamba","Constituen":"KILOME","Nearest_To":"Salama Mkt","Latitude":"-1.95949","Longitude":"37.28575"},"geometry":{"type":"Point","coordinates":[37.28575,-1.95949]}},{"type":"Feature","properties":{"OBJECTID":"4938","Facility_N":"Kwamutula(Kaliini) dispensary","Type":"Dispensary","Owner":"Ministry of Health","County":"Makueni","Sub_County":"Makueni","Division":"Mbitini","Location":"Mbitini","Sub_Locati":"kaliini","Constituen":"MAKUENI","Nearest_To":"Kwamutula","Latitude":"-1.98544","Longitude":"37.47938"},"geometry":{"type":"Point","coordinates":[37.47938,-1.98544]}},{"type":"Feature","properties":{"OBJECTID":"4952","Facility_N":"Kyaani Dispensary","Type":"Dispensary","Owner":"Ministry of Health","County":"Makueni","Sub_County":"Kibwezi","Division":"Kibwezi","Location":"Kinyambu","Sub_Locati":"Kinyambu","Constituen":"KIBWEZI","Nearest_To":"Kinyambu","Latitude":"-2.55639","Longitude":"37.97885"},"geometry":{"type":"Point","coordinates":[37.97885,-2.55639]}},{"type":"Feature","properties":{"OBJECTID":"4956","Facility_N":"Kyaluma Dispensary","Type":"Dispensary","Owner":"Ministry of Health","County":"Makueni","Sub_County":"Mbooni East","Division":"Kako","Location":"Kako","Sub_Locati":"Kyaluma","Constituen":"MBOONI","Nearest_To":"Kako","Latitude":"-1.65328","Longitude":"37.657"},"geometry":{"type":"Point","coordinates":[37.657,-1.65328]}},{"type":"Feature","properties":{"OBJECTID":"4958","Facility_N":"Kyambeke Dispensary","Type":"Dispensary","Owner":"Ministry of Health","County":"Makueni","Sub_County":"Kilungu","Division":"Ilima","Location":"Ndolo","Sub_Locati":"Ndolo","Constituen":"KAITI","Nearest_To":"Nunguni","Latitude":"-1.8482","Longitude":"37.42162"},"geometry":{"type":"Point","coordinates":[37.42162,-1.8482]}},{"type":"Feature","properties":{"OBJECTID":"4962","Facility_N":"Kyanganda Dispensary","Type":"Dispensary","Owner":"Ministry of Health","County":"Makueni","Sub_County":"Kilungu","Division":"kilungu","Location":"kilungu","Sub_Locati":"kalongo","Constituen":"KAITI","Nearest_To":"kyanganda village","Latitude":"-1.80929","Longitude":"37.42848"},"geometry":{"type":"Point","coordinates":[37.42848,-1.80929]}},{"type":"Feature","properties":{"OBJECTID":"4971","Facility_N":"Kyau Dispensary","Type":"Dispensary","Owner":"Ministry of Health","County":"Makueni","Sub_County":"Makueni","Division":"Kaiti","Location":"Ukia","Sub_Locati":"Utaati","Constituen":"KAITI","Nearest_To":"nziu mkt","Latitude":"-1.79238","Longitude":"37.5228"},"geometry":{"type":"Point","coordinates":[37.5228,-1.79238]}},{"type":"Feature","properties":{"OBJECTID":"4977","Facility_N":"Kyenzenzeni Dispensary","Type":"Dispensary","Owner":"Ministry of Health","County":"Makueni","Sub_County":"Kilungu","Division":"Kilungu","Location":"Ilima","Sub_Locati":"Ilima","Constituen":"KAITI","Nearest_To":" ","Latitude":"-1.81774","Longitude":"37.45942"},"geometry":{"type":"Point","coordinates":[37.45942,-1.81774]}},{"type":"Feature","properties":{"OBJECTID":"4984","Facility_N":"Kyuasini Health Centre","Type":"Health Centre","Owner":"Ministry of Health","County":"Makueni","Sub_County":"Makueni","Division":"Kaiti","Location":"Ukia","Sub_Locati":"Kyuasini","Constituen":"KAITI","Nearest_To":"Mukuyuni Mkt","Latitude":"-1.79028","Longitude":"37.47074"},"geometry":{"type":"Point","coordinates":[37.47074,-1.79028]}},{"type":"Feature","properties":{"OBJECTID":"4985","Facility_N":"Kyumbe (AIC) Dispensary","Type":"Dispensary","Owner":"Christian Health Association of Kenya","County":"Makueni","Sub_County":"Nzaui","Division":"Kasikeu","Location":"Kasikeu","Sub_Locati":"Kasikeu","Constituen":"KILOME","Nearest_To":"Kasikeu Mkt","Latitude":"-1.94614","Longitude":"37.4391"},"geometry":{"type":"Point","coordinates":[37.4391,-1.94614]}},{"type":"Feature","properties":{"OBJECTID":"5292","Facility_N":"Lumu Dispensary","Type":"Dispensary","Owner":"Ministry of Health","County":"Makueni","Sub_County":"Mukaa","Division":"Kiou","Location":"Kwale","Sub_Locati":"Lumu","Constituen":"KILOME","Nearest_To":" ","Latitude":"-1.95457","Longitude":"37.36489"},"geometry":{"type":"Point","coordinates":[37.36489,-1.95457]}},{"type":"Feature","properties":{"OBJECTID":"5333","Facility_N":"Maaueli Dispensary","Type":"Dispensary","Owner":"Ministry of Health","County":"Makueni","Sub_County":"Makueni","Division":"Kitise","Location":"Kitise","Sub_Locati":"Maaueli","Constituen":"MAKUENI","Nearest_To":"Kitise","Latitude":"-2.078354","Longitude":"37.92683"},"geometry":{"type":"Point","coordinates":[37.92683,-2.078354]}},{"type":"Feature","properties":{"OBJECTID":"5352","Facility_N":"Machinery Health Care Centre","Type":"Medical Clinic","Owner":"Private Practice - Clinical Officer","County":"Makueni","Sub_County":"Kibwezi","Division":"Machinery","Location":"Utithi","Sub_Locati":"Thange","Constituen":"KIBWEZI","Nearest_To":"Machinery","Latitude":"-2.52696","Longitude":"38.03458"},"geometry":{"type":"Point","coordinates":[38.03458,-2.52696]}},{"type":"Feature","properties":{"OBJECTID":"5409","Facility_N":"Maiani Dispensary","Type":"Dispensary","Owner":"Other Faith Based","County":"Makueni","Sub_County":"Mukaa","Division":"Kilome","Location":"Mukaa","Sub_Locati":"Maiani","Constituen":"KILOME","Nearest_To":"Maiani market","Latitude":"-1.86388","Longitude":"37.29323"},"geometry":{"type":"Point","coordinates":[37.29323,-1.86388]}},{"type":"Feature","properties":{"OBJECTID":"5466","Facility_N":"Makindu Catholic Dispensary","Type":"Dispensary","Owner":"Kenya Episcopal Conference-Catholic Secretariat","County":"Makueni","Sub_County":"Makindu","Division":"Makindu","Location":"Makindu","Sub_Locati":"Manyata","Constituen":"KIBWEZI","Nearest_To":"Makindu","Latitude":"-2.27009","Longitude":"37.82855"},"geometry":{"type":"Point","coordinates":[37.82855,-2.27009]}},{"type":"Feature","properties":{"OBJECTID":"5468","Facility_N":"Makindu District Hospital","Type":"District Hospital","Owner":"Ministry of Health","County":"Makueni","Sub_County":"Makindu","Division":"Makindu","Location":"Makindu","Sub_Locati":"Manyata","Constituen":"KIBWEZI","Nearest_To":"Makindu","Latitude":"-2.28436","Longitude":"37.82463"},"geometry":{"type":"Point","coordinates":[37.82463,-2.28436]}},{"type":"Feature","properties":{"OBJECTID":"5469","Facility_N":"Makindu Nursing Home","Type":"Nursing Home","Owner":"Private Practice - General Practitioner","County":"Makueni","Sub_County":"Makindu","Division":"Makindu","Location":"Makindu","Sub_Locati":"Manyatta","Constituen":"KIBWEZI","Nearest_To":"Makindu","Latitude":"-2.27225","Longitude":"37.87933"},"geometry":{"type":"Point","coordinates":[37.87933,-2.27225]}},{"type":"Feature","properties":{"OBJECTID":"5479","Facility_N":"Makueni county beyond zero mobile clinic","Type":"Dispensary","Owner":"Ministry of Health","County":"Makueni","Sub_County":"Makueni","Division":"Wote","Location":"Wote","Sub_Locati":"Wote","Constituen":"MAKUENI","Nearest_To":"Wote Town","Latitude":"-1.78183","Longitude":"37.62886"},"geometry":{"type":"Point","coordinates":[37.62886,-1.78183]}},{"type":"Feature","properties":{"OBJECTID":"5480","Facility_N":"Makueni District Hospital","Type":"District Hospital","Owner":"Ministry of Health","County":"Makueni","Sub_County":"Makueni","Division":"Wote","Location":"Wote","Sub_Locati":"Unoa","Constituen":"MAKUENI","Nearest_To":"Wote","Latitude":"-1.78363","Longitude":"37.62843"},"geometry":{"type":"Point","coordinates":[37.62843,-1.78363]}},{"type":"Feature","properties":{"OBJECTID":"5481","Facility_N":"Makueni GK Prison Dispensary","Type":"Dispensary","Owner":"Ministry of Health","County":"Makueni","Sub_County":"Makueni","Division":"wote","Location":"wote","Sub_Locati":"unoa","Constituen":"MAKUENI","Nearest_To":"wote","Latitude":"-1.78943","Longitude":"37.61"},"geometry":{"type":"Point","coordinates":[37.61,-1.78943]}},{"type":"Feature","properties":{"OBJECTID":"5482","Facility_N":"Makueni Medical Centre","Type":"Medical Clinic","Owner":"Private Practice - Clinical Officer","County":"Makueni","Sub_County":"Makueni","Division":"Wote","Location":"Wote","Sub_Locati":"Unoa","Constituen":"MAKUENI","Nearest_To":"Wote Town","Latitude":"-1.80453","Longitude":"37.62486"},"geometry":{"type":"Point","coordinates":[37.62486,-1.80453]}},{"type":"Feature","properties":{"OBJECTID":"5483","Facility_N":"Makueni Welmans Medical Clinic","Type":"Medical Clinic","Owner":"Private Practice - Clinical Officer","County":"Makueni","Sub_County":"Makueni","Division":"Wote","Location":"Wote","Sub_Locati":"Wote","Constituen":"MAKUENI","Nearest_To":"Wote","Latitude":"-1.7868","Longitude":"37.63"},"geometry":{"type":"Point","coordinates":[37.63,-1.7868]}},{"type":"Feature","properties":{"OBJECTID":"5564","Facility_N":"Mangala Dispensary","Type":"Dispensary","Owner":"Ministry of Health","County":"Makueni","Sub_County":"Makueni","Division":"Kee","Location":"Watema","Sub_Locati":"Nguluni","Constituen":"KAITI","Nearest_To":"Nguluni Market","Latitude":"-1.74554","Longitude":"37.31665"},"geometry":{"type":"Point","coordinates":[37.31665,-1.74554]}},{"type":"Feature","properties":{"OBJECTID":"5597","Facility_N":"Manza dispensary","Type":"Dispensary","Owner":"Ministry of Health","County":"Makueni","Sub_County":"Makueni","Division":"Kithuki","Location":"Kitise","Sub_Locati":"Manza","Constituen":"MAKUENI","Nearest_To":"Manza","Latitude":"-2.0853","Longitude":"37.84878"},"geometry":{"type":"Point","coordinates":[37.84878,-2.0853]}},{"type":"Feature","properties":{"OBJECTID":"5636","Facility_N":"Maria Salus Infirmorum Dispensary","Type":"Dispensary","Owner":"Community","County":"Makueni","Sub_County":"Mukaa","Division":"Kilome","Location":"Kitaingo","Sub_Locati":"Kiongwani","Constituen":"KILOME","Nearest_To":"Kiongwani market","Latitude":"-1.90648","Longitude":"37.29757"},"geometry":{"type":"Point","coordinates":[37.29757,-1.90648]}},{"type":"Feature","properties":{"OBJECTID":"5696","Facility_N":"Mars Medical Clinic","Type":"Medical Clinic","Owner":"Private Practice - Nurse / Midwife","County":"Makueni","Sub_County":"Kilungu","Division":"Kilungu","Location":"Kilungu","Sub_Locati":"Nduu","Constituen":"KAITI","Nearest_To":"Nunguni","Latitude":"-1.78699","Longitude":"37.36256"},"geometry":{"type":"Point","coordinates":[37.36256,-1.78699]}},{"type":"Feature","properties":{"OBJECTID":"5763","Facility_N":"Masokani Dispensary","Type":"Dispensary","Owner":"Ministry of Health","County":"Makueni","Sub_County":"Mukaa","Division":" ","Location":" ","Sub_Locati":" ","Constituen":"KILOME","Nearest_To":"Masokani market","Latitude":"-1.914","Longitude":"37.42532"},"geometry":{"type":"Point","coordinates":[37.42532,-1.914]}},{"type":"Feature","properties":{"OBJECTID":"5766","Facility_N":"Masongaleni Health Centre","Type":"Health Centre","Owner":"Ministry of Health","County":"Makueni","Sub_County":"Kibwezi","Division":"Kibwezi","Location":"Masongaleni","Sub_Locati":"Masongaleni","Constituen":"KIBWEZI","Nearest_To":"Masongaleni","Latitude":"-2.36966","Longitude":"38.12883"},"geometry":{"type":"Point","coordinates":[38.12883,-2.36966]}},{"type":"Feature","properties":{"OBJECTID":"5768","Facility_N":"Maspa Medical Clinic","Type":"Medical Clinic","Owner":"Private Practice - Clinical Officer","County":"Makueni","Sub_County":"Makueni","Division":"Matiliku","Location":"Matiliku","Sub_Locati":"Matiliku","Constituen":"MAKUENI","Nearest_To":"Matiliku","Latitude":"-1.94834","Longitude":"37.53659"},"geometry":{"type":"Point","coordinates":[37.53659,-1.94834]}},{"type":"Feature","properties":{"OBJECTID":"5770","Facility_N":"Masumba Dispensary","Type":"Dispensary","Owner":"Ministry of Health","County":"Makueni","Sub_County":"Nzaui","Division":"Nguu","Location":"Nguu","Sub_Locati":"Masumba","Constituen":"MAKUENI","Nearest_To":"Emali Town","Latitude":"-2.02901","Longitude":"37.61992"},"geometry":{"type":"Point","coordinates":[37.61992,-2.02901]}},{"type":"Feature","properties":{"OBJECTID":"5793","Facility_N":"Mathanguni Dispensary","Type":"Dispensary","Owner":"Ministry of Health","County":"Makueni","Sub_County":"Makueni","Division":"Kalamba","Location":"Mathanguni","Sub_Locati":"Mathanguni","Constituen":"MAKUENI","Nearest_To":"Matiliku","Latitude":"-1.91605","Longitude":"37.50818"},"geometry":{"type":"Point","coordinates":[37.50818,-1.91605]}},{"type":"Feature","properties":{"OBJECTID":"5810","Facility_N":"Matiliku Catholic Dispensary","Type":"Dispensary","Owner":"Kenya Episcopal Conference-Catholic Secretariat","County":"Makueni","Sub_County":"Nzaui","Division":"Matiliku","Location":"Matiliku","Sub_Locati":"Matiliku","Constituen":"MAKUENI","Nearest_To":"Matiliku Mkt","Latitude":"-1.94669","Longitude":"37.53644"},"geometry":{"type":"Point","coordinates":[37.53644,-1.94669]}},{"type":"Feature","properties":{"OBJECTID":"5811","Facility_N":"Matiliku District Hospital","Type":"District Hospital","Owner":"Ministry of Health","County":"Makueni","Sub_County":"Nzaui","Division":"Matiliku","Location":"Matiliku","Sub_Locati":"Matiliku","Constituen":"MAKUENI","Nearest_To":"Matiliku Mkt","Latitude":"-1.94908","Longitude":"37.5359"},"geometry":{"type":"Point","coordinates":[37.5359,-1.94908]}},{"type":"Feature","properties":{"OBJECTID":"5839","Facility_N":"Matutu Dispensary (Nzaui)","Type":"Dispensary","Owner":"Ministry of Health","County":"Makueni","Sub_County":"Nzaui","Division":"Nguu","Location":"Nguu","Sub_Locati":"Matutu","Constituen":"MAKUENI","Nearest_To":"Matutu","Latitude":"-2.12301","Longitude":"37.62936"},"geometry":{"type":"Point","coordinates":[37.62936,-2.12301]}},{"type":"Feature","properties":{"OBJECTID":"5859","Facility_N":"Mavindini Health Centre","Type":"Health Centre","Owner":"Ministry of Health","County":"Makueni","Sub_County":"Kathonzweni","Division":"Mavindini","Location":"Mavindini","Sub_Locati":"Mavindini","Constituen":"MAKUENI","Nearest_To":"Mavindini","Latitude":"-1.82044","Longitude":"37.78624"},"geometry":{"type":"Point","coordinates":[37.78624,-1.82044]}},{"type":"Feature","properties":{"OBJECTID":"5860","Facility_N":"Mavindu Dispensary","Type":"Dispensary","Owner":"Ministry of Health","County":"Makueni","Sub_County":"Mbooni West","Division":"Tulimani","Location":"Kalawani","Sub_Locati":"Mavindu","Constituen":"MBOONI","Nearest_To":"Manyala Shoping Centre","Latitude":"-1.61731","Longitude":"37.41486"},"geometry":{"type":"Point","coordinates":[37.41486,-1.61731]}},{"type":"Feature","properties":{"OBJECTID":"5861","Facility_N":"Mavivye Model Health Centre","Type":"Dispensary","Owner":"Ministry of Health","County":"Makueni","Sub_County":"Mukaa","Division":"Malili","Location":"Kiima Kiu","Sub_Locati":"Mavinye","Constituen":"KILOME","Nearest_To":"Salama","Latitude":"-1.79044","Longitude":"37.28143"},"geometry":{"type":"Point","coordinates":[37.28143,-1.79044]}},{"type":"Feature","properties":{"OBJECTID":"5907","Facility_N":"Mbavani Dispensary","Type":"Dispensary","Owner":"Ministry of Health","County":"Makueni","Sub_County":"Mbooni East","Division":"Kalawa","Location":"Athi","Sub_Locati":"Kinze","Constituen":"MBOONI","Nearest_To":"Kalawa","Latitude":"-1.6574","Longitude":"37.79262"},"geometry":{"type":"Point","coordinates":[37.79262,-1.6574]}},{"type":"Feature","properties":{"OBJECTID":"5912","Facility_N":"Mbenuu H Centre","Type":"Health Centre","Owner":"Ministry of Health","County":"Makueni","Sub_County":"Nzaui","Division":"Mbitini","Location":"Kyemundu","Sub_Locati":"Kyemundu","Constituen":"MAKUENI","Nearest_To":"MATILIKU","Latitude":"-1.96432","Longitude":"37.47728"},"geometry":{"type":"Point","coordinates":[37.47728,-1.96432]}},{"type":"Feature","properties":{"OBJECTID":"5915","Facility_N":"Mbiini Dispensary","Type":"Dispensary","Owner":"Ministry of Health","County":"Makueni","Sub_County":"Mukaa","Division":" ","Location":" ","Sub_Locati":" ","Constituen":"KILOME","Nearest_To":"Mbiini market","Latitude":"-1.90095","Longitude":"37.34253"},"geometry":{"type":"Point","coordinates":[37.34253,-1.90095]}},{"type":"Feature","properties":{"OBJECTID":"5922","Facility_N":"Mbitini AIC Dispensary","Type":"Dispensary","Owner":"Ministry of Health","County":"Makueni","Sub_County":"Makueni","Division":"Mbitini","Location":"Mbitini","Sub_Locati":"Ngooto","Constituen":"MAKUENI","Nearest_To":"Mutyambua","Latitude":"-1.99394","Longitude":"37.45993"},"geometry":{"type":"Point","coordinates":[37.45993,-1.99394]}},{"type":"Feature","properties":{"OBJECTID":"5923","Facility_N":"Mbitini Catholic Dispensary","Type":"Dispensary","Owner":"Kenya Episcopal Conference-Catholic Secretariat","County":"Makueni","Sub_County":"Nzaui","Division":"Mbitini","Location":"Mbitini","Sub_Locati":"Mbitini","Constituen":"MAKUENI","Nearest_To":"Mulala Mkt","Latitude":"-2.017","Longitude":"37.48195"},"geometry":{"type":"Point","coordinates":[37.48195,-2.017]}},{"type":"Feature","properties":{"OBJECTID":"5932","Facility_N":"Mbooni (AIC) Dispensary","Type":"Dispensary","Owner":"Christian Health Association of Kenya","County":"Makueni","Sub_County":"Mbooni West","Division":"Mbooni","Location":"Mbooni","Sub_Locati":"Uthiuni","Constituen":"MBOONI","Nearest_To":"Tuvilani","Latitude":"-1.63075","Longitude":"37.46534"},"geometry":{"type":"Point","coordinates":[37.46534,-1.63075]}},{"type":"Feature","properties":{"OBJECTID":"5933","Facility_N":"Mbooni District Hospital","Type":"District Hospital","Owner":"Ministry of Health","County":"Makueni","Sub_County":"Mbooni West","Division":"Mbooni","Location":"Mbooni","Sub_Locati":"Mutitu","Constituen":"MBOONI","Nearest_To":"Kikima Market","Latitude":"-1.64501","Longitude":"37.47221"},"geometry":{"type":"Point","coordinates":[37.47221,-1.64501]}},{"type":"Feature","properties":{"OBJECTID":"5938","Facility_N":"Mbuini Dispensary","Type":"Dispensary","Owner":"Ministry of Health","County":"Makueni","Sub_County":"Kilungu","Division":"Kilungu","Location":"Kikoko","Sub_Locati":"Kithangathini","Constituen":"KAITI","Nearest_To":"Kithangathini Market","Latitude":"-1.82251","Longitude":"37.38099"},"geometry":{"type":"Point","coordinates":[37.38099,-1.82251]}},{"type":"Feature","properties":{"OBJECTID":"5939","Facility_N":"Mbui-Nzau Dispensary","Type":"Dispensary","Owner":"Ministry of Health","County":"Makueni","Sub_County":"Makindu","Division":"Kibwezi","Location":"Kikumbulyu North","Sub_Locati":"Mbui-Nzau","Constituen":"KIBWEZI","Nearest_To":"PEFA Church","Latitude":"-2.38431","Longitude":"37.92846"},"geometry":{"type":"Point","coordinates":[37.92846,-2.38431]}},{"type":"Feature","properties":{"OBJECTID":"5940","Facility_N":"Mbukuni Dispensary","Type":"Dispensary","Owner":"Ministry of Health","County":"Makueni","Sub_County":"Mukaa","Division":"Kitaingo","Location":"Mukaa","Sub_Locati":"Kilome","Constituen":"KILOME","Nearest_To":" ","Latitude":"-1.82034","Longitude":"37.34724"},"geometry":{"type":"Point","coordinates":[37.34724,-1.82034]}},{"type":"Feature","properties":{"OBJECTID":"5946","Facility_N":"Mbuvo Health Centre","Type":"Health Centre","Owner":"Ministry of Health","County":"Makueni","Sub_County":"Makueni","Division":"Kathonzweni","Location":"Mbuvo","Sub_Locati":"Mbuvo","Constituen":"MAKUENI","Nearest_To":"wote","Latitude":"-2.07199","Longitude":"37.76967"},"geometry":{"type":"Point","coordinates":[37.76967,-2.07199]}},{"type":"Feature","properties":{"OBJECTID":"6017","Facility_N":"Mercy Medical Clinic","Type":"Medical Clinic","Owner":"Private Practice - Clinical Officer","County":"Makueni","Sub_County":"Makueni","Division":"Wote","Location":"Wote","Sub_Locati":"Unoa","Constituen":"MAKUENI","Nearest_To":"Wote Town","Latitude":"-1.7818","Longitude":"37.62883"},"geometry":{"type":"Point","coordinates":[37.62883,-1.7818]}},{"type":"Feature","properties":{"OBJECTID":"6025","Facility_N":"Mercy Mission Medical Dispensary","Type":"Dispensary","Owner":"Kenya Episcopal Conference-Catholic Secretariat","County":"Makueni","Sub_County":"Mukaa","Division":"Kilome","Location":"Kitaingo","Sub_Locati":"Kiongwani","Constituen":"KILOME","Nearest_To":"Kiongwani market","Latitude":"-1.90984","Longitude":"37.30029"},"geometry":{"type":"Point","coordinates":[37.30029,-1.90984]}},{"type":"Feature","properties":{"OBJECTID":"6100","Facility_N":"Miangeni Dispensary (Makueni)","Type":"Dispensary","Owner":"Ministry of Health","County":"Makueni","Sub_County":"Kathonzweni","Division":"Mavindini","Location":"Mavindini","Sub_Locati":"Miangeni","Constituen":"MAKUENI","Nearest_To":"Miangeni Village","Latitude":"-1.8339","Longitude":"37.82474"},"geometry":{"type":"Point","coordinates":[37.82474,-1.8339]}},{"type":"Feature","properties":{"OBJECTID":"6101","Facility_N":"Miangeni Dispensary (Mbooni)","Type":"Dispensary","Owner":"Ministry of Health","County":"Makueni","Sub_County":"Mbooni East","Division":"Kalawa","Location":"Athi","Sub_Locati":"Miangeni","Constituen":"MBOONI","Nearest_To":"Miangeni","Latitude":"-1.61802","Longitude":"37.75945"},"geometry":{"type":"Point","coordinates":[37.75945,-1.61802]}},{"type":"Feature","properties":{"OBJECTID":"6146","Facility_N":"Mikuyuni Dispensary (Kibwezi West)","Type":"Dispensary","Owner":"Ministry of Health","County":"Makueni","Sub_County":"Makindu","Division":"Kibwezi","Location":"Kikumbulyu West","Sub_Locati":"Mikuyuini","Constituen":"MAKUENI","Nearest_To":"Mikuyuni Market","Latitude":"-2.38783","Longitude":"37.95716"},"geometry":{"type":"Point","coordinates":[37.95716,-2.38783]}},{"type":"Feature","properties":{"OBJECTID":"6201","Facility_N":"Mithumoni Dispensary","Type":"Dispensary","Owner":"Ministry of Health","County":"Makueni","Sub_County":"Makindu","Division":"Nguu/Mulala","Location":"Ithumba","Sub_Locati":"Mithumoni","Constituen":"KIBWEZI","Nearest_To":"Mithumoni Market","Latitude":"-2.00401","Longitude":"37.57081"},"geometry":{"type":"Point","coordinates":[37.57081,-2.00401]}},{"type":"Feature","properties":{"OBJECTID":"6203","Facility_N":"Mitini Miracle Revival Church Clinic","Type":"Medical Clinic","Owner":"Other Faith Based","County":"Makueni","Sub_County":"Kilungu","Division":"Ilima","Location":"Ilima","Sub_Locati":"Kathangathini","Constituen":"KAITI","Nearest_To":"Mitini AIC","Latitude":"-1.82906","Longitude":"37.40773"},"geometry":{"type":"Point","coordinates":[37.40773,-1.82906]}},{"type":"Feature","properties":{"OBJECTID":"6214","Facility_N":"Mituvu Dispensary","Type":"Dispensary","Owner":"Ministry of Health","County":"Makueni","Sub_County":"Mbooni East","Division":"Kako","Location":"Mbimbini","Sub_Locati":"Mituvu","Constituen":"MBOONI","Nearest_To":"Mituvu Market","Latitude":"-1.72411","Longitude":"37.62078"},"geometry":{"type":"Point","coordinates":[37.62078,-1.72411]}},{"type":"Feature","properties":{"OBJECTID":"6408","Facility_N":"Mt Zion Community Health Clinic","Type":"Medical Clinic","Owner":"Private Practice - General Practitioner","County":"Makueni","Sub_County":"Nzaui","Division":"Mulala","Location":"Emali","Sub_Locati":"Emali","Constituen":"MAKUENI","Nearest_To":"Emali  Market","Latitude":"-2.07979","Longitude":"37.47461"},"geometry":{"type":"Point","coordinates":[37.47461,-2.07979]}},{"type":"Feature","properties":{"OBJECTID":"6420","Facility_N":"Mtito andei Sub District","Type":"Sub-District Hospital","Owner":"Ministry of Health","County":"Makueni","Sub_County":"Kibwezi","Division":"Mtito Andei","Location":"Mtito Andei","Sub_Locati":"Kathekani","Constituen":"KIBWEZI","Nearest_To":"Mtito Andei","Latitude":"-2.68997","Longitude":"38.17038"},"geometry":{"type":"Point","coordinates":[38.17038,-2.68997]}},{"type":"Feature","properties":{"OBJECTID":"6520","Facility_N":"Mukuyuni Health Centre","Type":"Health Centre","Owner":"Ministry of Health","County":"Makueni","Sub_County":"Makueni","Division":"Kaiti","Location":"Ukia","Sub_Locati":"Mukuyuni","Constituen":"KAITI","Nearest_To":"Mukuyuni","Latitude":"-1.74837","Longitude":"37.45943"},"geometry":{"type":"Point","coordinates":[37.45943,-1.74837]}},{"type":"Feature","properties":{"OBJECTID":"6545","Facility_N":"Mumbuni Dispensary (Makueni)","Type":"Dispensary","Owner":"Ministry of Health","County":"Makueni","Sub_County":"Makueni","Division":"Wote","Location":"Wote","Sub_Locati":"Mumbuni","Constituen":"MAKUENI","Nearest_To":"Wote","Latitude":"-1.85564","Longitude":"37.60425"},"geometry":{"type":"Point","coordinates":[37.60425,-1.85564]}},{"type":"Feature","properties":{"OBJECTID":"6554","Facility_N":"Mumo (AIC) Health Centre","Type":"Health Centre","Owner":"Christian Health Association of Kenya","County":"Makueni","Sub_County":"Kathonzweni","Division":"Kathonzweni","Location":"Mbuvo","Sub_Locati":"Kituluni","Constituen":"MAKUENI","Nearest_To":"Mbuvo","Latitude":"-2.01237","Longitude":"37.77248"},"geometry":{"type":"Point","coordinates":[37.77248,-2.01237]}},{"type":"Feature","properties":{"OBJECTID":"6624","Facility_N":"Musalala Dispensary","Type":"Dispensary","Owner":"Ministry of Health","County":"Makueni","Sub_County":"Kilungu","Division":"Kilungu","Location":"Kilungu","Sub_Locati":"Musalala","Constituen":"KAITI","Nearest_To":"Nunguni","Latitude":"-1.77567","Longitude":"37.40665"},"geometry":{"type":"Point","coordinates":[37.40665,-1.77567]}},{"type":"Feature","properties":{"OBJECTID":"6627","Facility_N":"Musau Medical Clinic","Type":"Medical Clinic","Owner":"Private Practice - Clinical Officer","County":"Makueni","Sub_County":"Nzaui","Division":"Mulala","Location":"Mulala","Sub_Locati":"Emali","Constituen":"MAKUENI","Nearest_To":"Emali","Latitude":"-2.0811","Longitude":"37.4709"},"geometry":{"type":"Point","coordinates":[37.4709,-2.0811]}},{"type":"Feature","properties":{"OBJECTID":"6641","Facility_N":"Musoa SDA Dispensary","Type":"Dispensary","Owner":"Other Faith Based","County":"Makueni","Sub_County":"Mbooni West","Division":"Tulimani","Location":"Yandue","Sub_Locati":"Mbanya","Constituen":"MBOONI","Nearest_To":"Kalawani","Latitude":"-1.60149","Longitude":"37.44696"},"geometry":{"type":"Point","coordinates":[37.44696,-1.60149]}},{"type":"Feature","properties":{"OBJECTID":"6654","Facility_N":"Mutembuku Dispensary","Type":"Dispensary","Owner":"Ministry of Health","County":"Makueni","Sub_County":"Mbooni East","Division":"Kalawa","Location":"Kathulumbi","Sub_Locati":"Mutembuku","Constituen":"MBOONI","Nearest_To":"Mutembuku Market","Latitude":"-1.69906","Longitude":"37.81183"},"geometry":{"type":"Point","coordinates":[37.81183,-1.69906]}},{"type":"Feature","properties":{"OBJECTID":"6674","Facility_N":"Mutheu Edel Medical Clinic (Ulilinzi)","Type":"Medical Clinic","Owner":"Private Practice - Nurse / Midwife","County":"Makueni","Sub_County":"Kibwezi","Division":" ","Location":" ","Sub_Locati":" ","Constituen":"KIBWEZI","Nearest_To":"Ulilinzi","Latitude":"-2.4135","Longitude":"38.15364"},"geometry":{"type":"Point","coordinates":[38.15364,-2.4135]}},{"type":"Feature","properties":{"OBJECTID":"6676","Facility_N":"Muthingiini Dispensary","Type":"Dispensary","Owner":"Ministry of Health","County":"Makueni","Sub_County":"Kibwezi","Division":" ","Location":" ","Sub_Locati":" ","Constituen":"KIBWEZI","Nearest_To":" ","Latitude":"-2.60206","Longitude":"38.0453"},"geometry":{"type":"Point","coordinates":[38.0453,-2.60206]}},{"type":"Feature","properties":{"OBJECTID":"6681","Facility_N":"Muthungue Dispensary (Kibwezi East)","Type":"Dispensary","Owner":"Ministry of Health","County":"Makueni","Sub_County":"Kibwezi","Division":" ","Location":" ","Sub_Locati":" ","Constituen":"KIBWEZI","Nearest_To":" ","Latitude":"-2.5057","Longitude":"37.98718"},"geometry":{"type":"Point","coordinates":[37.98718,-2.5057]}},{"type":"Feature","properties":{"OBJECTID":"6686","Facility_N":"Mutiluni Dispensary","Type":"Dispensary","Owner":"Ministry of Health","County":"Makueni","Sub_County":"Mukaa","Division":"Kilome","Location":"Kilome","Sub_Locati":"Mutiluni","Constituen":"KILOME","Nearest_To":"Kilome   Mkt","Latitude":"-1.80249","Longitude":"37.32236"},"geometry":{"type":"Point","coordinates":[37.32236,-1.80249]}},{"type":"Feature","properties":{"OBJECTID":"6692","Facility_N":"Mutini Dispensary","Type":"Dispensary","Owner":"Ministry of Health","County":"Makueni","Sub_County":"Kathonzweni","Division":"Kathonzweni","Location":"Mbuvo","Sub_Locati":"Kiangini","Constituen":"MAKUENI","Nearest_To":"Mutini Market","Latitude":"-2.10642","Longitude":"37.82463"},"geometry":{"type":"Point","coordinates":[37.82463,-2.10642]}},{"type":"Feature","properties":{"OBJECTID":"6717","Facility_N":"Mutula Health Clinic","Type":"Medical Clinic","Owner":"Private Practice - Clinical Officer","County":"Makueni","Sub_County":"Makueni","Division":"Mbitini","Location":"Mbitini","Sub_Locati":"Kwamutula","Constituen":"MAKUENI","Nearest_To":"Kwamutula","Latitude":"-1.98484","Longitude":"37.47237"},"geometry":{"type":"Point","coordinates":[37.47237,-1.98484]}},{"type":"Feature","properties":{"OBJECTID":"6718","Facility_N":"Mutulani Dispensary","Type":"Dispensary","Owner":"Ministry of Health","County":"Makueni","Sub_County":"Makueni","Division":"Wote","Location":"Wote","Sub_Locati":"Mumbuni","Constituen":"MAKUENI","Nearest_To":"Nziu Mkt","Latitude":"-1.71029","Longitude":"37.30618"},"geometry":{"type":"Point","coordinates":[37.30618,-1.71029]}},{"type":"Feature","properties":{"OBJECTID":"6719","Facility_N":"Mutulani Dispensary(KAITI)","Type":"Dispensary","Owner":"Ministry of Health","County":"Makueni","Sub_County":"Kilungu","Division":"Kee","Location":"Watema","Sub_Locati":"Watema","Constituen":"KAITI","Nearest_To":"Mutulani","Latitude":"-1.71029","Longitude":"37.30618"},"geometry":{"type":"Point","coordinates":[37.30618,-1.71029]}},{"type":"Feature","properties":{"OBJECTID":"6724","Facility_N":"Mutyambua Dispensary","Type":"Dispensary","Owner":"Ministry of Health","County":"Makueni","Sub_County":"Nzaui","Division":"Mbitini","Location":"Mutyambua","Sub_Locati":"Mutyambua","Constituen":"MAKUENI","Nearest_To":"Sultan Hamud","Latitude":"-1.97084","Longitude":"37.44654"},"geometry":{"type":"Point","coordinates":[37.44654,-1.97084]}},{"type":"Feature","properties":{"OBJECTID":"6726","Facility_N":"Muua Dispensary","Type":"Dispensary","Owner":"Ministry of Health","County":"Makueni","Sub_County":"Mukaa","Division":" ","Location":" ","Sub_Locati":" ","Constituen":"KILOME","Nearest_To":" ","Latitude":"-1.91622","Longitude":"37.33427"},"geometry":{"type":"Point","coordinates":[37.33427,-1.91622]}},{"type":"Feature","properties":{"OBJECTID":"6727","Facility_N":"Muuani Rural Health Dispensary","Type":"Dispensary","Owner":"Private Practice - Unspecified","County":"Makueni","Sub_County":"Mbooni West","Division":"Tulimani","Location":"Kalawani","Sub_Locati":"Kalawani","Constituen":"MBOONI","Nearest_To":"Kalawani Market","Latitude":"-1.59504","Longitude":"37.43853"},"geometry":{"type":"Point","coordinates":[37.43853,-1.59504]}},{"type":"Feature","properties":{"OBJECTID":"6731","Facility_N":"Muusini Dispensary (Makueni)","Type":"Dispensary","Owner":"Ministry of Health","County":"Makueni","Sub_County":"Kathonzweni","Division":"Kathonzweni","Location":"Muusini","Sub_Locati":"Muusini","Constituen":"MAKUENI","Nearest_To":"Muusini","Latitude":"-1.85327","Longitude":"37.72627"},"geometry":{"type":"Point","coordinates":[37.72627,-1.85327]}},{"type":"Feature","properties":{"OBJECTID":"6745","Facility_N":"Mwaani Dispensary","Type":"Dispensary","Owner":"Ministry of Health","County":"Makueni","Sub_County":"Kilungu","Division":"Kaiti","Location":"Kithembe","Sub_Locati":"Kithembe","Constituen":"KAITI","Nearest_To":"Mwaani Market","Latitude":"-1.85947","Longitude":"37.43452"},"geometry":{"type":"Point","coordinates":[37.43452,-1.85947]}},{"type":"Feature","properties":{"OBJECTID":"6774","Facility_N":"Mwanyani Dispensary","Type":"Dispensary","Owner":"Ministry of Health","County":"Makueni","Sub_County":"Nzaui","Division":"Mbitini","Location":"Mbitini","Sub_Locati":"Mwanyani","Constituen":"MAKUENI","Nearest_To":"emali town","Latitude":"-2.03","Longitude":"37.51221"},"geometry":{"type":"Point","coordinates":[37.51221,-2.03]}},{"type":"Feature","properties":{"OBJECTID":"6801","Facility_N":"Mweini Dispensary","Type":"Dispensary","Owner":"Ministry of Health","County":"Makueni","Sub_County":"Nzaui","Division":"Nguu","Location":"Mweini","Sub_Locati":"Mweini","Constituen":"MAKUENI","Nearest_To":" Emali","Latitude":"-2.068","Longitude":"37.681"},"geometry":{"type":"Point","coordinates":[37.681,-2.068]}},{"type":"Feature","properties":{"OBJECTID":"6873","Facility_N":"Nairobi Pathologist Clinic","Type":"Medical Clinic","Owner":"Private Practice - Clinical Officer","County":"Makueni","Sub_County":"Makindu","Division":"Makindu","Location":"Makindu","Sub_Locati":"Manyata","Constituen":"KIBWEZI","Nearest_To":"Makindu","Latitude":"-2.28332","Longitude":"37.82277"},"geometry":{"type":"Point","coordinates":[37.82277,-2.28332]}},{"type":"Feature","properties":{"OBJECTID":"7019","Facility_N":"Ndalani Dispensary (Makindu)","Type":"Dispensary","Owner":"Ministry of Health","County":"Makueni","Sub_County":"Makindu","Division":"Makindu","Location":"Kiboko","Sub_Locati":"Kamboo","Constituen":"KIBWEZI","Nearest_To":"Ndalani","Latitude":"-2.18587","Longitude":"37.95078"},"geometry":{"type":"Point","coordinates":[37.95078,-2.18587]}},{"type":"Feature","properties":{"OBJECTID":"7032","Facility_N":"Ndauni Dispensary","Type":"Dispensary","Owner":"Ministry of Health","County":"Makueni","Sub_County":"Mbooni East","Division":"Kathulumbi","Location":"Ndauni","Sub_Locati":"Ndauni","Constituen":"MBOONI","Nearest_To":"Ndauni Market","Latitude":"-1.71141","Longitude":"37.73645"},"geometry":{"type":"Point","coordinates":[37.73645,-1.71141]}},{"type":"Feature","properties":{"OBJECTID":"7076","Facility_N":"Nduluku Dispensary","Type":"Dispensary","Owner":"Ministry of Health","County":"Makueni","Sub_County":"Mbooni East","Division":"Waia","Location":"Nduluku","Sub_Locati":"Mukuku","Constituen":"MBOONI","Nearest_To":"Mukuku Market","Latitude":"-1.58716","Longitude":"37.61742"},"geometry":{"type":"Point","coordinates":[37.61742,-1.58716]}},{"type":"Feature","properties":{"OBJECTID":"7077","Facility_N":"Nduluni Dispensary","Type":"Dispensary","Owner":"Ministry of Health","County":"Makueni","Sub_County":"Mukaa","Division":" ","Location":" ","Sub_Locati":" ","Constituen":"KILOME","Nearest_To":" ","Latitude":"-1.88757","Longitude":"37.38873"},"geometry":{"type":"Point","coordinates":[37.38873,-1.88757]}},{"type":"Feature","properties":{"OBJECTID":"7078","Facility_N":"Ndumbi Dispensary","Type":"Dispensary","Owner":"Ministry of Health","County":"Makueni","Sub_County":"Mbooni East","Division":"Kisau","Location":"Kisau","Sub_Locati":"Mangani","Constituen":"MBOONI","Nearest_To":"Ndumbi Market","Latitude":"-1.70966","Longitude":"37.55135"},"geometry":{"type":"Point","coordinates":[37.55135,-1.70966]}},{"type":"Feature","properties":{"OBJECTID":"7082","Facility_N":"Ndunguni Dispensary","Type":"Dispensary","Owner":"Ministry of Health","County":"Makueni","Sub_County":"Nzaui","Division":"Nguu","Location":"kikuumini","Sub_Locati":"kikuumini","Constituen":"MAKUENI","Nearest_To":"Ndunguni","Latitude":"-2.08684","Longitude":"37.58563"},"geometry":{"type":"Point","coordinates":[37.58563,-2.08684]}},{"type":"Feature","properties":{"OBJECTID":"7093","Facility_N":"Nduuni Dispensary","Type":"Dispensary","Owner":"Ministry of Health","County":"Makueni","Sub_County":"Mbooni West","Division":"Kiteta","Location":"Kisau","Sub_Locati":"Kalamani","Constituen":"MBOONI","Nearest_To":"Nduuni Market","Latitude":"-1.61865","Longitude":"37.53291"},"geometry":{"type":"Point","coordinates":[37.53291,-1.61865]}},{"type":"Feature","properties":{"OBJECTID":"7164","Facility_N":"Ngaakaa Dispensary","Type":"Dispensary","Owner":"Ministry of Health","County":"Makueni","Sub_County":"Makindu","Division":"Makindu","Location":"Twaandu","Sub_Locati":"Ngaakaa","Constituen":"KIBWEZI","Nearest_To":"Ngaakaa market","Latitude":"-2.1379","Longitude":"37.71468"},"geometry":{"type":"Point","coordinates":[37.71468,-2.1379]}},{"type":"Feature","properties":{"OBJECTID":"7165","Facility_N":"Ngai Dispensary","Type":"Dispensary","Owner":"Ministry of Health","County":"Makueni","Sub_County":"Mbooni West","Division":"Mbooni","Location":"Ngai","Sub_Locati":"Ngai","Constituen":"MBOONI","Nearest_To":"Kwakimae Market","Latitude":"-1.70775","Longitude":"37.50103"},"geometry":{"type":"Point","coordinates":[37.50103,-1.70775]}},{"type":"Feature","properties":{"OBJECTID":"7221","Facility_N":"Ngiini Dispensary","Type":"Dispensary","Owner":"Ministry of Health","County":"Makueni","Sub_County":"Mukaa","Division":"Malili","Location":"Malili","Sub_Locati":"Mavivye","Constituen":"KILOME","Nearest_To":"Salama","Latitude":"-1.75444","Longitude":"37.26741"},"geometry":{"type":"Point","coordinates":[37.26741,-1.75444]}},{"type":"Feature","properties":{"OBJECTID":"7225","Facility_N":"Ngiluni Dispensary","Type":"Dispensary","Owner":"Ministry of Health","County":"Makueni","Sub_County":"Kibwezi","Division":"Mtito Andei","Location":"Mtito Andei","Sub_Locati":"Mtito Andei","Constituen":"KIBWEZI","Nearest_To":"Mtito Andei","Latitude":"-2.66688","Longitude":"38.29158"},"geometry":{"type":"Point","coordinates":[38.29158,-2.66688]}},{"type":"Feature","properties":{"OBJECTID":"7226","Facility_N":"Ngiluni Dispensary (Kaiti)","Type":"Dispensary","Owner":"Ministry of Health","County":"Makueni","Sub_County":"Kilungu","Division":"Kaiti","Location":"Kivani","Sub_Locati":"Makongo","Constituen":"KAITI","Nearest_To":"Mukuyuni","Latitude":"-1.71431","Longitude":"37.42915"},"geometry":{"type":"Point","coordinates":[37.42915,-1.71431]}},{"type":"Feature","properties":{"OBJECTID":"7242","Facility_N":"Ngomano Dispensary","Type":"Dispensary","Owner":"Ministry of Health","County":"Makueni","Sub_County":"Makueni","Division":"Kathonzweni","Location":"Kwakavisi","Sub_Locati":"Kwakavisi","Constituen":"MAKUENI","Nearest_To":"Kwakavisi","Latitude":"-2.05275","Longitude":"37.72855"},"geometry":{"type":"Point","coordinates":[37.72855,-2.05275]}},{"type":"Feature","properties":{"OBJECTID":"7289","Facility_N":"Ngwata Health Centre","Type":"Health Centre","Owner":"Ministry of Health","County":"Makueni","Sub_County":"Kibwezi","Division":"Mtito Andei","Location":"Ngwata","Sub_Locati":"Ngwata","Constituen":"KIBWEZI","Nearest_To":"Machinery","Latitude":"-2.52946","Longitude":"38.04965"},"geometry":{"type":"Point","coordinates":[38.04965,-2.52946]}},{"type":"Feature","properties":{"OBJECTID":"7356","Facility_N":"North Star Alliance Clinic","Type":"Medical Clinic","Owner":"Non-Governmental Organizations","County":"Makueni","Sub_County":"Nzaui","Division":"Mulala","Location":"Mulala","Sub_Locati":"Emali","Constituen":"MAKUENI","Nearest_To":"Emali","Latitude":"-2.08018","Longitude":"37.47385"},"geometry":{"type":"Point","coordinates":[37.47385,-2.08018]}},{"type":"Feature","properties":{"OBJECTID":"7368","Facility_N":"Nthangu Dispensary","Type":"Dispensary","Owner":"Ministry of Health","County":"Makueni","Sub_County":"Makueni","Division":"Kaiti","Location":"Nthangu","Sub_Locati":"Nthangu","Constituen":"KAITI","Nearest_To":"Wote Town","Latitude":"-1.7303","Longitude":"37.58922"},"geometry":{"type":"Point","coordinates":[37.58922,-1.7303]}},{"type":"Feature","properties":{"OBJECTID":"7370","Facility_N":"Nthimbani Dispensary","Type":"Dispensary","Owner":"Ministry of Health","County":"Makueni","Sub_County":"Makueni","Division":"Kaiti","Location":"Iuani","Sub_Locati":"Iuani","Constituen":"KAITI","Nearest_To":"Mukuyuni","Latitude":"-1.73518","Longitude":"37.51569"},"geometry":{"type":"Point","coordinates":[37.51569,-1.73518]}},{"type":"Feature","properties":{"OBJECTID":"7371","Facility_N":"Nthongoni Dispensary","Type":"Dispensary","Owner":"Ministry of Health","County":"Makueni","Sub_County":"Makindu","Division":"Kibwezi","Location":"Kikumbulyu North","Sub_Locati":"Ndetani","Constituen":"KIBWEZI","Nearest_To":"Nthongoni Market","Latitude":"-2.32426","Longitude":"37.97916"},"geometry":{"type":"Point","coordinates":[37.97916,-2.32426]}},{"type":"Feature","properties":{"OBJECTID":"7372","Facility_N":"Nthongoni Dispensary (Kibwezi)","Type":"Health Centre","Owner":"Ministry of Health","County":"Makueni","Sub_County":"Kibwezi","Division":"Mtito Andei","Location":"Nthongoni","Sub_Locati":"Mangelete","Constituen":"KIBWEZI","Nearest_To":"Nthongoni","Latitude":"-2.70536","Longitude":"38.04795"},"geometry":{"type":"Point","coordinates":[38.04795,-2.70536]}},{"type":"Feature","properties":{"OBJECTID":"7376","Facility_N":"Nthunguni Dispensary (Kibwezi East)","Type":"Dispensary","Owner":"Ministry of Health","County":"Makueni","Sub_County":"Kibwezi","Division":" ","Location":" ","Sub_Locati":" ","Constituen":"KIBWEZI","Nearest_To":" ","Latitude":"-2.64454","Longitude":"38.1984"},"geometry":{"type":"Point","coordinates":[38.1984,-2.64454]}},{"type":"Feature","properties":{"OBJECTID":"7388","Facility_N":"Nunguni Medical Clinic","Type":"Medical Clinic","Owner":"Private Practice - Nurse / Midwife","County":"Makueni","Sub_County":"Kilungu","Division":"Kilungu","Location":"Kithembe","Sub_Locati":"Nduu","Constituen":"KAITI","Nearest_To":"Nunguni","Latitude":"-1.79308","Longitude":"37.36337"},"geometry":{"type":"Point","coordinates":[37.36337,-1.79308]}},{"type":"Feature","properties":{"OBJECTID":"7396","Facility_N":"Nyaani Dispensary(KAITI)","Type":"Dispensary","Owner":"Ministry of Health","County":"Makueni","Sub_County":"Kilungu","Division":"Kilungu","Location":"Kithembe","Sub_Locati":"Ndiani","Constituen":"KAITI","Nearest_To":"Nyaani Market","Latitude":"-1.77258","Longitude":"37.38918"},"geometry":{"type":"Point","coordinates":[37.38918,-1.77258]}},{"type":"Feature","properties":{"OBJECTID":"7602","Facility_N":"Nzeeni Dispensary","Type":"Dispensary","Owner":"Ministry of Health","County":"Makueni","Sub_County":"Makueni","Division":"Matiliku","Location":"Kithumba","Sub_Locati":"Nzeeni","Constituen":"MAKUENI","Nearest_To":"Matiliku","Latitude":"-1.93725","Longitude":"37.49696"},"geometry":{"type":"Point","coordinates":[37.49696,-1.93725]}},{"type":"Feature","properties":{"OBJECTID":"7604","Facility_N":"Nzeveni Dispensary","Type":"Health Centre","Owner":"Ministry of Health","County":"Makueni","Sub_County":"Kibwezi","Division":"Mtito Andei","Location":"Nzambani","Sub_Locati":"Muthingiini","Constituen":"KIBWEZI","Nearest_To":"Nzeveni","Latitude":"-2.59452","Longitude":"37.99692"},"geometry":{"type":"Point","coordinates":[37.99692,-2.59452]}},{"type":"Feature","properties":{"OBJECTID":"7607","Facility_N":"Nziu Health Centre","Type":"Health Centre","Owner":"Ministry of Health","County":"Makueni","Sub_County":"Makueni","Division":"Wote","Location":"Nziu","Sub_Locati":"Nziu","Constituen":"MAKUENI","Nearest_To":"Nziu Mkt","Latitude":"-1.81609","Longitude":"37.53742"},"geometry":{"type":"Point","coordinates":[37.53742,-1.81609]}},{"type":"Feature","properties":{"OBJECTID":"7613","Facility_N":"Nzoila Dispensary","Type":"Dispensary","Owner":"Ministry of Health","County":"Makueni","Sub_County":"Kibwezi","Division":"Mtito Andei","Location":"Kambu","Sub_Locati":"Kitengei","Constituen":"KIBWEZI","Nearest_To":"Kambu","Latitude":"-2.57764","Longitude":"38.15403"},"geometry":{"type":"Point","coordinates":[38.15403,-2.57764]}},{"type":"Feature","properties":{"OBJECTID":"7615","Facility_N":"Nzouni Dispensary(Kaiti)","Type":"Dispensary","Owner":"Ministry of Health","County":"Makueni","Sub_County":"Kilungu","Division":"Kaiti","Location":"Ukia","Sub_Locati":"Mukuyuni","Constituen":"KAITI","Nearest_To":"Mukuyuni","Latitude":"-1.75911","Longitude":"37.42637"},"geometry":{"type":"Point","coordinates":[37.42637,-1.75911]}},{"type":"Feature","properties":{"OBJECTID":"7617","Facility_N":"Nzukini Dispensary(KAITI)","Type":"Dispensary","Owner":"Ministry of Health","County":"Makueni","Sub_County":"Kilungu","Division":"Ilima","Location":"Kyamuoso","Sub_Locati":" ","Constituen":"KAITI","Nearest_To":" ","Latitude":"-1.82117","Longitude":"37.43601"},"geometry":{"type":"Point","coordinates":[37.43601,-1.82117]}},{"type":"Feature","properties":{"OBJECTID":"7866","Facility_N":"Our Lady Of Mercy","Type":"Medical Clinic","Owner":"Private Practice - Nurse / Midwife","County":"Makueni","Sub_County":"Mbooni East","Division":"Kisau","Location":"Kalimani","Sub_Locati":"Maiyuni","Constituen":"MBOONI","Nearest_To":"Mbumbuni","Latitude":"-1.62097","Longitude":"37.56063"},"geometry":{"type":"Point","coordinates":[37.56063,-1.62097]}},{"type":"Feature","properties":{"OBJECTID":"7936","Facility_N":"PCEA Kasasule Dispensary","Type":"Dispensary","Owner":"Christian Health Association of Kenya","County":"Makueni","Sub_County":"Kibwezi","Division":"Macinery","Location":"Utithi","Sub_Locati":"Thange","Constituen":"KIBWEZI","Nearest_To":"Kinyambu","Latitude":"-2.53789","Longitude":"37.95338"},"geometry":{"type":"Point","coordinates":[37.95338,-2.53789]}},{"type":"Feature","properties":{"OBJECTID":"7938","Facility_N":"PCEA Kibwezi Dispensary","Type":"Dispensary","Owner":"Christian Health Association of Kenya","County":"Makueni","Sub_County":"Kibwezi","Division":"Kibwezi","Location":"Kikumbulyu","Sub_Locati":"Mikuyuni","Constituen":"KIBWEZI","Nearest_To":"Kibwezi","Latitude":"-2.41247","Longitude":"37.96732"},"geometry":{"type":"Point","coordinates":[37.96732,-2.41247]}},{"type":"Feature","properties":{"OBJECTID":"8024","Facility_N":"Ponya Med Clinic","Type":"Medical Clinic","Owner":"Private Practice - Clinical Officer","County":"Makueni","Sub_County":"Mbooni East","Division":"Kisau","Location":"Waia","Sub_Locati":"Usalala","Constituen":"MBOONI","Nearest_To":"Mbumbuni","Latitude":"-1.6209","Longitude":"37.56282"},"geometry":{"type":"Point","coordinates":[37.56282,-1.6209]}},{"type":"Feature","properties":{"OBJECTID":"8025","Facility_N":"Ponya Medical Clinic","Type":"Medical Clinic","Owner":"Private Practice - Clinical Officer","County":"Makueni","Sub_County":"Kathonzweni","Division":"Kathonzweni","Location":"Kathonzweni","Sub_Locati":"Ituka","Constituen":"MAKUENI","Nearest_To":"Kathonzweni town","Latitude":"-1.6209","Longitude":"37.56282"},"geometry":{"type":"Point","coordinates":[37.56282,-1.6209]}},