{"type":"FeatureCollection","features":[{"type":"Feature","properties":{"OBJECTID":"15","Facility_N":"AAR Medical Services (Docks)","Type":"Medical Clinic","Owner":"Private Enterprise (Institution)","County":"Mombasa","Sub_County":"Mvita","Division":"Island","Location":"Ganjoni","Sub_Locati":"Ganjoni","Constituen":"MVITA","Nearest_To":"Mombasa","Latitude":"-4.06012","Longitude":"39.66429"},"geometry":{"type":"Point","coordinates":[39.66429,-4.06012]}},{"type":"Feature","properties":{"OBJECTID":"97","Facility_N":"Afya Medical Centre","Type":"Medical Clinic","Owner":"Private Practice - Clinical Officer","County":"Mombasa","Sub_County":"Kisauni","Division":"Kisauni","Location":"Kisauni","Sub_Locati":"Bamburi","Constituen":"KISAUNI","Nearest_To":"Bamburi","Latitude":"-4.00659","Longitude":"39.70123"},"geometry":{"type":"Point","coordinates":[39.70123,-4.00659]}},{"type":"Feature","properties":{"OBJECTID":"123","Facility_N":"Afyafirst Medical Center","Type":"Medical Clinic","Owner":"Private Practice - General Practitioner","County":"Mombasa","Sub_County":"Mvita","Division":"Island","Location":"Tudor","Sub_Locati":"Spark","Constituen":"MVITA","Nearest_To":"Majengo","Latitude":"-4.04277","Longitude":"39.66018"},"geometry":{"type":"Point","coordinates":[39.66018,-4.04277]}},{"type":"Feature","properties":{"OBJECTID":"135","Facility_N":"Aga Khan Hospital (Mombasa)","Type":"Other Hospital","Owner":"Private Enterprise (Institution)","County":"Mombasa","Sub_County":"Mvita","Division":"Island","Location":"Ganjoni","Sub_Locati":"Kizingo","Constituen":"MVITA","Nearest_To":"Mombasa","Latitude":"-4.07012","Longitude":"39.67003"},"geometry":{"type":"Point","coordinates":[39.67003,-4.07012]}},{"type":"Feature","properties":{"OBJECTID":"161","Facility_N":"AHF Soko Clinic","Type":"Medical Clinic","Owner":"Non-Governmental Organizations","County":"Mombasa","Sub_County":"Kisauni","Division":"Kisauni","Location":"Kongowea","Sub_Locati":"Kongowea","Constituen":"KISAUNI","Nearest_To":"Kongowea","Latitude":"-4.04153","Longitude":"39.68325"},"geometry":{"type":"Point","coordinates":[39.68325,-4.04153]}},{"type":"Feature","properties":{"OBJECTID":"186","Facility_N":"Airport View Medical Clinic","Type":"Medical Clinic","Owner":"Private Enterprise (Institution)","County":"Mombasa","Sub_County":"Changamwe","Division":"Changamwe","Location":"Changamwe","Sub_Locati":"Changamwe","Constituen":"CHANGAMWE","Nearest_To":"Mombasa","Latitude":"-4.02982","Longitude":"39.6125"},"geometry":{"type":"Point","coordinates":[39.6125,-4.02982]}},{"type":"Feature","properties":{"OBJECTID":"196","Facility_N":"Akemo Medical Clinic","Type":"Medical Clinic","Owner":"Private Practice - Nurse / Midwife","County":"Mombasa","Sub_County":"Likoni","Division":"Likoni","Location":"Likoni","Sub_Locati":" ","Constituen":"LIKONI","Nearest_To":"Mombasa","Latitude":"-4.08743","Longitude":"39.65945"},"geometry":{"type":"Point","coordinates":[39.65945,-4.08743]}},{"type":"Feature","properties":{"OBJECTID":"212","Facility_N":"Al Azhar Medical Clinic","Type":"Medical Clinic","Owner":"Private Practice - Nurse / Midwife","County":"Mombasa","Sub_County":"Mvita","Division":"Island","Location":"Majengo","Sub_Locati":"Guraya","Constituen":"MVITA","Nearest_To":" ","Latitude":"-4.05469","Longitude":"39.66462"},"geometry":{"type":"Point","coordinates":[39.66462,-4.05469]}},{"type":"Feature","properties":{"OBJECTID":"213","Facility_N":"Al Farooq Hospital","Type":"Other Hospital","Owner":"Private Enterprise (Institution)","County":"Mombasa","Sub_County":"Mvita","Division":"Island","Location":"Majengo","Sub_Locati":"Majengo","Constituen":"MVITA","Nearest_To":"Sega market - Mombasa","Latitude":"-4.04899","Longitude":"39.66513"},"geometry":{"type":"Point","coordinates":[39.66513,-4.04899]}},{"type":"Feature","properties":{"OBJECTID":"217","Facility_N":"Al Riyadh Medical Clinic","Type":"Medical Clinic","Owner":"Private Enterprise (Institution)","County":"Mombasa","Sub_County":"Changamwe","Division":"Changamwe","Location":"Changamwe","Sub_Locati":"Changamwe","Constituen":"CHANGAMWE","Nearest_To":"Mombasa","Latitude":"-4.02498","Longitude":"39.62522"},"geometry":{"type":"Point","coordinates":[39.62522,-4.02498]}},{"type":"Feature","properties":{"OBJECTID":"218","Facility_N":"Al-Agsa Medical Clinic","Type":"Medical Clinic","Owner":"Private Enterprise (Institution)","County":"Mombasa","Sub_County":"Mvita","Division":"Island","Location":"Majengo","Sub_Locati":"Majengo","Constituen":"MVITA","Nearest_To":"Mombasa","Latitude":"-4.04328","Longitude":"39.66141"},"geometry":{"type":"Point","coordinates":[39.66141,-4.04328]}},{"type":"Feature","properties":{"OBJECTID":"226","Facility_N":"Al-Bir Medical Centre","Type":"Medical Clinic","Owner":"Private Enterprise (Institution)","County":"Mombasa","Sub_County":"Kisauni","Division":"Island","Location":"Tononoka","Sub_Locati":"Tononoka","Constituen":"KISAUNI","Nearest_To":"Mombasa","Latitude":"-4.05228","Longitude":"39.67372"},"geometry":{"type":"Point","coordinates":[39.67372,-4.05228]}},{"type":"Feature","properties":{"OBJECTID":"227","Facility_N":"Al-Bir Medical Centre (Kilindini)","Type":"Medical Clinic","Owner":"Private Enterprise (Institution)","County":"Mombasa","Sub_County":"Changamwe","Division":"Changamwe","Location":"Portreitz","Sub_Locati":"Kwahola","Constituen":"CHANGAMWE","Nearest_To":"Mombasa","Latitude":"-4.03019","Longitude":"39.62144"},"geometry":{"type":"Point","coordinates":[39.62144,-4.03019]}},{"type":"Feature","properties":{"OBJECTID":"234","Facility_N":"Al-Firdaus Health Care","Type":"Medical Clinic","Owner":"Private Practice - General Practitioner","County":"Mombasa","Sub_County":"Mvita","Division":"Island","Location":"Tononoka","Sub_Locati":"Tononoka","Constituen":"MVITA","Nearest_To":"Majengo","Latitude":"-4.04535","Longitude":"39.66511"},"geometry":{"type":"Point","coordinates":[39.66511,-4.04535]}},{"type":"Feature","properties":{"OBJECTID":"259","Facility_N":"Alms House Dispensary","Type":"Dispensary","Owner":"Local Authority","County":"Mombasa","Sub_County":"Mvita","Division":"Island","Location":"Tudor","Sub_Locati":"Makande","Constituen":"MVITA","Nearest_To":"Majendo","Latitude":"-4.03733","Longitude":"39.65704"},"geometry":{"type":"Point","coordinates":[39.65704,-4.03733]}},{"type":"Feature","properties":{"OBJECTID":"293","Facility_N":"Amani Medical Clinic (Changamwe)","Type":"Medical Clinic","Owner":"Private Enterprise (Institution)","County":"Mombasa","Sub_County":"Changamwe","Division":"Changamwe","Location":"Changamwe","Sub_Locati":"Changamwe","Constituen":"CHANGAMWE","Nearest_To":"Mombasa","Latitude":"-3.99953","Longitude":"39.60588"},"geometry":{"type":"Point","coordinates":[39.60588,-3.99953]}},{"type":"Feature","properties":{"OBJECTID":"296","Facility_N":"Amani Medical Clinic (Likoni)","Type":"Medical Clinic","Owner":"Private Practice - Nurse / Midwife","County":"Mombasa","Sub_County":"Likoni","Division":"Likoni","Location":"Likoni","Sub_Locati":"Bofu","Constituen":"LIKONI","Nearest_To":"Mombasa","Latitude":"-4.08961","Longitude":"39.65088"},"geometry":{"type":"Point","coordinates":[39.65088,-4.08961]}},{"type":"Feature","properties":{"OBJECTID":"303","Facility_N":"Amani VCT","Type":"VCT Centre (Stand-Alone)","Owner":"Non-Governmental Organizations","County":"Mombasa","Sub_County":"Kisauni","Division":"Kisauni","Location":" ","Sub_Locati":" ","Constituen":"KISAUNI","Nearest_To":" ","Latitude":"-4.06274","Longitude":"39.67241"},"geometry":{"type":"Point","coordinates":[39.67241,-4.06274]}},{"type":"Feature","properties":{"OBJECTID":"324","Facility_N":"Amurt Health Centre (Likoni)","Type":"Medical Clinic","Owner":"Private Enterprise (Institution)","County":"Mombasa","Sub_County":"Likoni","Division":"Likoni","Location":"Likoni","Sub_Locati":"Bofu","Constituen":"LIKONI","Nearest_To":"Mombasa","Latitude":"-4.07765","Longitude":"39.65362"},"geometry":{"type":"Point","coordinates":[39.65362,-4.07765]}},{"type":"Feature","properties":{"OBJECTID":"357","Facility_N":"Ansar Medical Clinic","Type":"Medical Clinic","Owner":"Private Enterprise (Institution)","County":"Mombasa","Sub_County":"Changamwe","Division":"Jomvu","Location":"Miritini","Sub_Locati":"Kwa Jomvu","Constituen":"CHANGAMWE","Nearest_To":"Mombasa","Latitude":"-3.98311","Longitude":"39.5958"},"geometry":{"type":"Point","coordinates":[39.5958,-3.98311]}},{"type":"Feature","properties":{"OBJECTID":"418","Facility_N":"Ashraf Medical Clinic","Type":"Medical Clinic","Owner":"Private Enterprise (Institution)","County":"Mombasa","Sub_County":"Mvita","Division":"Island","Location":"Tononoka","Sub_Locati":"Tononoka","Constituen":"MVITA","Nearest_To":"Mombasa","Latitude":"-4.06111","Longitude":"39.67204"},"geometry":{"type":"Point","coordinates":[39.67204,-4.06111]}},{"type":"Feature","properties":{"OBJECTID":"445","Facility_N":"Avenue Health Care","Type":"Medical Clinic","Owner":"Private Enterprise (Institution)","County":"Mombasa","Sub_County":"Mvita","Division":"Island","Location":"Ganjoni","Sub_Locati":"Ganjoni","Constituen":"MVITA","Nearest_To":"Mombasa","Latitude":"-4.04906","Longitude":"39.67352"},"geometry":{"type":"Point","coordinates":[39.67352,-4.04906]}},{"type":"Feature","properties":{"OBJECTID":"455","Facility_N":"Axis Nursing Home","Type":"Nursing Home","Owner":"Private Practice - General Practitioner","County":"Mombasa","Sub_County":"Mvita","Division":"Island","Location":"Tononoka","Sub_Locati":"Bondeni","Constituen":"MVITA","Nearest_To":"Marikiti","Latitude":"-4.05815","Longitude":"39.67255"},"geometry":{"type":"Point","coordinates":[39.67255,-4.05815]}},{"type":"Feature","properties":{"OBJECTID":"458","Facility_N":"Azimio Medical Centre","Type":"Medical Clinic","Owner":"Private Enterprise (Institution)","County":"Mombasa","Sub_County":"Mvita","Division":"Island","Location":"Tudor","Sub_Locati":"Tudor","Constituen":"MVITA","Nearest_To":"Tudor Market","Latitude":"-4.03355","Longitude":"39.66053"},"geometry":{"type":"Point","coordinates":[39.66053,-4.03355]}},{"type":"Feature","properties":{"OBJECTID":"472","Facility_N":"Badri Medical Clinic","Type":"Medical Clinic","Owner":"Private Practice - Unspecified","County":"Mombasa","Sub_County":"Kisauni","Division":"Nyali","Location":"Kongowea","Sub_Locati":"Kongowea","Constituen":"KISAUNI","Nearest_To":"Kongowea","Latitude":"-4.03605","Longitude":"39.69097"},"geometry":{"type":"Point","coordinates":[39.69097,-4.03605]}},{"type":"Feature","properties":{"OBJECTID":"473","Facility_N":"Badria Medical Clinic","Type":"Medical Clinic","Owner":"Private Practice - Clinical Officer","County":"Mombasa","Sub_County":"Kisauni","Division":"Kisauni","Location":"Kongowea","Sub_Locati":"Kongowea","Constituen":"KISAUNI","Nearest_To":"Mombasa","Latitude":"-4.04235","Longitude":"39.68392"},"geometry":{"type":"Point","coordinates":[39.68392,-4.04235]}},{"type":"Feature","properties":{"OBJECTID":"477","Facility_N":"Bahari Medical Clinic","Type":"Medical Clinic","Owner":"Private Enterprise (Institution)","County":"Mombasa","Sub_County":"Likoni","Division":"Likoni","Location":"Likoni","Sub_Locati":"Likoni","Constituen":"LIKONI","Nearest_To":"Mombasa","Latitude":"-4.08577","Longitude":"39.65958"},"geometry":{"type":"Point","coordinates":[39.65958,-4.08577]}},{"type":"Feature","properties":{"OBJECTID":"490","Facility_N":"Bakarani Community Clinic","Type":"Medical Clinic","Owner":"Private Enterprise (Institution)","County":"Mombasa","Sub_County":"Kisauni","Division":"Kisauni","Location":"Bamburi","Sub_Locati":"Bamburi","Constituen":"KISAUNI","Nearest_To":"Mombasa","Latitude":"-4.01513","Longitude":"39.69491"},"geometry":{"type":"Point","coordinates":[39.69491,-4.01513]}},{"type":"Feature","properties":{"OBJECTID":"491","Facility_N":"Bakarani Maternity and Nursing Home","Type":"Nursing Home","Owner":"Private Enterprise (Institution)","County":"Mombasa","Sub_County":"Mvita","Division":"Island","Location":"Makupa","Sub_Locati":"Majengo","Constituen":"MVITA","Nearest_To":"Majengo Market","Latitude":"-4.0516","Longitude":"39.66537"},"geometry":{"type":"Point","coordinates":[39.66537,-4.0516]}},{"type":"Feature","properties":{"OBJECTID":"500","Facility_N":"Ballore Africa Logistic Staff Clinic","Type":"Medical Clinic","Owner":"Private Enterprise (Institution)","County":"Mombasa","Sub_County":"Changamwe","Division":"Changamwe","Location":"Changamwe","Sub_Locati":"Changamwe","Constituen":"CHANGAMWE","Nearest_To":"Mombasa","Latitude":"-4.01822","Longitude":"39.63202"},"geometry":{"type":"Point","coordinates":[39.63202,-4.01822]}},{"type":"Feature","properties":{"OBJECTID":"505","Facility_N":"Bamburi Dispensary","Type":"Dispensary","Owner":"Local Authority","County":"Mombasa","Sub_County":"Kisauni","Division":"Kisauni","Location":"Bamburi","Sub_Locati":"Bamburi","Constituen":"KISAUNI","Nearest_To":"Mombasa","Latitude":"-4.00435","Longitude":"39.69335"},"geometry":{"type":"Point","coordinates":[39.69335,-4.00435]}},{"type":"Feature","properties":{"OBJECTID":"506","Facility_N":"Bamburi Medicare","Type":"Medical Clinic","Owner":"Private Enterprise (Institution)","County":"Mombasa","Sub_County":"Kisauni","Division":"Kisauni","Location":"Bamburi","Sub_Locati":"Bamburi","Constituen":"KISAUNI","Nearest_To":"Kongowea","Latitude":"-4.00329","Longitude":"39.6986"},"geometry":{"type":"Point","coordinates":[39.6986,-4.00329]}},{"type":"Feature","properties":{"OBJECTID":"516","Facility_N":"Baobab Annex Clinic","Type":"Medical Clinic","Owner":"Private Practice - Clinical Officer","County":"Mombasa","Sub_County":"Kisauni","Division":"Kisauni","Location":"Kisauni","Sub_Locati":"Junda","Constituen":"KISAUNI","Nearest_To":"Junda","Latitude":"-4.02514","Longitude":"39.67699"},"geometry":{"type":"Point","coordinates":[39.67699,-4.02514]}},{"type":"Feature","properties":{"OBJECTID":"517","Facility_N":"Baobab Clinic - Bamburi Cement","Type":"Medical Clinic","Owner":"Private Enterprise (Institution)","County":"Mombasa","Sub_County":"Kisauni","Division":"Kisauni","Location":"Bamburi","Sub_Locati":"Mwembelegeza","Constituen":"KISAUNI","Nearest_To":"Bamburi Mtamboni","Latitude":"-3.96975","Longitude":"39.7061"},"geometry":{"type":"Point","coordinates":[39.7061,-3.96975]}},{"type":"Feature","properties":{"OBJECTID":"549","Facility_N":"Baraka Medical Clinic (Vikwatani)","Type":"Medical Clinic","Owner":"Private Enterprise (Institution)","County":"Mombasa","Sub_County":"Kisauni","Division":"Kisauni","Location":"Bamburi","Sub_Locati":"Mtopanga","Constituen":"KISAUNI","Nearest_To":"Vikwatani","Latitude":"-4.00513","Longitude":"39.68971"},"geometry":{"type":"Point","coordinates":[39.68971,-4.00513]}},{"type":"Feature","properties":{"OBJECTID":"575","Facility_N":"Barsheba Medical Clinic","Type":"Medical Clinic","Owner":"Private Practice - Clinical Officer","County":"Mombasa","Sub_County":"Kisauni","Division":"Kisauni","Location":"Kisauni","Sub_Locati":"Barsheba","Constituen":"KISAUNI","Nearest_To":"Barsheba - Mombasa","Latitude":"-4.00313","Longitude":"39.71214"},"geometry":{"type":"Point","coordinates":[39.71214,-4.00313]}},{"type":"Feature","properties":{"OBJECTID":"596","Facility_N":"Bay Leaf Health Center","Type":"Health Centre","Owner":"Private Practice - General Practitioner","County":"Mombasa","Sub_County":"Mvita","Division":"Majengo","Location":"Majengo","Sub_Locati":"Majengo","Constituen":"MVITA","Nearest_To":"Majengo","Latitude":"-4.04649","Longitude":"39.65783"},"geometry":{"type":"Point","coordinates":[39.65783,-4.04649]}},{"type":"Feature","properties":{"OBJECTID":"620","Facility_N":"Beta Medical & Skin Clinic","Type":"Medical Clinic","Owner":"Private Enterprise (Institution)","County":"Mombasa","Sub_County":"Kisauni","Division":"Island","Location":"Tononoka","Sub_Locati":"Bondeni","Constituen":"KISAUNI","Nearest_To":"Near Tawakali Bus Booking Office","Latitude":"-4.0523","Longitude":"39.6737"},"geometry":{"type":"Point","coordinates":[39.6737,-4.0523]}},{"type":"Feature","properties":{"OBJECTID":"705","Facility_N":"Bokole CDF Dispensary","Type":"Dispensary","Owner":"Ministry of Health","County":"Mombasa","Sub_County":"Changamwe","Division":"Changamwe","Location":"Airport","Sub_Locati":"Bokole","Constituen":"CHANGAMWE","Nearest_To":"Mombasa","Latitude":"-4.01724","Longitude":"39.60873"},"geometry":{"type":"Point","coordinates":[39.60873,-4.01724]}},{"type":"Feature","properties":{"OBJECTID":"712","Facility_N":"Bombolulu Staff Clinic","Type":"Medical Clinic","Owner":"Private Enterprise (Institution)","County":"Mombasa","Sub_County":"Kisauni","Division":"Kisauni","Location":"Kongowea","Sub_Locati":"Maweni","Constituen":"KISAUNI","Nearest_To":"Mombasa","Latitude":"-4.02185","Longitude":"39.70224"},"geometry":{"type":"Point","coordinates":[39.70224,-4.02185]}},{"type":"Feature","properties":{"OBJECTID":"717","Facility_N":"Bomu Medical Centre (Likoni)","Type":"Medical Clinic","Owner":"Private Enterprise (Institution)","County":"Mombasa","Sub_County":"Likoni","Division":"Likoni","Location":"Likoni","Sub_Locati":"Bofu","Constituen":"LIKONI","Nearest_To":"Mombasa","Latitude":"-4.0936","Longitude":"39.64965"},"geometry":{"type":"Point","coordinates":[39.64965,-4.0936]}},{"type":"Feature","properties":{"OBJECTID":"719","Facility_N":"Bomu Medical Hospital (Changamwe)","Type":"Other Hospital","Owner":"Non-Governmental Organizations","County":"Mombasa","Sub_County":"Changamwe","Division":"Changamwe","Location":"Changamwe","Sub_Locati":"Changamwe","Constituen":"CHANGAMWE","Nearest_To":"Mombasa","Latitude":"-4.02745","Longitude":"39.61751"},"geometry":{"type":"Point","coordinates":[39.61751,-4.02745]}},{"type":"Feature","properties":{"OBJECTID":"720","Facility_N":"Bona Medical Clinic","Type":"Medical Clinic","Owner":"Private Enterprise (Institution)","County":"Mombasa","Sub_County":"Kisauni","Division":"Kisauni","Location":"Bamburi","Sub_Locati":"Bamburi","Constituen":"KISAUNI","Nearest_To":"Mombasa","Latitude":"-4.00269","Longitude":"39.69856"},"geometry":{"type":"Point","coordinates":[39.69856,-4.00269]}},{"type":"Feature","properties":{"OBJECTID":"736","Facility_N":"Borabu Medical Clinic","Type":"Medical Clinic","Owner":"Private Enterprise (Institution)","County":"Mombasa","Sub_County":"Kisauni","Division":"Kisauni","Location":"Bamburi","Sub_Locati":"Mwembelegeza","Constituen":"KISAUNI","Nearest_To":"Shanzu - Mombasa","Latitude":"-3.96966","Longitude":"39.73333"},"geometry":{"type":"Point","coordinates":[39.73333,-3.96966]}},{"type":"Feature","properties":{"OBJECTID":"874","Facility_N":"California Medical Clinic","Type":"Medical Clinic","Owner":"Private Practice - Nurse / Midwife","County":"Mombasa","Sub_County":"Likoni","Division":"Longo","Location":"Shika adabu","Sub_Locati":"Vyemani","Constituen":"LIKONI","Nearest_To":"Mombasa","Latitude":"-4.06605","Longitude":"39.60321"},"geometry":{"type":"Point","coordinates":[39.60321,-4.06605]}},{"type":"Feature","properties":{"OBJECTID":"875","Facility_N":"Calvary Family Health Care Centre","Type":"Medical Clinic","Owner":"Private Practice - Unspecified","County":"Mombasa","Sub_County":"Kisauni","Division":"Kisauni","Location":"Bamburi","Sub_Locati":"Mtopanga","Constituen":"KISAUNI","Nearest_To":"Mshomoroni","Latitude":"-4.00886","Longitude":"39.68499"},"geometry":{"type":"Point","coordinates":[39.68499,-4.00886]}},{"type":"Feature","properties":{"OBJECTID":"879","Facility_N":"Camp David Medical Clinic","Type":"Medical Clinic","Owner":"Non-Governmental Organizations","County":"Mombasa","Sub_County":"Changamwe","Division":"Changamwe","Location":"Chaani","Sub_Locati":"Chaani","Constituen":"CHANGAMWE","Nearest_To":"Mombasa","Latitude":"-4.01996","Longitude":"39.62078"},"geometry":{"type":"Point","coordinates":[39.62078,-4.01996]}},{"type":"Feature","properties":{"OBJECTID":"885","Facility_N":"Canaan Medical Clinic","Type":"Medical Clinic","Owner":"Private Enterprise (Institution)","County":"Mombasa","Sub_County":"Changamwe","Division":"Jomvu","Location":"Miritini","Sub_Locati":"Mungusi","Constituen":"CHANGAMWE","Nearest_To":"Mombasa","Latitude":"-4.00235","Longitude":"39.58328"},"geometry":{"type":"Point","coordinates":[39.58328,-4.00235]}},{"type":"Feature","properties":{"OBJECTID":"897","Facility_N":"Catholic Archdiocese of Mombasa CHBC & AIDS Relief","Type":"Medical Clinic","Owner":"Kenya Episcopal Conference-Catholic Secretariat","County":"Mombasa","Sub_County":"Kisauni","Division":"Kisauni","Location":"Bamburi","Sub_Locati":"Bombolulu","Constituen":"KISAUNI","Nearest_To":"Bombolulu","Latitude":"-4.01925","Longitude":"39.70141"},"geometry":{"type":"Point","coordinates":[39.70141,-4.01925]}},{"type":"Feature","properties":{"OBJECTID":"910","Facility_N":"Cdc Ganjoni Dispensary","Type":"Dispensary","Owner":"Local Authority","County":"Mombasa","Sub_County":"Mvita","Division":"Island","Location":"Ganjoni","Sub_Locati":"Ganjoni","Constituen":"MVITA","Nearest_To":"Mombasa","Latitude":"-4.06398","Longitude":"39.66609"},"geometry":{"type":"Point","coordinates":[39.66609,-4.06398]}},{"type":"Feature","properties":{"OBJECTID":"921","Facility_N":"Central Medical Clinic and Labaratory (Changamwe)","Type":"Medical Clinic","Owner":"Private Practice - Unspecified","County":"Mombasa","Sub_County":"Changamwe","Division":"Changamwe","Location":"Chaani","Sub_Locati":"Chaani","Constituen":"CHANGAMWE","Nearest_To":"Mombasa","Latitude":"-4.03155","Longitude":"39.62634"},"geometry":{"type":"Point","coordinates":[39.62634,-4.03155]}},{"type":"Feature","properties":{"OBJECTID":"932","Facility_N":"Chaani (MCM) Dispensary","Type":"Dispensary","Owner":"Local Authority","County":"Mombasa","Sub_County":"Changamwe","Division":"Changamwe","Location":"Chaani","Sub_Locati":"Chaani","Constituen":"CHANGAMWE","Nearest_To":"Mombasa","Latitude":"-4.03181","Longitude":"39.62725"},"geometry":{"type":"Point","coordinates":[39.62725,-4.03181]}},{"type":"Feature","properties":{"OBJECTID":"951","Facility_N":"Changamwe Maternity","Type":"Maternity Home","Owner":"Private Enterprise (Institution)","County":"Mombasa","Sub_County":"Changamwe","Division":"Changamwe","Location":"Portreitz","Sub_Locati":" ","Constituen":"CHANGAMWE","Nearest_To":"Mombasa","Latitude":"-4.02775","Longitude":"39.61286"},"geometry":{"type":"Point","coordinates":[39.61286,-4.02775]}},{"type":"Feature","properties":{"OBJECTID":"1217","Facility_N":"Coast Province General Hospital","Type":"Provincial General Hospital","Owner":"Ministry of Health","County":"Mombasa","Sub_County":"Mvita","Division":"Island","Location":"Tononoka","Sub_Locati":"Tononoka","Constituen":"MVITA","Nearest_To":"Mombasa","Latitude":"-4.02796","Longitude":"39.68619"},"geometry":{"type":"Point","coordinates":[39.68619,-4.02796]}},{"type":"Feature","properties":{"OBJECTID":"1228","Facility_N":"Community Medical Centre (Kongowea)","Type":"Medical Clinic","Owner":"Private Practice - General Practitioner","County":"Mombasa","Sub_County":"Kisauni","Division":"Kisauni","Location":"Kongowea","Sub_Locati":"Kongowea","Constituen":"KISAUNI","Nearest_To":"Mombasa","Latitude":"-4.04246","Longitude":"39.68632"},"geometry":{"type":"Point","coordinates":[39.68632,-4.04246]}},{"type":"Feature","properties":{"OBJECTID":"1250","Facility_N":"Corner Chaani Medical Clinic","Type":"Medical Clinic","Owner":"Other Faith Based","County":"Mombasa","Sub_County":"Changamwe","Division":"Changamwe","Location":"Chaani","Sub_Locati":"Chaani","Constituen":"CHANGAMWE","Nearest_To":"Mombasa","Latitude":"-4.02842","Longitude":"39.62609"},"geometry":{"type":"Point","coordinates":[39.62609,-4.02842]}},{"type":"Feature","properties":{"OBJECTID":"1253","Facility_N":"Corner Medical Clinic","Type":"Medical Clinic","Owner":"Private Practice - Nurse / Midwife","County":"Mombasa","Sub_County":"Kisauni","Division":"Kisauni","Location":"Kisauni","Sub_Locati":"Junda","Constituen":"KISAUNI","Nearest_To":"Mombasa","Latitude":"-4.00134","Longitude":"39.6853"},"geometry":{"type":"Point","coordinates":[39.6853,-4.00134]}},{"type":"Feature","properties":{"OBJECTID":"1285","Facility_N":"Crystal Medical Centre","Type":"Medical Clinic","Owner":"Private Practice - General Practitioner","County":"Mombasa","Sub_County":"Kisauni","Division":"Kisauni","Location":"Kongowea","Sub_Locati":"Kongowea","Constituen":"KISAUNI","Nearest_To":"Mombasa","Latitude":"-4.04375","Longitude":"39.68264"},"geometry":{"type":"Point","coordinates":[39.68264,-4.04375]}},{"type":"Feature","properties":{"OBJECTID":"1309","Facility_N":"Dakarh Medical Services","Type":"Medical Clinic","Owner":"Private Practice - Clinical Officer","County":"Mombasa","Sub_County":"Likoni","Division":"Likoni","Location":"Timbwani","Sub_Locati":"Bofu","Constituen":"LIKONI","Nearest_To":"Mombasa","Latitude":"-4.08398","Longitude":"39.66233"},"geometry":{"type":"Point","coordinates":[39.66233,-4.08398]}},{"type":"Feature","properties":{"OBJECTID":"1334","Facility_N":"Darajani Medical Clinic","Type":"Medical Clinic","Owner":"Private Practice - Clinical Officer","County":"Mombasa","Sub_County":"Kisauni","Division":"Kisauni","Location":"Bamburi","Sub_Locati":"Kiembeni","Constituen":"KISAUNI","Nearest_To":"Bamburi","Latitude":"-3.99792","Longitude":"39.70234"},"geometry":{"type":"Point","coordinates":[39.70234,-3.99792]}},{"type":"Feature","properties":{"OBJECTID":"1418","Facility_N":"Dr Aa Kibwana Clinic","Type":"Medical Clinic","Owner":"Private Enterprise (Institution)","County":"Mombasa","Sub_County":"Mvita","Division":"Island","Location":"Tononoka","Sub_Locati":"Tononoka","Constituen":"MVITA","Nearest_To":"Mombasa","Latitude":"-4.04562","Longitude":"39.6684"},"geometry":{"type":"Point","coordinates":[39.6684,-4.04562]}},{"type":"Feature","properties":{"OBJECTID":"1423","Facility_N":"Dr Ambeva Clinic","Type":"Medical Clinic","Owner":"Private Practice - Unspecified","County":"Mombasa","Sub_County":"Mvita","Division":"Island","Location":"Ganjoni","Sub_Locati":"Kizingo","Constituen":"MVITA","Nearest_To":"Mombasa","Latitude":"-4.0496","Longitude":"39.67352"},"geometry":{"type":"Point","coordinates":[39.67352,-4.0496]}},{"type":"Feature","properties":{"OBJECTID":"1426","Facility_N":"Dr Awimbo E Clinic","Type":"Medical Clinic","Owner":"Private Practice - Unspecified","County":"Mombasa","Sub_County":"Mvita","Division":"Island","Location":"Ganjoni","Sub_Locati":"Kizingo","Constituen":"MVITA","Nearest_To":"Mombasa","Latitude":"-4.06156","Longitude":"39.66464"},"geometry":{"type":"Point","coordinates":[39.66464,-4.06156]}},{"type":"Feature","properties":{"OBJECTID":"1433","Facility_N":"Dr Chamia Clinic","Type":"Medical Clinic","Owner":"Private Practice - Unspecified","County":"Mombasa","Sub_County":"Mvita","Division":"Island","Location":"Ganjoni","Sub_Locati":"Kizingo","Constituen":"MVITA","Nearest_To":"Mombasa","Latitude":"-4.06385","Longitude":"39.67359"},"geometry":{"type":"Point","coordinates":[39.67359,-4.06385]}},{"type":"Feature","properties":{"OBJECTID":"1436","Facility_N":"Dr Dhanji Clinic","Type":"Medical Clinic","Owner":"Private Practice - Unspecified","County":"Mombasa","Sub_County":"Mvita","Division":"Island","Location":"Majengo","Sub_Locati":"Majengo","Constituen":"MVITA","Nearest_To":"Mombasa","Latitude":"-4.03316","Longitude":"39.66094"},"geometry":{"type":"Point","coordinates":[39.66094,-4.03316]}},{"type":"Feature","properties":{"OBJECTID":"1437","Facility_N":"Dr Dhutia Clinic","Type":"Medical Clinic","Owner":"Private Practice - Unspecified","County":"Mombasa","Sub_County":"Kisauni","Division":"Kisauni","Location":"Kisauni","Sub_Locati":"Kisauni","Constituen":"KISAUNI","Nearest_To":"Mombasa","Latitude":"-4.03576","Longitude":"39.66257"},"geometry":{"type":"Point","coordinates":[39.66257,-4.03576]}},{"type":"Feature","properties":{"OBJECTID":"1449","Facility_N":"Dr Gathuo Clinic","Type":"Medical Clinic","Owner":"Private Practice - Unspecified","County":"Mombasa","Sub_County":"Mvita","Division":"Island","Location":"Ganjoni","Sub_Locati":"Ganjoni","Constituen":"MVITA","Nearest_To":"Mombasa","Latitude":"-4.04906","Longitude":"39.67352"},"geometry":{"type":"Point","coordinates":[39.67352,-4.04906]}},{"type":"Feature","properties":{"OBJECTID":"1452","Facility_N":"Dr Gikandi Clinic","Type":"Medical Clinic","Owner":"Private Practice - Unspecified","County":"Mombasa","Sub_County":"Mvita","Division":"Island","Location":"Ganjoni","Sub_Locati":"Ganjoni","Constituen":"MVITA","Nearest_To":"Mombasa","Latitude":"-4.04906","Longitude":"39.67352"},"geometry":{"type":"Point","coordinates":[39.67352,-4.04906]}},{"type":"Feature","properties":{"OBJECTID":"1453","Facility_N":"Dr Gitah Shah Clinic","Type":"Medical Clinic","Owner":"Private Practice - Unspecified","County":"Mombasa","Sub_County":"Mvita","Division":"Island","Location":"Ganjoni","Sub_Locati":"Kizingo","Constituen":"MVITA","Nearest_To":"Mombasa","Latitude":"-4.04906","Longitude":"39.67352"},"geometry":{"type":"Point","coordinates":[39.67352,-4.04906]}},{"type":"Feature","properties":{"OBJECTID":"1454","Facility_N":"Dr Gupta Clinic","Type":"Medical Clinic","Owner":"Private Enterprise (Institution)","County":"Mombasa","Sub_County":"Mvita","Division":"Island","Location":"Ganjoni","Sub_Locati":"Kizingo","Constituen":"MVITA","Nearest_To":"Mombasa","Latitude":"-4.06498","Longitude":"39.68036"},"geometry":{"type":"Point","coordinates":[39.68036,-4.06498]}},{"type":"Feature","properties":{"OBJECTID":"1455","Facility_N":"Dr Hassannali Clinic","Type":"Medical Clinic","Owner":"Private Enterprise (Institution)","County":"Mombasa","Sub_County":"Mvita","Division":"Island","Location":"Ganjoni","Sub_Locati":"Kizingo","Constituen":"MVITA","Nearest_To":"Mombasa","Latitude":"-4.06498","Longitude":"39.68036"},"geometry":{"type":"Point","coordinates":[39.68036,-4.06498]}},{"type":"Feature","properties":{"OBJECTID":"1461","Facility_N":"Dr J B Wasuna","Type":"Medical Clinic","Owner":"Private Practice - Unspecified","County":"Mombasa","Sub_County":"Mvita","Division":"Island","Location":"Ganjoni","Sub_Locati":"Kizingo","Constituen":"MVITA","Nearest_To":"Mombasa","Latitude":"-4.06385","Longitude":"39.67359"},"geometry":{"type":"Point","coordinates":[39.67359,-4.06385]}},{"type":"Feature","properties":{"OBJECTID":"1467","Facility_N":"Dr K K Vora Clinic","Type":"Medical Clinic","Owner":"Private Practice - Unspecified","County":"Mombasa","Sub_County":"Mvita","Division":"Island","Location":"Ganjoni","Sub_Locati":"Kizingo","Constituen":"MVITA","Nearest_To":"Mombasa","Latitude":"-4.06498","Longitude":"39.68036"},"geometry":{"type":"Point","coordinates":[39.68036,-4.06498]}},{"type":"Feature","properties":{"OBJECTID":"1468","Facility_N":"Dr Kaguta Clinic","Type":"Medical Clinic","Owner":"Private Practice - Unspecified","County":"Mombasa","Sub_County":"Mvita","Division":"Island","Location":"Ganjoni","Sub_Locati":"Kizingo","Constituen":"MVITA","Nearest_To":"Mombasa","Latitude":"-4.04906","Longitude":"39.67352"},"geometry":{"type":"Point","coordinates":[39.67352,-4.04906]}},{"type":"Feature","properties":{"OBJECTID":"1470","Facility_N":"Dr Kamande Clinic","Type":"Medical Clinic","Owner":"Private Practice - Unspecified","County":"Mombasa","Sub_County":"Mvita","Division":"Island","Location":"Ganjoni","Sub_Locati":"Kizingo","Constituen":"MVITA","Nearest_To":"Mombasa","Latitude":"-4.06385","Longitude":"39.67359"},"geometry":{"type":"Point","coordinates":[39.67359,-4.06385]}},{"type":"Feature","properties":{"OBJECTID":"1471","Facility_N":"Dr Kandwalla Clinic","Type":"Medical Clinic","Owner":"Private Practice - Unspecified","County":"Mombasa","Sub_County":"Mvita","Division":"Island","Location":"Ganjoni","Sub_Locati":"Kizingo","Constituen":"MVITA","Nearest_To":"Mombasa","Latitude":"-4.06498","Longitude":"39.68036"},"geometry":{"type":"Point","coordinates":[39.68036,-4.06498]}},{"type":"Feature","properties":{"OBJECTID":"1475","Facility_N":"Dr Karima Clinic","Type":"Medical Clinic","Owner":"Private Practice - Unspecified","County":"Mombasa","Sub_County":"Mvita","Division":"Island","Location":"Ganjoni","Sub_Locati":"Kizingo","Constituen":"MVITA","Nearest_To":"Mombasa","Latitude":"-4.06901","Longitude":"39.67121"},"geometry":{"type":"Point","coordinates":[39.67121,-4.06901]}},{"type":"Feature","properties":{"OBJECTID":"1478","Facility_N":"Dr Kariuki R F Clinic","Type":"Medical Clinic","Owner":"Private Practice - Unspecified","County":"Mombasa","Sub_County":"Mvita","Division":"Island","Location":"Ganjoni","Sub_Locati":"Kizingo","Constituen":"MVITA","Nearest_To":"Mombasa","Latitude":"-4.06347","Longitude":"39.67335"},"geometry":{"type":"Point","coordinates":[39.67335,-4.06347]}},{"type":"Feature","properties":{"OBJECTID":"1490","Facility_N":"Dr Kirash Shah Clinic","Type":"Medical Clinic","Owner":"Private Practice - Unspecified","County":"Mombasa","Sub_County":"Mvita","Division":"Island","Location":"Ganjoni","Sub_Locati":"Kizingo","Constituen":"MVITA","Nearest_To":"Mombasa","Latitude":"-4.04906","Longitude":"39.67352"},"geometry":{"type":"Point","coordinates":[39.67352,-4.04906]}},{"type":"Feature","properties":{"OBJECTID":"1491","Facility_N":"Dr Kirima Clinic","Type":"Medical Clinic","Owner":"Private Practice - Unspecified","County":"Mombasa","Sub_County":"Mvita","Division":"Island","Location":"Ganjoni","Sub_Locati":"Kizingo","Constituen":"MVITA","Nearest_To":"Mombasa","Latitude":"-4.06498","Longitude":"39.67121"},"geometry":{"type":"Point","coordinates":[39.67121,-4.06498]}},{"type":"Feature","properties":{"OBJECTID":"1502","Facility_N":"Dr Mahero Clinic","Type":"Medical Clinic","Owner":"Private Practice - Unspecified","County":"Mombasa","Sub_County":"Mvita","Division":"Island","Location":"Ganjoni","Sub_Locati":"Ganjoni","Constituen":"MVITA","Nearest_To":"Mombasa","Latitude":"-4.04906","Longitude":"39.67352"},"geometry":{"type":"Point","coordinates":[39.67352,-4.04906]}},{"type":"Feature","properties":{"OBJECTID":"1507","Facility_N":"Dr Marami Clinic","Type":"Medical Clinic","Owner":"Private Practice - Unspecified","County":"Mombasa","Sub_County":"Mvita","Division":"Island","Location":"Ganjoni","Sub_Locati":"Ganjoni","Constituen":"MVITA","Nearest_To":"Mombasa","Latitude":"-4.04906","Longitude":"39.67352"},"geometry":{"type":"Point","coordinates":[39.67352,-4.04906]}},{"type":"Feature","properties":{"OBJECTID":"1511","Facility_N":"Dr Miyalla Clinic","Type":"Medical Clinic","Owner":"Private Practice - Unspecified","County":"Mombasa","Sub_County":"Mvita","Division":"Island","Location":"Ganjoni","Sub_Locati":"Ganjoni","Constituen":"MVITA","Nearest_To":"Mombasa","Latitude":"-4.04906","Longitude":"39.67352"},"geometry":{"type":"Point","coordinates":[39.67352,-4.04906]}},{"type":"Feature","properties":{"OBJECTID":"1531","Facility_N":"Dr N Mwangome Clinic","Type":"Medical Clinic","Owner":"Private Practice - Unspecified","County":"Mombasa","Sub_County":"Mvita","Division":"Island","Location":"Ganjoni","Sub_Locati":"Ganjoni","Constituen":"MVITA","Nearest_To":"Mombasa","Latitude":"-4.04906","Longitude":"39.67352"},"geometry":{"type":"Point","coordinates":[39.67352,-4.04906]}},{"type":"Feature","properties":{"OBJECTID":"1534","Facility_N":"Dr Nahif Maamry Clinic","Type":"Medical Clinic","Owner":"Private Practice - Unspecified","County":"Mombasa","Sub_County":"Mvita","Division":"Island","Location":"Ganjoni","Sub_Locati":"Ganjoni","Constituen":"MVITA","Nearest_To":"Mombasa","Latitude":"-4.06503","Longitude":"39.6591"},"geometry":{"type":"Point","coordinates":[39.6591,-4.06503]}},{"type":"Feature","properties":{"OBJECTID":"1550","Facility_N":"Dr Okanga J B O","Type":"Medical Clinic","Owner":"Private Practice - Unspecified","County":"Mombasa","Sub_County":"Mvita","Division":"Island","Location":"Ganjoni","Sub_Locati":"Ganjoni","Constituen":"MVITA","Nearest_To":"Mombasa","Latitude":"-4.04906","Longitude":"39.67352"},"geometry":{"type":"Point","coordinates":[39.67352,-4.04906]}},{"type":"Feature","properties":{"OBJECTID":"1559","Facility_N":"Dr Rati S Shah","Type":"Medical Clinic","Owner":"Private Practice - Unspecified","County":"Mombasa","Sub_County":"Mvita","Division":"Island","Location":"Majengo","Sub_Locati":"Majengo","Constituen":"MVITA","Nearest_To":"Mombasa","Latitude":"-4.04926","Longitude":"39.66357"},"geometry":{"type":"Point","coordinates":[39.66357,-4.04926]}},{"type":"Feature","properties":{"OBJECTID":"1561","Facility_N":"Dr Safdar S Saeed Clinic","Type":"Medical Clinic","Owner":"Private Practice - General Practitioner","County":"Mombasa","Sub_County":"Mvita","Division":"Island","Location":"Old Town","Sub_Locati":"Bondeni","Constituen":"MVITA","Nearest_To":"Mombasa","Latitude":"-4.05432","Longitude":"39.67293"},"geometry":{"type":"Point","coordinates":[39.67293,-4.05432]}},{"type":"Feature","properties":{"OBJECTID":"1564","Facility_N":"Dr Sharma Clinic","Type":"Medical Clinic","Owner":"Private Practice - Unspecified","County":"Mombasa","Sub_County":"Mvita","Division":"Island","Location":"Ganjoni","Sub_Locati":"Kizingo","Constituen":"MVITA","Nearest_To":"Mombasa","Latitude":"-4.02795","Longitude":"39.6749"},"geometry":{"type":"Point","coordinates":[39.6749,-4.02795]}},{"type":"Feature","properties":{"OBJECTID":"1566","Facility_N":"Dr Sheth Clinic","Type":"Medical Clinic","Owner":"Private Practice - Unspecified","County":"Mombasa","Sub_County":"Mvita","Division":"Island","Location":"Ganjoni","Sub_Locati":"Kizingo","Constituen":"MVITA","Nearest_To":"Mombasa","Latitude":"-4.04906","Longitude":"39.67352"},"geometry":{"type":"Point","coordinates":[39.67352,-4.04906]}},{"type":"Feature","properties":{"OBJECTID":"1567","Facility_N":"Dr Sirdesh Jari Clinic","Type":"Medical Clinic","Owner":"Private Practice - Unspecified","County":"Mombasa","Sub_County":"Mvita","Division":"Island","Location":"Ganjoni","Sub_Locati":"Kizingo","Constituen":"MVITA","Nearest_To":"Mombasa","Latitude":"-4.06901","Longitude":"39.6749"},"geometry":{"type":"Point","coordinates":[39.6749,-4.06901]}},{"type":"Feature","properties":{"OBJECTID":"1574","Facility_N":"Dr Varinder Sinun Sur Clinic","Type":"Medical Clinic","Owner":"Private Practice - Unspecified","County":"Mombasa","Sub_County":"Mvita","Division":"Island","Location":"Ganjoni","Sub_Locati":"Kizingo","Constituen":"MVITA","Nearest_To":"Mombasa","Latitude":"-4.06901","Longitude":"39.67121"},"geometry":{"type":"Point","coordinates":[39.67121,-4.06901]}},{"type":"Feature","properties":{"OBJECTID":"1581","Facility_N":"Dr Yossa Clinic","Type":"Medical Clinic","Owner":"Private Practice - Unspecified","County":"Mombasa","Sub_County":"Mvita","Division":"Island","Location":"Ganjoni","Sub_Locati":"Kizingo","Constituen":"MVITA","Nearest_To":"Mombasa","Latitude":"-4.06498","Longitude":"39.68036"},"geometry":{"type":"Point","coordinates":[39.68036,-4.06498]}},{"type":"Feature","properties":{"OBJECTID":"1584","Facility_N":"Dr Zainab Essajee","Type":"Medical Clinic","Owner":"Private Practice - General Practitioner","County":"Mombasa","Sub_County":"Mvita","Division":"Island","Location":"Mwembe Tayari","Sub_Locati":"Guraya","Constituen":"MVITA","Nearest_To":"Majengo Market","Latitude":"-4.05467","Longitude":"39.6696"},"geometry":{"type":"Point","coordinates":[39.6696,-4.05467]}},{"type":"Feature","properties":{"OBJECTID":"1585","Facility_N":"Dr. Sangani's Clinic","Type":"Medical Clinic","Owner":"Private Practice - General Practitioner","County":"Mombasa","Sub_County":"Mvita","Division":"Mvita","Location":"Majengo","Sub_Locati":"Majengo","Constituen":"MVITA","Nearest_To":"Majengo","Latitude":"-4.04984","Longitude":"39.65772"},"geometry":{"type":"Point","coordinates":[39.65772,-4.04984]}},{"type":"Feature","properties":{"OBJECTID":"1594","Facility_N":"Drop In Service Centre","Type":"Medical Clinic","Owner":"Non-Governmental Organizations","County":"Mombasa","Sub_County":"Mvita","Division":"Island","Location":"Ganjoni","Sub_Locati":"Ganjoni","Constituen":"MVITA","Nearest_To":"Mwembe Tayari","Latitude":"-4.06221","Longitude":"39.66703"},"geometry":{"type":"Point","coordinates":[39.66703,-4.06221]}},{"type":"Feature","properties":{"OBJECTID":"1651","Facility_N":"Eclipse Medical Centre","Type":"Medical Clinic","Owner":"Private Practice - Clinical Officer","County":"Mombasa","Sub_County":"Kisauni","Division":"Kisauni","Location":"Kisauni","Sub_Locati":"Kisauni","Constituen":"KISAUNI","Nearest_To":"Kwa Buro","Latitude":"-4.0126","Longitude":"39.70926"},"geometry":{"type":"Point","coordinates":[39.70926,-4.0126]}},{"type":"Feature","properties":{"OBJECTID":"1936","Facility_N":"Family Health Options Kenya (FHOK) Mombasa","Type":"Dispensary","Owner":"Non-Governmental Organizations","County":"Mombasa","Sub_County":"Mvita","Division":"Island","Location":"Mwembe Tayari","Sub_Locati":"Mwembe Tayari","Constituen":"MVITA","Nearest_To":"Mombasa","Latitude":"-4.06221","Longitude":"39.67152"},"geometry":{"type":"Point","coordinates":[39.67152,-4.06221]}},{"type":"Feature","properties":{"OBJECTID":"1942","Facility_N":"Family Medical Centre (Kisauni)","Type":"Medical Clinic","Owner":"Private Enterprise (Institution)","County":"Mombasa","Sub_County":"Kisauni","Division":"Kisauni","Location":"Kisauni","Sub_Locati":"Frere Town","Constituen":"KISAUNI","Nearest_To":"Mombasa","Latitude":"-4.02509","Longitude":"39.68749"},"geometry":{"type":"Point","coordinates":[39.68749,-4.02509]}},{"type":"Feature","properties":{"OBJECTID":"1944","Facility_N":"Family Medical Centre (Mombasa)","Type":"Medical Clinic","Owner":"Private Enterprise (Institution)","County":"Mombasa","Sub_County":"Mvita","Division":"Island","Location":"Majengo","Sub_Locati":"Majengo","Constituen":"MVITA","Nearest_To":"Mombasa","Latitude":"-4.05089","Longitude":"39.65412"},"geometry":{"type":"Point","coordinates":[39.65412,-4.05089]}},{"type":"Feature","properties":{"OBJECTID":"1997","Facility_N":"Freedom Medical Clinic","Type":"Medical Clinic","Owner":"Private Enterprise (Institution)","County":"Mombasa","Sub_County":"Likoni","Division":"Likoni","Location":"Likoni","Sub_Locati":"Bomani","Constituen":"LIKONI","Nearest_To":"Mombasa","Latitude":"-4.08683","Longitude":"39.65277"},"geometry":{"type":"Point","coordinates":[39.65277,-4.08683]}},{"type":"Feature","properties":{"OBJECTID":"2008","Facility_N":"Frontline Clinic","Type":"Medical Clinic","Owner":"Private Enterprise (Institution)","County":"Mombasa","Sub_County":"Changamwe","Division":"Changamwe","Location":"Changamwe","Sub_Locati":"Changamwe","Constituen":"CHANGAMWE","Nearest_To":"Mombasa","Latitude":"-4.02283","Longitude":"39.62131"},"geometry":{"type":"Point","coordinates":[39.62131,-4.02283]}},{"type":"Feature","properties":{"OBJECTID":"2053","Facility_N":"Gama Medical Clinic","Type":"Medical Clinic","Owner":"Private Enterprise (Institution)","County":"Mombasa","Sub_County":"Kisauni","Division":"Kisauni","Location":"Bamburi","Sub_Locati":"Bamburi","Constituen":"KISAUNI","Nearest_To":"Mombasa","Latitude":"-4.01602","Longitude":"39.69207"},"geometry":{"type":"Point","coordinates":[39.69207,-4.01602]}},{"type":"Feature","properties":{"OBJECTID":"2136","Facility_N":"Geca Medical Clinic","Type":"Medical Clinic","Owner":"Private Enterprise (Institution)","County":"Mombasa","Sub_County":"Likoni","Division":"Likoni","Location":"Likoni","Sub_Locati":"Bofu","Constituen":"LIKONI","Nearest_To":"Mombasa","Latitude":"-4.08982","Longitude":"39.65065"},"geometry":{"type":"Point","coordinates":[39.65065,-4.08982]}},{"type":"Feature","properties":{"OBJECTID":"2153","Facility_N":"Genesis Medicare","Type":"Medical Clinic","Owner":"Private Practice - Nurse / Midwife","County":"Mombasa","Sub_County":"Kisauni","Division":"Kisauni","Location":"Bamburi","Sub_Locati":"Bamburi","Constituen":"KISAUNI","Nearest_To":"Mombasa","Latitude":"-4.01146","Longitude":"39.69423"},"geometry":{"type":"Point","coordinates":[39.69423,-4.01146]}},{"type":"Feature","properties":{"OBJECTID":"2161","Facility_N":"Gertrudes Children Hospital","Type":"Medical Centre","Owner":"Private Enterprise (Institution)","County":"Mombasa","Sub_County":"Kisauni","Division":"Kisauni","Location":"Kongowea","Sub_Locati":"Kongowea","Constituen":"KISAUNI","Nearest_To":"kongowea market","Latitude":"-4.0322","Longitude":"39.71182"},"geometry":{"type":"Point","coordinates":[39.71182,-4.0322]}},{"type":"Feature","properties":{"OBJECTID":"2211","Facility_N":"Gift Medical Clinic","Type":"Medical Clinic","Owner":"Private Enterprise (Institution)","County":"Mombasa","Sub_County":"Changamwe","Division":"Changamwe","Location":"Chaani","Sub_Locati":"Chaani","Constituen":"CHANGAMWE","Nearest_To":"Mombasa","Latitude":"-4.03601","Longitude":"39.6296"},"geometry":{"type":"Point","coordinates":[39.6296,-4.03601]}},{"type":"Feature","properties":{"OBJECTID":"2362","Facility_N":"Golden Gates Hospital","Type":"Medical Clinic","Owner":"Private Practice - Clinical Officer","County":"Mombasa","Sub_County":"Mvita","Division":"Island","Location":"Majengo","Sub_Locati":"Kingorani","Constituen":"MVITA","Nearest_To":"Majengo","Latitude":"-4.05007","Longitude":"39.66044"},"geometry":{"type":"Point","coordinates":[39.66044,-4.05007]}},{"type":"Feature","properties":{"OBJECTID":"2390","Facility_N":"Gorofani Medical Clinic","Type":"Medical Clinic","Owner":"Private Enterprise (Institution)","County":"Mombasa","Sub_County":"Likoni","Division":"Likoni","Location":"Likoni","Sub_Locati":"Bofu","Constituen":"LIKONI","Nearest_To":"Mombasa","Latitude":"-4.08961","Longitude":"39.65088"},"geometry":{"type":"Point","coordinates":[39.65088,-4.08961]}},{"type":"Feature","properties":{"OBJECTID":"2443","Facility_N":"Gurunanak Medical Clinic","Type":"Medical Clinic","Owner":"Private Practice - General Practitioner","County":"Mombasa","Sub_County":"Mvita","Division":"Mvita","Location":"Shimanzi","Sub_Locati":"Shimanzi","Constituen":"MVITA","Nearest_To":"Majengo Market","Latitude":"-4.04239","Longitude":"39.65404"},"geometry":{"type":"Point","coordinates":[39.65404,-4.04239]}},{"type":"Feature","properties":{"OBJECTID":"2488","Facility_N":"Health Source Medical Centre","Type":"Medical Clinic","Owner":"Private Practice - General Practitioner","County":"Mombasa","Sub_County":"Kisauni","Division":"Nyali","Location":"Kongowea","Sub_Locati":"Maweni","Constituen":"KISAUNI","Nearest_To":"Kongowea","Latitude":"-4.03215","Longitude":"39.7118"},"geometry":{"type":"Point","coordinates":[39.7118,-4.03215]}},{"type":"Feature","properties":{"OBJECTID":"2497","Facility_N":"Hekima Medical Clinic","Type":"Medical Clinic","Owner":"Private Practice - Clinical Officer","County":"Mombasa","Sub_County":"Kisauni","Division":"Kisauni","Location":"Kisauni","Sub_Locati":"Junda","Constituen":"KISAUNI","Nearest_To":"Mombasa","Latitude":"-4.01735","Longitude":"39.68485"},"geometry":{"type":"Point","coordinates":[39.68485,-4.01735]}},{"type":"Feature","properties":{"OBJECTID":"2508","Facility_N":"Heri Medical Cilinic Bombolulu","Type":"Medical Clinic","Owner":"Private Practice - Clinical Officer","County":"Mombasa","Sub_County":"Kisauni","Division":"Kisauni","Location":"Kongowea","Sub_Locati":"Bombolulu","Constituen":"KISAUNI","Nearest_To":"Kongowea","Latitude":"-4.02573","Longitude":"39.69827"},"geometry":{"type":"Point","coordinates":[39.69827,-4.02573]}},{"type":"Feature","properties":{"OBJECTID":"2520","Facility_N":"Highrise Medical Services","Type":"Medical Clinic","Owner":"Private Practice - Nurse / Midwife","County":"Mombasa","Sub_County":"Kisauni","Division":"Kisauni","Location":"Bamburi","Sub_Locati":"Shanzu","Constituen":"KISAUNI","Nearest_To":"Bamburi","Latitude":"-4.00463","Longitude":"39.71152"},"geometry":{"type":"Point","coordinates":[39.71152,-4.00463]}},{"type":"Feature","properties":{"OBJECTID":"2579","Facility_N":"Hope Medical Clinic (Kilindini)","Type":"Medical Clinic","Owner":"Private Enterprise (Institution)","County":"Mombasa","Sub_County":"Changamwe","Division":"Changamwe","Location":"Miritini","Sub_Locati":"Kwa Jomvu","Constituen":"CHANGAMWE","Nearest_To":"Mombasa","Latitude":"-3.98311","Longitude":"39.5958"},"geometry":{"type":"Point","coordinates":[39.5958,-3.98311]}},{"type":"Feature","properties":{"OBJECTID":"2623","Facility_N":"Huruma Medical Clinic (Changamwe)","Type":"Medical Clinic","Owner":"Private Practice - Clinical Officer","County":"Mombasa","Sub_County":"Changamwe","Division":"Changamwe","Location":"Changamwe","Sub_Locati":"Portreitz","Constituen":"CHANGAMWE","Nearest_To":"Mombasa","Latitude":"-4.02042","Longitude":"39.60765"},"geometry":{"type":"Point","coordinates":[39.60765,-4.02042]}},{"type":"Feature","properties":{"OBJECTID":"2900","Facility_N":"Jadi Medical Clinic","Type":"Medical Clinic","Owner":"Private Enterprise (Institution)","County":"Mombasa","Sub_County":"Changamwe","Division":"Jomvu","Location":"Birikani","Sub_Locati":"Bangladesh","Constituen":"CHANGAMWE","Nearest_To":"Mombasa","Latitude":"-4.01887","Longitude":"39.63254"},"geometry":{"type":"Point","coordinates":[39.63254,-4.01887]}},{"type":"Feature","properties":{"OBJECTID":"2901","Facility_N":"Jaffery Medical Clinic","Type":"Medical Clinic","Owner":"Private Enterprise (Institution)","County":"Mombasa","Sub_County":"Mvita","Division":"Island","Location":"Old Town","Sub_Locati":"Mji Wa Kale","Constituen":"MVITA","Nearest_To":"Mombasa","Latitude":"-4.05929","Longitude":"39.67626"},"geometry":{"type":"Point","coordinates":[39.67626,-4.05929]}},{"type":"Feature","properties":{"OBJECTID":"2912","Facility_N":"Jambo Medical Clinic","Type":"Medical Clinic","Owner":"Private Enterprise (Institution)","County":"Mombasa","Sub_County":"Kisauni","Division":"Kisauni","Location":"Kongowea","Sub_Locati":"Kongowea","Constituen":"KISAUNI","Nearest_To":"Mombasa","Latitude":"-4.03867","Longitude":"39.6894"},"geometry":{"type":"Point","coordinates":[39.6894,-4.03867]}},{"type":"Feature","properties":{"OBJECTID":"2915","Facility_N":"Jamhuri Medical Clinic","Type":"Medical Clinic","Owner":"Private Enterprise (Institution)","County":"Mombasa","Sub_County":"Changamwe","Division":"Changamwe","Location":"Changamwe","Sub_Locati":"Changamwe","Constituen":"CHANGAMWE","Nearest_To":"Mombasa","Latitude":"-4.01392","Longitude":"39.6208"},"geometry":{"type":"Point","coordinates":[39.6208,-4.01392]}},{"type":"Feature","properties":{"OBJECTID":"2924","Facility_N":"Jamii Health Care Clinic (Kisauni)","Type":"Medical Clinic","Owner":"Private Practice - Clinical Officer","County":"Mombasa","Sub_County":"Kisauni","Division":"Island","Location":"Kisauni","Sub_Locati":"Kisauni","Constituen":"KISAUNI","Nearest_To":"Mombasa","Latitude":"-4.03037","Longitude":"39.68441"},"geometry":{"type":"Point","coordinates":[39.68441,-4.03037]}},{"type":"Feature","properties":{"OBJECTID":"2970","Facility_N":"Jericho Medical Clinic","Type":"Medical Clinic","Owner":"Private Enterprise (Institution)","County":"Mombasa","Sub_County":"Kisauni","Division":"Kisauni","Location":"Kongowea","Sub_Locati":"Kongowea","Constituen":"KISAUNI","Nearest_To":"Mombasa","Latitude":"-4.04284","Longitude":"39.68553"},"geometry":{"type":"Point","coordinates":[39.68553,-4.04284]}},{"type":"Feature","properties":{"OBJECTID":"2991","Facility_N":"Jocham Hospital","Type":"Other Hospital","Owner":"Private Enterprise (Institution)","County":"Mombasa","Sub_County":"Kisauni","Division":"Kisauni","Location":"Kisauni","Sub_Locati":"Kisauni","Constituen":"KISAUNI","Nearest_To":"Ekengeleni - Mombasa","Latitude":"-4.03672","Longitude":"39.68148"},"geometry":{"type":"Point","coordinates":[39.68148,-4.03672]}},{"type":"Feature","properties":{"OBJECTID":"2995","Facility_N":"Joint Medical Clinic","Type":"Medical Clinic","Owner":"Private Enterprise (Institution)","County":"Mombasa","Sub_County":"Likoni","Division":"Likoni","Location":"Likoni","Sub_Locati":"Likoni","Constituen":"LIKONI","Nearest_To":"Mombasa","Latitude":"-4.08925","Longitude":"39.6587"},"geometry":{"type":"Point","coordinates":[39.6587,-4.08925]}},{"type":"Feature","properties":{"OBJECTID":"2998","Facility_N":"Jomvu Kuu (MCM) Dispensary","Type":"Dispensary","Owner":"Local Authority","County":"Mombasa","Sub_County":"Changamwe","Division":"Jomvu","Location":"Miritini","Sub_Locati":"Kwa Jomvu","Constituen":"CHANGAMWE","Nearest_To":"Mombasa","Latitude":"-4.00512","Longitude":"39.59837"},"geometry":{"type":"Point","coordinates":[39.59837,-4.00512]}},{"type":"Feature","properties":{"OBJECTID":"2999","Facility_N":"Jomvu Model Health Centre","Type":"Health Centre","Owner":"Ministry of Health","County":"Mombasa","Sub_County":"Changamwe","Division":"Changamwe","Location":"Miritini","Sub_Locati":"Kwa Jomvu","Constituen":"CHANGAMWE","Nearest_To":"Mombasa","Latitude":"-4.00449","Longitude":"39.59929"},"geometry":{"type":"Point","coordinates":[39.59929,-4.00449]}},{"type":"Feature","properties":{"OBJECTID":"3000","Facility_N":"Jomvu Wellness Centre","Type":"Medical Clinic","Owner":"Non-Governmental Organizations","County":"Mombasa","Sub_County":"Changamwe","Division":"Jomvu","Location":"Jomvu","Sub_Locati":"Jomvu","Constituen":"CHANGAMWE","Nearest_To":"Mombasa","Latitude":"-4.00917","Longitude":"39.58981"},"geometry":{"type":"Point","coordinates":[39.58981,-4.00917]}},{"type":"Feature","properties":{"OBJECTID":"3005","Facility_N":"Jordan Medical Clinic","Type":"Medical Clinic","Owner":"Private Enterprise (Institution)","County":"Mombasa","Sub_County":"Kisauni","Division":"Kisauni","Location":"Bamburi","Sub_Locati":"Mtopanga","Constituen":"KISAUNI","Nearest_To":"Bamburi - Mombasa","Latitude":"-4.01138","Longitude":"39.69408"},"geometry":{"type":"Point","coordinates":[39.69408,-4.01138]}},{"type":"Feature","properties":{"OBJECTID":"3024","Facility_N":"Joy Medical Clinic (Changamwe)","Type":"Medical Clinic","Owner":"Private Enterprise (Institution)","County":"Mombasa","Sub_County":"Changamwe","Division":"Changamwe","Location":"Mikindani","Sub_Locati":"Kwa Shee","Constituen":"CHANGAMWE","Nearest_To":"Mombasa","Latitude":"-4.00203","Longitude":"39.62966"},"geometry":{"type":"Point","coordinates":[39.62966,-4.00203]}},{"type":"Feature","properties":{"OBJECTID":"3040","Facility_N":"Judy Medical Clinic","Type":"Medical Clinic","Owner":"Private Enterprise (Institution)","County":"Mombasa","Sub_County":"Changamwe","Division":"Jomvu","Location":"Miritini","Sub_Locati":"Kwa Jomvu","Constituen":"CHANGAMWE","Nearest_To":"Mombasa","Latitude":"-4.01022","Longitude":"39.60388"},"geometry":{"type":"Point","coordinates":[39.60388,-4.01022]}},{"type":"Feature","properties":{"OBJECTID":"3047","Facility_N":"Junda Dispensary","Type":"Dispensary","Owner":"Ministry of Health","County":"Mombasa","Sub_County":"Kisauni","Division":"Kisauni","Location":"Kisauni","Sub_Locati":"Magogoni","Constituen":"KISAUNI","Nearest_To":"Kongowea","Latitude":"-4.04025","Longitude":"39.67095"},"geometry":{"type":"Point","coordinates":[39.67095,-4.04025]}},{"type":"Feature","properties":{"OBJECTID":"3136","Facility_N":"Kaderboy Medical Clinic (Old Town)","Type":"Dispensary","Owner":"Local Authority","County":"Mombasa","Sub_County":"Mvita","Division":"Island","Location":"Old Town","Sub_Locati":"Makadara","Constituen":"MVITA","Nearest_To":"Mombasa","Latitude":"-4.06217","Longitude":"39.67344"},"geometry":{"type":"Point","coordinates":[39.67344,-4.06217]}},{"type":"Feature","properties":{"OBJECTID":"3182","Facility_N":"Kahada Medical Clinic","Type":"Medical Clinic","Owner":"Private Enterprise (Institution)","County":"Mombasa","Sub_County":"Changamwe","Division":"Jomvu","Location":"Miritini","Sub_Locati":"Miritini","Constituen":"CHANGAMWE","Nearest_To":"Mombasa","Latitude":"-4.00502","Longitude":"39.5794"},"geometry":{"type":"Point","coordinates":[39.5794,-4.00502]}},{"type":"Feature","properties":{"OBJECTID":"3231","Facility_N":"Kajabdar Medical Clinic","Type":"Medical Clinic","Owner":"Private Practice - Clinical Officer","County":"Mombasa","Sub_County":"Likoni","Division":"Likoni","Location":"Timbwani","Sub_Locati":"Timbwani","Constituen":"LIKONI","Nearest_To":"Mombasa","Latitude":"-4.107","Longitude":"39.64363"},"geometry":{"type":"Point","coordinates":[39.64363,-4.107]}},{"type":"Feature","properties":{"OBJECTID":"4006","Facility_N":"Kenya Ports Authority Staff Clinic","Type":"Medical Clinic","Owner":"Parastatal","County":"Mombasa","Sub_County":"Mvita","Division":"Mvita","Location":"Shimanzi","Sub_Locati":"Shimanzi","Constituen":"MVITA","Nearest_To":" ","Latitude":"-4.05002","Longitude":"39.65028"},"geometry":{"type":"Point","coordinates":[39.65028,-4.05002]}},{"type":"Feature","properties":{"OBJECTID":"4015","Facility_N":"Kenyatta University Health Unit Mombasa Campus","Type":"Dispensary","Owner":"State Coorporation","County":"Mombasa","Sub_County":"Mvita","Division":"Island","Location":"Makadara","Sub_Locati":"Old Town","Constituen":"MVITA","Nearest_To":"Treasury square - Centrall Bank of Kenya","Latitude":"-4.063","Longitude":"39.67632"},"geometry":{"type":"Point","coordinates":[39.67632,-4.063]}},{"type":"Feature","properties":{"OBJECTID":"4228","Facility_N":"Kibokoni Medical Clinic","Type":"Medical Clinic","Owner":"Private Enterprise (Institution)","County":"Mombasa","Sub_County":"Mvita","Division":"Island","Location":"Old Town","Sub_Locati":"Mji Wa Kale","Constituen":"MVITA","Nearest_To":"Mombasa","Latitude":"-4.0607","Longitude":"39.67717"},"geometry":{"type":"Point","coordinates":[39.67717,-4.0607]}},{"type":"Feature","properties":{"OBJECTID":"4259","Facility_N":"Kiembeni Community","Type":"Other Hospital","Owner":"Private Enterprise (Institution)","County":"Mombasa","Sub_County":"Kisauni","Division":"Kisauni","Location":"Bamburi","Sub_Locati":"Bamburi","Constituen":"KISAUNI","Nearest_To":"Mombasa","Latitude":"-3.99142","Longitude":"39.69938"},"geometry":{"type":"Point","coordinates":[39.69938,-3.99142]}},{"type":"Feature","properties":{"OBJECTID":"4260","Facility_N":"Kiembeni Medical Clinic","Type":"Medical Clinic","Owner":"Private Practice - Nurse / Midwife","County":"Mombasa","Sub_County":"Kisauni","Division":"Kisauni","Location":"Bamburi","Sub_Locati":"Bamburi","Constituen":"KISAUNI","Nearest_To":"Bamburi-Kiembeni","Latitude":"-3.99842","Longitude":"39.7002"},"geometry":{"type":"Point","coordinates":[39.7002,-3.99842]}},{"type":"Feature","properties":{"OBJECTID":"4439","Facility_N":"Kingorani Community Clinic","Type":"Medical Clinic","Owner":"Private Practice - General Practitioner","County":"Mombasa","Sub_County":"Mvita","Division":"Island","Location":"Majengo","Sub_Locati":"Majengo","Constituen":"MVITA","Nearest_To":"Majengo","Latitude":"-4.04339","Longitude":"39.660851"},"geometry":{"type":"Point","coordinates":[39.660851,-4.04339]}},{"type":"Feature","properties":{"OBJECTID":"4440","Facility_N":"King'orani Prison Dispensary","Type":"Dispensary","Owner":"Ministry of Health","County":"Mombasa","Sub_County":"Mvita","Division":"Island","Location":"Majengo","Sub_Locati":"King'Orani","Constituen":"MVITA","Nearest_To":"Mombasa","Latitude":"-4.05252","Longitude":"39.65755"},"geometry":{"type":"Point","coordinates":[39.65755,-4.05252]}},{"type":"Feature","properties":{"OBJECTID":"4444","Facility_N":"Kingstone Medical Clinic","Type":"Medical Clinic","Owner":"Private Enterprise (Institution)","County":"Mombasa","Sub_County":"Likoni","Division":"Likoni","Location":"Likoni","Sub_Locati":"Likoni","Constituen":"LIKONI","Nearest_To":"Mombasa","Latitude":"-4.08559","Longitude":"39.6617"},"geometry":{"type":"Point","coordinates":[39.6617,-4.08559]}},{"type":"Feature","properties":{"OBJECTID":"4608","Facility_N":"Kisauni Dispensary","Type":"Dispensary","Owner":"Local Authority","County":"Mombasa","Sub_County":"Kisauni","Division":"Kisauni","Location":"Kisauni","Sub_Locati":"Frere Town","Constituen":"KISAUNI","Nearest_To":"Near Frere Town Primary School","Latitude":"-4.02601","Longitude":"39.69393"},"geometry":{"type":"Point","coordinates":[39.69393,-4.02601]}},{"type":"Feature","properties":{"OBJECTID":"4609","Facility_N":"Kisauni Drop In VCT","Type":"VCT Centre (Stand-Alone)","Owner":"Non-Governmental Organizations","County":"Mombasa","Sub_County":"Kisauni","Division":"Kisauni","Location":" ","Sub_Locati":" ","Constituen":"KISAUNI","Nearest_To":" ","Latitude":"-4.02369","Longitude":"39.68734"},"geometry":{"type":"Point","coordinates":[39.68734,-4.02369]}},{"type":"Feature","properties":{"OBJECTID":"4634","Facility_N":"Kisimani Health Services","Type":"Health Centre","Owner":"Private Enterprise (Institution)","County":"Mombasa","Sub_County":"Kisauni","Division":"Kisauni","Location":"Kisauni","Sub_Locati":"Kisauni","Constituen":"KISAUNI","Nearest_To":"Mombasa","Latitude":"-4.02609","Longitude":"39.6956"},"geometry":{"type":"Point","coordinates":[39.6956,-4.02609]}},{"type":"Feature","properties":{"OBJECTID":"4635","Facility_N":"Kisiwani VCT","Type":"VCT Centre (Stand-Alone)","Owner":"Other Faith Based","County":"Mombasa","Sub_County":"Mvita","Division":"Island","Location":"Tononoka","Sub_Locati":"Tononoka","Constituen":"MVITA","Nearest_To":"Mwembe Tayari","Latitude":"-4.04794","Longitude":"39.66779"},"geometry":{"type":"Point","coordinates":[39.66779,-4.04794]}},{"type":"Feature","properties":{"OBJECTID":"4759","Facility_N":"Kmtc Mombasa Students Clinic","Type":"Medical Clinic","Owner":"Ministry of Health","County":"Mombasa","Sub_County":"Mvita","Division":"Island","Location":"Tononoka","Sub_Locati":"Tononoka","Constituen":"KISAUNI","Nearest_To":"Coast Provincial General Hospital","Latitude":"-4.04768","Longitude":"39.67279"},"geometry":{"type":"Point","coordinates":[39.67279,-4.04768]}},{"type":"Feature","properties":{"OBJECTID":"4835","Facility_N":"Kongowea Health Centre","Type":"Dispensary","Owner":"Local Authority","County":"Mombasa","Sub_County":"Kisauni","Division":"Kisauni","Location":"Kongowea","Sub_Locati":"Kongowea","Constituen":"KISAUNI","Nearest_To":"Mombasa","Latitude":"-4.04135","Longitude":"39.68408"},"geometry":{"type":"Point","coordinates":[39.68408,-4.04135]}},{"type":"Feature","properties":{"OBJECTID":"4836","Facility_N":"Kongowea Medical Clinic","Type":"Medical Clinic","Owner":"Private Enterprise (Institution)","County":"Mombasa","Sub_County":"Kisauni","Division":"Kisauni","Location":"Kongowea","Sub_Locati":"Kongowea","Constituen":"KISAUNI","Nearest_To":"Mombasa","Latitude":"-4.0397","Longitude":"39.68"},"geometry":{"type":"Point","coordinates":[39.68,-4.0397]}},{"type":"Feature","properties":{"OBJECTID":"4910","Facility_N":"Kuze Health Care","Type":"Medical Clinic","Owner":"Private Enterprise (Institution)","County":"Mombasa","Sub_County":"Mvita","Division":"Island","Location":"Old Town","Sub_Locati":"Mji Wa Kale","Constituen":"MVITA","Nearest_To":"Mombasa","Latitude":"-4.05583","Longitude":"39.67495"},"geometry":{"type":"Point","coordinates":[39.67495,-4.05583]}},{"type":"Feature","properties":{"OBJECTID":"4993","Facility_N":"Labline Healthcare","Type":"Medical Clinic","Owner":"Private Practice - Clinical Officer","County":"Mombasa","Sub_County":"Kisauni","Division":"Kisauni","Location":"Kisauni","Sub_Locati":"Kisauni","Constituen":"KISAUNI","Nearest_To":" ","Latitude":"-4.00349","Longitude":"39.7104"},"geometry":{"type":"Point","coordinates":[39.7104,-4.00349]}},{"type":"Feature","properties":{"OBJECTID":"4999","Facility_N":"Lady Grigg Maternity Hospital (CPGH)","Type":"Other Hospital","Owner":"Ministry of Health","County":"Mombasa","Sub_County":"Mvita","Division":"Island","Location":"Tononoka","Sub_Locati":"Tononoka","Constituen":"MVITA","Nearest_To":"Mombasa","Latitude":"-4.06313","Longitude":"39.65735"},"geometry":{"type":"Point","coordinates":[39.65735,-4.06313]}},{"type":"Feature","properties":{"OBJECTID":"5050","Facility_N":"Latulla Medical Centre","Type":"Medical Clinic","Owner":"Private Enterprise (Institution)","County":"Mombasa","Sub_County":"Changamwe","Division":"Changamwe","Location":"Mikindani","Sub_Locati":"Birikani","Constituen":"CHANGAMWE","Nearest_To":"Mombasa","Latitude":"-4.00318","Longitude":"39.63025"},"geometry":{"type":"Point","coordinates":[39.63025,-4.00318]}},{"type":"Feature","properties":{"OBJECTID":"5099","Facility_N":"Levice Medical Clinic","Type":"Medical Clinic","Owner":"Private Practice - General Practitioner","County":"Mombasa","Sub_County":"Kisauni","Division":"Kisauni","Location":"Kongowea","Sub_Locati":"Kongowea","Constituen":"KISAUNI","Nearest_To":"Kongowea","Latitude":"-4.03784","Longitude":"39.68696"},"geometry":{"type":"Point","coordinates":[39.68696,-4.03784]}},{"type":"Feature","properties":{"OBJECTID":"5118","Facility_N":"LIFOG Medical Clinic","Type":"Medical Clinic","Owner":"Private Practice - General Practitioner","County":"Mombasa","Sub_County":"Kisauni","Division":"Bamburi","Location":"Shanzu","Sub_Locati":"Majaoni","Constituen":"KISAUNI","Nearest_To":"Shanzu","Latitude":"-3.96667","Longitude":"39.71356"},"geometry":{"type":"Point","coordinates":[39.71356,-3.96667]}},{"type":"Feature","properties":{"OBJECTID":"5121","Facility_N":"Light For Christ Hospital","Type":"Other Hospital","Owner":"Private Enterprise (Institution)","County":"Mombasa","Sub_County":"Mvita","Division":"Island","Location":"Tononoka","Sub_Locati":"Tononoka","Constituen":"MVITA","Nearest_To":"Mombasa","Latitude":"-4.04562","Longitude":"39.6684"},"geometry":{"type":"Point","coordinates":[39.6684,-4.04562]}},{"type":"Feature","properties":{"OBJECTID":"5130","Facility_N":"Likoni Catholic Dispensary","Type":"Medical Clinic","Owner":"Kenya Episcopal Conference-Catholic Secretariat","County":"Mombasa","Sub_County":"Likoni","Division":"Likoni","Location":"Mwenza","Sub_Locati":"Shikaadabu","Constituen":"LIKONI","Nearest_To":"Mombasa","Latitude":"-4.0992","Longitude":"39.64575"},"geometry":{"type":"Point","coordinates":[39.64575,-4.0992]}},{"type":"Feature","properties":{"OBJECTID":"5131","Facility_N":"Likoni District Hospital","Type":"District Hospital","Owner":"Ministry of Health","County":"Mombasa","Sub_County":"Likoni","Division":"Likoni","Location":"Likoni","Sub_Locati":"Likoni","Constituen":"LIKONI","Nearest_To":"Mombasa","Latitude":"-4.03626","Longitude":"39.62066"},"geometry":{"type":"Point","coordinates":[39.62066,-4.03626]}},{"type":"Feature","properties":{"OBJECTID":"5132","Facility_N":"Likoni HIV Resource Centre","Type":"VCT Centre (Stand-Alone)","Owner":"Private Practice - Unspecified","County":"Mombasa","Sub_County":"Likoni","Division":"Longo","Location":" ","Sub_Locati":" ","Constituen":"LIKONI","Nearest_To":"Mombasa","Latitude":"-4.09783","Longitude":"39.63924"},"geometry":{"type":"Point","coordinates":[39.63924,-4.09783]}},{"type":"Feature","properties":{"OBJECTID":"5136","Facility_N":"Lilongwe Community Health Care","Type":"Medical Clinic","Owner":"Private Practice - Nurse / Midwife","County":"Mombasa","Sub_County":"Changamwe","Division":"Changamwe","Location":"Chaani","Sub_Locati":"Lilongwe","Constituen":"CHANGAMWE","Nearest_To":"Mombasa","Latitude":"-4.03415","Longitude":"39.60193"},"geometry":{"type":"Point","coordinates":[39.60193,-4.03415]}},{"type":"Feature","properties":{"OBJECTID":"5257","Facility_N":"Lovic Dermacare Clinic","Type":"Medical Clinic","Owner":"Private Practice - Clinical Officer","County":"Mombasa","Sub_County":"Changamwe","Division":"Changamwe","Location":"Changamwe","Sub_Locati":"Chaani","Constituen":"CHANGAMWE","Nearest_To":"Mombasa","Latitude":"-4.01807","Longitude":"39.62155"},"geometry":{"type":"Point","coordinates":[39.62155,-4.01807]}},{"type":"Feature","properties":{"OBJECTID":"5281","Facility_N":"Lukim Medical Clinic","Type":"Medical Clinic","Owner":"Private Practice - Nurse / Midwife","County":"Mombasa","Sub_County":"Kisauni","Division":"Kisauni","Location":"Bamburi","Sub_Locati":"Bamburi","Constituen":"KISAUNI","Nearest_To":"Bamburi Stage","Latitude":"-4.00098","Longitude":"39.70008"},"geometry":{"type":"Point","coordinates":[39.70008,-4.00098]}},{"type":"Feature","properties":{"OBJECTID":"5356","Facility_N":"Mackinnon Medical Clinic","Type":"Medical Centre","Owner":"Private Practice - Nurse / Midwife","County":"Mombasa","Sub_County":"Likoni","Division":"Likoni","Location":"Likoni","Sub_Locati":"Timbwani","Constituen":"LIKONI","Nearest_To":"Mombasa","Latitude":"-4.08619","Longitude":"39.66458"},"geometry":{"type":"Point","coordinates":[39.66458,-4.08619]}},{"type":"Feature","properties":{"OBJECTID":"5391","Facility_N":"Magongo (MCM) Dispensary","Type":"Health Centre","Owner":"Local Authority","County":"Mombasa","Sub_County":"Changamwe","Division":"Changamwe","Location":"Changamwe","Sub_Locati":"Changamwe","Constituen":"CHANGAMWE","Nearest_To":"Mombasa","Latitude":"-4.0246","Longitude":"39.62493"},"geometry":{"type":"Point","coordinates":[39.62493,-4.0246]}},{"type":"Feature","properties":{"OBJECTID":"5423","Facility_N":"Mainland Health Centre (Changamwe)","Type":"Health Centre","Owner":"Private Practice - Unspecified","County":"Mombasa","Sub_County":"Changamwe","Division":"Changamwe","Location":"Changamwe","Sub_Locati":"Magongo","Constituen":"CHANGAMWE","Nearest_To":"Mombasa","Latitude":"-4.03523","Longitude":"39.62078"},"geometry":{"type":"Point","coordinates":[39.62078,-4.03523]}},{"type":"Feature","properties":{"OBJECTID":"5424","Facility_N":"Mainland Health Centre (Magongo)","Type":"Health Centre","Owner":"Private Enterprise (Institution)","County":"Mombasa","Sub_County":"Changamwe","Division":"Changamwe","Location":"Changamwe","Sub_Locati":"Mainland","Constituen":"CHANGAMWE","Nearest_To":"Mombasa","Latitude":"-4.02243","Longitude":"39.62032"},"geometry":{"type":"Point","coordinates":[39.62032,-4.02243]}},{"type":"Feature","properties":{"OBJECTID":"5425","Facility_N":"Mainview Medical Clinic","Type":"Medical Clinic","Owner":"Private Enterprise (Institution)","County":"Mombasa","Sub_County":"Changamwe","Division":"Changamwe","Location":"Chaani","Sub_Locati":"Magongo","Constituen":"CHANGAMWE","Nearest_To":"Mombasa","Latitude":"-4.02258","Longitude":"39.62075"},"geometry":{"type":"Point","coordinates":[39.62075,-4.02258]}},{"type":"Feature","properties":{"OBJECTID":"5433","Facility_N":"Majengo Dispensary (Mombasa)","Type":"Dispensary","Owner":"Local Authority","County":"Mombasa","Sub_County":"Mvita","Division":"Island","Location":"Majengo","Sub_Locati":"Majengo","Constituen":"MVITA","Nearest_To":"Mombasa","Latitude":"-4.04839","Longitude":"39.66051"},"geometry":{"type":"Point","coordinates":[39.66051,-4.04839]}},{"type":"Feature","properties":{"OBJECTID":"5451","Facility_N":"Makande Healthcare Services","Type":"Medical Clinic","Owner":"Private Practice - Nurse / Midwife","County":"Mombasa","Sub_County":"Mvita","Division":"Island","Location":"Tudor","Sub_Locati":"Makande","Constituen":"MVITA","Nearest_To":"Gateway paradise hotel","Latitude":"-4.04075","Longitude":"39.65629"},"geometry":{"type":"Point","coordinates":[39.65629,-4.04075]}},{"type":"Feature","properties":{"OBJECTID":"5486","Facility_N":"Makupa Maternity & Nursing Home","Type":"Nursing Home","Owner":"Private Enterprise (Institution)","County":"Mombasa","Sub_County":"Changamwe","Division":"Island","Location":" ","Sub_Locati":" ","Constituen":"CHANGAMWE","Nearest_To":"Mombasa","Latitude":"-4.04518","Longitude":"39.66064"},"geometry":{"type":"Point","coordinates":[39.66064,-4.04518]}},{"type":"Feature","properties":{"OBJECTID":"5655","Facility_N":"Marie Stopes Clinic (Kongowea)","Type":"Medical Clinic","Owner":"Non-Governmental Organizations","County":"Mombasa","Sub_County":"Kisauni","Division":"Kisauni","Location":"Kongowea","Sub_Locati":"Kongowea","Constituen":"KISAUNI","Nearest_To":"Mombasa","Latitude":"-4.04624","Longitude":"39.6941"},"geometry":{"type":"Point","coordinates":[39.6941,-4.04624]}},{"type":"Feature","properties":{"OBJECTID":"5667","Facility_N":"Marie Stopes Mombasa Nursing Home","Type":"Nursing Home","Owner":"Private Practice - General Practitioner","County":"Mombasa","Sub_County":"Mvita","Division":"Island","Location":"Ganjoni","Sub_Locati":"Ganjoni","Constituen":"MVITA","Nearest_To":"Mombasa","Latitude":"-4.06057","Longitude":"39.66324"},"geometry":{"type":"Point","coordinates":[39.66324,-4.06057]}},{"type":"Feature","properties":{"OBJECTID":"5721","Facility_N":"Mary Immaculate Cottage Hospital (Mombasa)","Type":"Nursing Home","Owner":"Other Faith Based","County":"Mombasa","Sub_County":"Mvita","Division":"Island","Location":"Majengo","Sub_Locati":"Majengo","Constituen":"MVITA","Nearest_To":"Mombasa","Latitude":"-4.0461","Longitude":"39.66333"},"geometry":{"type":"Point","coordinates":[39.66333,-4.0461]}},{"type":"Feature","properties":{"OBJECTID":"5749","Facility_N":"Mashauri Medical Centre","Type":"Medical Clinic","Owner":"Private Practice - Clinical Officer","County":"Mombasa","Sub_County":"Kisauni","Division":"Kisauni","Location":"Kisauni","Sub_Locati":"Kisauni","Constituen":"KISAUNI","Nearest_To":"Mombasa","Latitude":"-4.02254","Longitude":"39.68857"},"geometry":{"type":"Point","coordinates":[39.68857,-4.02254]}},{"type":"Feature","properties":{"OBJECTID":"5856","Facility_N":"Maunguja Dispensary","Type":"Dispensary","Owner":"Local Authority","County":"Mombasa","Sub_County":"Kisauni","Division":"Kisauni","Location":"Bamburi","Sub_Locati":"Maunguja","Constituen":"KISAUNI","Nearest_To":"Maunguja Village","Latitude":"-3.97219","Longitude":"39.65101"},"geometry":{"type":"Point","coordinates":[39.65101,-3.97219]}},{"type":"Feature","properties":{"OBJECTID":"5868","Facility_N":"Maweni CDF Dispensary (Kongowea)","Type":"Dispensary","Owner":"Ministry of Health","County":"Mombasa","Sub_County":"Kisauni","Division":"Kisauni","Location":"Kongowea","Sub_Locati":"Maweni","Constituen":"KISAUNI","Nearest_To":"Kongowea Maweni","Latitude":"-4.03833","Longitude":"39.69512"},"geometry":{"type":"Point","coordinates":[39.69512,-4.03833]}},{"type":"Feature","properties":{"OBJECTID":"5874","Facility_N":"Maximillan Clinic","Type":"Medical Clinic","Owner":"Private Practice - General Practitioner","County":"Mombasa","Sub_County":"Likoni","Division":"Likoni","Location":"Likoni","Sub_Locati":"Bofu","Constituen":"LIKONI","Nearest_To":"Mombasa","Latitude":"-4.0993","Longitude":"39.64592"},"geometry":{"type":"Point","coordinates":[39.64592,-4.0993]}},{"type":"Feature","properties":{"OBJECTID":"5902","Facility_N":"Mbaraki Police VCT","Type":"VCT Centre (Stand-Alone)","Owner":"Other Public Institution","County":"Mombasa","Sub_County":"Mvita","Division":"Island","Location":" ","Sub_Locati":" ","Constituen":"MVITA","Nearest_To":" ","Latitude":"-4.06852","Longitude":"39.66539"},"geometry":{"type":"Point","coordinates":[39.66539,-4.06852]}},{"type":"Feature","properties":{"OBJECTID":"5944","Facility_N":"Mbuta Model Health Centre","Type":"Dispensary","Owner":"Ministry of Health","County":"Mombasa","Sub_County":"Likoni","Division":"Longo","Location":"Mtongwe","Sub_Locati":"Mbuta","Constituen":"LIKONI","Nearest_To":"Mombasa","Latitude":"-4.05077","Longitude":"39.66123"},"geometry":{"type":"Point","coordinates":[39.66123,-4.05077]}},{"type":"Feature","properties":{"OBJECTID":"5955","Facility_N":"Mecca Medical Clinic","Type":"Medical Clinic","Owner":"Private Enterprise (Institution)","County":"Mombasa","Sub_County":"Changamwe","Division":"Changamwe","Location":"Portreitz","Sub_Locati":"Portreitz","Constituen":"CHANGAMWE","Nearest_To":"Mombasa","Latitude":"-4.03515","Longitude":"39.6011"},"geometry":{"type":"Point","coordinates":[39.6011,-4.03515]}},{"type":"Feature","properties":{"OBJECTID":"5980","Facility_N":"Medina Medical Clinic","Type":"Medical Clinic","Owner":"Private Enterprise (Institution)","County":"Mombasa","Sub_County":"Changamwe","Division":"Changamwe","Location":"Portreitz","Sub_Locati":"Portreitz","Constituen":"CHANGAMWE","Nearest_To":"Mombasa","Latitude":"-4.03515","Longitude":"39.6011"},"geometry":{"type":"Point","coordinates":[39.6011,-4.03515]}},{"type":"Feature","properties":{"OBJECTID":"5983","Facility_N":"Meditrust Health Care Services","Type":"Medical Clinic","Owner":"Private Practice - General Practitioner","County":"Mombasa","Sub_County":"Kisauni","Division":"Kisauni","Location":"Kongowea","Sub_Locati":"Bombolulu","Constituen":"KISAUNI","Nearest_To":"Bombolulu","Latitude":"-4.02278","Longitude":"39.705"},"geometry":{"type":"Point","coordinates":[39.705,-4.02278]}},{"type":"Feature","properties":{"OBJECTID":"6000","Facility_N":"Memon Medical Centre","Type":"Medical Clinic","Owner":"Private Practice - Unspecified","County":"Mombasa","Sub_County":"Mvita","Division":"Island","Location":"Tononoka","Sub_Locati":"Kaloleni","Constituen":"MVITA","Nearest_To":"Mwenbe Tayari  Market","Latitude":"-4.05311","Longitude":"39.66839"},"geometry":{"type":"Point","coordinates":[39.66839,-4.05311]}},{"type":"Feature","properties":{"OBJECTID":"6034","Facility_N":"Meridian Medical Centre","Type":"Medical Clinic","Owner":"Private Practice - General Practitioner","County":"Mombasa","Sub_County":"Mvita","Division":"Island","Location":"Ganjoni","Sub_Locati":"Ganjoni","Constituen":"MVITA","Nearest_To":"Railway Station","Latitude":"-4.06083","Longitude":"39.6605"},"geometry":{"type":"Point","coordinates":[39.6605,-4.06083]}},{"type":"Feature","properties":{"OBJECTID":"6092","Facility_N":"Mewa Hospital","Type":"Other Hospital","Owner":"Other Faith Based","County":"Mombasa","Sub_County":"Mvita","Division":"Island","Location":"Majengo","Sub_Locati":"Majengo","Constituen":"MVITA","Nearest_To":"Mombasa","Latitude":"-4.05305","Longitude":"39.66154"},"geometry":{"type":"Point","coordinates":[39.66154,-4.05305]}},{"type":"Feature","properties":{"OBJECTID":"6134","Facility_N":"Mikanjuni Family Medical Clinic","Type":"Medical Clinic","Owner":"Private Enterprise (Institution)","County":"Mombasa","Sub_County":"Changamwe","Division":"Changamwe","Location":"Miritini","Sub_Locati":"Jomvu","Constituen":"CHANGAMWE","Nearest_To":"Mombasa","Latitude":"-4.00448","Longitude":"39.59928"},"geometry":{"type":"Point","coordinates":[39.59928,-4.00448]}},{"type":"Feature","properties":{"OBJECTID":"6135","Facility_N":"Mikanjuni Medical Clinic","Type":"Medical Clinic","Owner":"Private Enterprise (Institution)","County":"Mombasa","Sub_County":"Changamwe","Division":"Changamwe","Location":"Miritini","Sub_Locati":"Jomvu","Constituen":"CHANGAMWE","Nearest_To":"Mombasa","Latitude":"-3.99804","Longitude":"39.60097"},"geometry":{"type":"Point","coordinates":[39.60097,-3.99804]}},{"type":"Feature","properties":{"OBJECTID":"6138","Facility_N":"Mikindani (MCM) Dispensary","Type":"Dispensary","Owner":"Local Authority","County":"Mombasa","Sub_County":"Changamwe","Division":"Jomvu","Location":"Jomvu","Sub_Locati":"Mikindani","Constituen":"CHANGAMWE","Nearest_To":"Mombasa","Latitude":"-4.00509","Longitude":"39.62816"},"geometry":{"type":"Point","coordinates":[39.62816,-4.00509]}},{"type":"Feature","properties":{"OBJECTID":"6139","Facility_N":"Mikindani Catholic Dispensary","Type":"Dispensary","Owner":"Kenya Episcopal Conference-Catholic Secretariat","County":"Mombasa","Sub_County":"Changamwe","Division":"Jomvu","Location":"Mikindani","Sub_Locati":"Kwa Shee","Constituen":"CHANGAMWE","Nearest_To":" ","Latitude":"-4.00193","Longitude":"39.62971"},"geometry":{"type":"Point","coordinates":[39.62971,-4.00193]}},{"type":"Feature","properties":{"OBJECTID":"6140","Facility_N":"Mikindani Medical Clinic","Type":"Medical Clinic","Owner":"Private Enterprise (Institution)","County":"Mombasa","Sub_County":"Changamwe","Division":"Changamwe","Location":"Mikindani","Sub_Locati":"Kwa Shee","Constituen":"CHANGAMWE","Nearest_To":"Mombasa","Latitude":"-4.00356","Longitude":"39.62987"},"geometry":{"type":"Point","coordinates":[39.62987,-4.00356]}},{"type":"Feature","properties":{"OBJECTID":"6172","Facility_N":"Miranga Medical Clinic","Type":"Medical Clinic","Owner":"Private Enterprise (Institution)","County":"Mombasa","Sub_County":"Changamwe","Division":"Changamwe","Location":"Portreitz","Sub_Locati":"Portreitz","Constituen":"CHANGAMWE","Nearest_To":"Mombasa","Latitude":"-4.01484","Longitude":"39.61755"},"geometry":{"type":"Point","coordinates":[39.61755,-4.01484]}},{"type":"Feature","properties":{"OBJECTID":"6181","Facility_N":"Miritini (MCM) Dispensary","Type":"Dispensary","Owner":"Local Authority","County":"Mombasa","Sub_County":"Changamwe","Division":"Jomvu","Location":"Miritini","Sub_Locati":"Miritini","Constituen":"CHANGAMWE","Nearest_To":"Mombasa","Latitude":"-4.0111","Longitude":"39.63027"},"geometry":{"type":"Point","coordinates":[39.63027,-4.0111]}},{"type":"Feature","properties":{"OBJECTID":"6182","Facility_N":"Miritini CDF Dispensary","Type":"Dispensary","Owner":"Ministry of Health","County":"Mombasa","Sub_County":"Changamwe","Division":"Jomvu","Location":"Miritini","Sub_Locati":"Miritini","Constituen":"CHANGAMWE","Nearest_To":"Mombasa","Latitude":"-4.00184","Longitude":"39.58399"},"geometry":{"type":"Point","coordinates":[39.58399,-4.00184]}},{"type":"Feature","properties":{"OBJECTID":"6187","Facility_N":"Mishoroni Dispensary","Type":"Dispensary","Owner":"Private Enterprise (Institution)","County":"Mombasa","Sub_County":"Kisauni","Division":"Kisauni","Location":"Kisauni","Sub_Locati":"Junda","Constituen":"KISAUNI","Nearest_To":"Mombasa","Latitude":"-4.01894","Longitude":"39.68344"},"geometry":{"type":"Point","coordinates":[39.68344,-4.01894]}},{"type":"Feature","properties":{"OBJECTID":"6223","Facility_N":"Mjeni Medical Clinic","Type":"Medical Clinic","Owner":"Private Enterprise (Institution)","County":"Mombasa","Sub_County":"Kisauni","Division":"Kisauni","Location":"Kongowea","Sub_Locati":"Maweni","Constituen":"KISAUNI","Nearest_To":"Near Precious Twins primary school - Mombasa","Latitude":"-4.0361","Longitude":"39.69119"},"geometry":{"type":"Point","coordinates":[39.69119,-4.0361]}},{"type":"Feature","properties":{"OBJECTID":"6233","Facility_N":"Mlaleo Health Centre","Type":"Nursing Home","Owner":"Private Enterprise (Institution)","County":"Mombasa","Sub_County":"Kisauni","Division":"Kisauni","Location":"Kisauni","Sub_Locati":"Mlaleo","Constituen":"KISAUNI","Nearest_To":"Mombasa","Latitude":"-4.02771","Longitude":"39.68397"},"geometry":{"type":"Point","coordinates":[39.68397,-4.02771]}},{"type":"Feature","properties":{"OBJECTID":"6234","Facility_N":"Mlaleo Health Centre (MOH)","Type":"Health Centre","Owner":"Ministry of Health","County":"Mombasa","Sub_County":"Kisauni","Division":"Kisauni","Location":"Kisauni","Sub_Locati":"Mlaleo","Constituen":"KISAUNI","Nearest_To":"Kongowea market","Latitude":"-4.02796","Longitude":"39.68619"},"geometry":{"type":"Point","coordinates":[39.68619,-4.02796]}},{"type":"Feature","properties":{"OBJECTID":"6278","Facility_N":"Moi Airport Dispensary","Type":"Dispensary","Owner":"Ministry of Health","County":"Mombasa","Sub_County":"Changamwe","Division":"Changamwe","Location":"Portreitz","Sub_Locati":"Portreitz","Constituen":"CHANGAMWE","Nearest_To":"Mombasa","Latitude":"-4.03177","Longitude":"39.60411"},"geometry":{"type":"Point","coordinates":[39.60411,-4.03177]}},{"type":"Feature","properties":{"OBJECTID":"6302","Facility_N":"Mombasa Catholic Health Care Services","Type":"Health Programme","Owner":"Kenya Episcopal Conference-Catholic Secretariat","County":"Mombasa","Sub_County":"Changamwe","Division":"Changamwe","Location":"Kipevu","Sub_Locati":"Chaani","Constituen":"CHANGAMWE","Nearest_To":"Mombasa/ Chaani Market","Latitude":"-4.01092","Longitude":"39.37236"},"geometry":{"type":"Point","coordinates":[39.37236,-4.01092]}},{"type":"Feature","properties":{"OBJECTID":"6303","Facility_N":"Mombasa County Beyond Zero Mobile Clinic","Type":"Medical Clinic","Owner":"Ministry of Health","County":"Mombasa","Sub_County":"Mvita","Division":"Island","Location":"Ganjoni","Sub_Locati":"Kizingo","Constituen":"MVITA","Nearest_To":"Old Town","Latitude":"-4.04295","Longitude":"39.66795"},"geometry":{"type":"Point","coordinates":[39.66795,-4.04295]}},{"type":"Feature","properties":{"OBJECTID":"6304","Facility_N":"Mombasa Hospital","Type":"Other Hospital","Owner":"Private Enterprise (Institution)","County":"Mombasa","Sub_County":"Mvita","Division":"Island","Location":"Ganjoni","Sub_Locati":"Kizingo","Constituen":"MVITA","Nearest_To":"Mombasa","Latitude":"-4.06495","Longitude":"39.68049"},"geometry":{"type":"Point","coordinates":[39.68049,-4.06495]}},{"type":"Feature","properties":{"OBJECTID":"6305","Facility_N":"Mombasa Medicare Clinic","Type":"Medical Clinic","Owner":"Private Practice - Nurse / Midwife","County":"Mombasa","Sub_County":"Kisauni","Division":"Kisauni","Location":"Bamburi","Sub_Locati":"Mtopanga","Constituen":"KISAUNI","Nearest_To":"Mtopanag","Latitude":"-4.0314","Longitude":"39.68363"},"geometry":{"type":"Point","coordinates":[39.68363,-4.0314]}},{"type":"Feature","properties":{"OBJECTID":"6306","Facility_N":"Mombasa Polytechnic Clinic","Type":"Medical Clinic","Owner":"Private Enterprise (Institution)","County":"Mombasa","Sub_County":"Mvita","Division":"Island","Location":" ","Sub_Locati":" ","Constituen":"MVITA","Nearest_To":" ","Latitude":"-4.036","Longitude":"39.66864"},"geometry":{"type":"Point","coordinates":[39.66864,-4.036]}},{"type":"Feature","properties":{"OBJECTID":"6308","Facility_N":"Mombasa Roadside Wellness Centre","Type":"Medical Clinic","Owner":"Non-Governmental Organizations","County":"Mombasa","Sub_County":"Changamwe","Division":"Changamwe","Location":"Kipevu","Sub_Locati":"Kipevu","Constituen":"CHANGAMWE","Nearest_To":"Mombasa","Latitude":"-4.0401","Longitude":"39.6331"},"geometry":{"type":"Point","coordinates":[39.6331,-4.0401]}},{"type":"Feature","properties":{"OBJECTID":"6316","Facility_N":"Montana Hospital","Type":"Other Hospital","Owner":"Private Practice - General Practitioner","County":"Mombasa","Sub_County":"Kisauni","Division":"Kisauni","Location":"Kisauni","Sub_Locati":"Magogoni","Constituen":"KISAUNI","Nearest_To":"Kongowea","Latitude":"-4.01619","Longitude":"39.68699"},"geometry":{"type":"Point","coordinates":[39.68699,-4.01619]}},{"type":"Feature","properties":{"OBJECTID":"6341","Facility_N":"Mother Amadea Health Centre","Type":"Nursing Home","Owner":"Kenya Episcopal Conference-Catholic Secretariat","County":"Mombasa","Sub_County":"Changamwe","Division":"Changamwe","Location":"Mikindani","Sub_Locati":"Birikani","Constituen":"CHANGAMWE","Nearest_To":"Mombasa","Latitude":"-4.00434","Longitude":"39.62743"},"geometry":{"type":"Point","coordinates":[39.62743,-4.00434]}},{"type":"Feature","properties":{"OBJECTID":"6348","Facility_N":"Mother Teresa Medical Clinic","Type":"Medical Clinic","Owner":"Private Enterprise (Institution)","County":"Mombasa","Sub_County":"Changamwe","Division":"Changamwe","Location":"Changamwe","Sub_Locati":"Changamwe","Constituen":"CHANGAMWE","Nearest_To":"Mombasa","Latitude":"-4.01392","Longitude":"39.6208"},"geometry":{"type":"Point","coordinates":[39.6208,-4.01392]}},{"type":"Feature","properties":{"OBJECTID":"6376","Facility_N":"Mrima CDF Health Cenre","Type":"Health Centre","Owner":"Ministry of Health","County":"Mombasa","Sub_County":"Likoni","Division":"Likoni","Location":"Likoni","Sub_Locati":"Likoni","Constituen":"LIKONI","Nearest_To":"Mombasa","Latitude":"-4.09835","Longitude":"39.65146"},"geometry":{"type":"Point","coordinates":[39.65146,-4.09835]}},{"type":"Feature","properties":{"OBJECTID":"6387","Facility_N":"Msikiti Noor Medical Clinic","Type":"Medical Clinic","Owner":"Private Enterprise (Institution)","County":"Mombasa","Sub_County":"Changamwe","Division":"Changamwe","Location":"Chaani","Sub_Locati":"Chaani","Constituen":"CHANGAMWE","Nearest_To":"Mombasa","Latitude":"-4.02597","Longitude":"39.62859"},"geometry":{"type":"Point","coordinates":[39.62859,-4.02597]}},{"type":"Feature","properties":{"OBJECTID":"6418","Facility_N":"MTC Mombasa","Type":"Dispensary","Owner":"Other Public Institution","County":"Mombasa","Sub_County":"Mvita","Division":"Island","Location":"Tononoka","Sub_Locati":"Tononoka","Constituen":"MVITA","Nearest_To":"Mombasa","Latitude":"-4.04562","Longitude":"39.6684"},"geometry":{"type":"Point","coordinates":[39.6684,-4.04562]}},{"type":"Feature","properties":{"OBJECTID":"6423","Facility_N":"Mtongwe (MCM) Dispensary","Type":"Dispensary","Owner":"Local Authority","County":"Mombasa","Sub_County":"Likoni","Division":"Longo","Location":"Mtongwe","Sub_Locati":"Mtongwe","Constituen":"LIKONI","Nearest_To":"Mombasa","Latitude":"-4.08108","Longitude":"39.60914"},"geometry":{"type":"Point","coordinates":[39.60914,-4.08108]}},{"type":"Feature","properties":{"OBJECTID":"6425","Facility_N":"Mtopanga Clinic","Type":"Medical Clinic","Owner":"Private Enterprise (Institution)","County":"Mombasa","Sub_County":"Kisauni","Division":"Kisauni","Location":"Bamburi","Sub_Locati":"Bamburi","Constituen":"KISAUNI","Nearest_To":"Mombasa","Latitude":"-4.00609","Longitude":"39.69667"},"geometry":{"type":"Point","coordinates":[39.69667,-4.00609]}},{"type":"Feature","properties":{"OBJECTID":"6743","Facility_N":"Mvita Dispensary","Type":"Dispensary","Owner":"Local Authority","County":"Mombasa","Sub_County":"Mvita","Division":"Island","Location":"Majengo","Sub_Locati":"Majengo","Constituen":"MVITA","Nearest_To":"Near DO's office Mvita","Latitude":"-4.05132","Longitude":"39.65843"},"geometry":{"type":"Point","coordinates":[39.65843,-4.05132]}},{"type":"Feature","properties":{"OBJECTID":"6751","Facility_N":"Mwakirunge Dispensary","Type":"Dispensary","Owner":"Local Authority","County":"Mombasa","Sub_County":"Kisauni","Division":"Kisauni","Location":"Bamburi","Sub_Locati":"Mwakirunge","Constituen":"KISAUNI","Nearest_To":"Mwakirunge Dumping Site","Latitude":"-4.03355","Longitude":"39.66053"},"geometry":{"type":"Point","coordinates":[39.66053,-4.03355]}},{"type":"Feature","properties":{"OBJECTID":"6766","Facility_N":"Mwangaza Medical Clinic (Bakarani)","Type":"Medical Clinic","Owner":"Private Practice - Nurse / Midwife","County":"Mombasa","Sub_County":"Kisauni","Division":"Kisauni","Location":"Kisauni","Sub_Locati":"Bakarani","Constituen":"KISAUNI","Nearest_To":"Bakarani","Latitude":"-4.0149","Longitude":"39.69644"},"geometry":{"type":"Point","coordinates":[39.69644,-4.0149]}},{"type":"Feature","properties":{"OBJECTID":"6803","Facility_N":"Mwembe Tayari Staff Clinic","Type":"Dispensary","Owner":"Local Authority","County":"Mombasa","Sub_County":"Mvita","Division":"Island","Location":"Mwembe Tayari","Sub_Locati":"Mwembe Tayari","Constituen":"MVITA","Nearest_To":"Mombasa","Latitude":"-4.05668","Longitude":"39.66981"},"geometry":{"type":"Point","coordinates":[39.66981,-4.05668]}},{"type":"Feature","properties":{"OBJECTID":"6869","Facility_N":"Nairobi Homes Clinic","Type":"Medical Clinic","Owner":"Private Practice - Clinical Officer","County":"Mombasa","Sub_County":"Kisauni","Division":"Kisauni","Location":"Bamburi","Sub_Locati":"Mwembelegeza","Constituen":"KISAUNI","Nearest_To":"Bamburi Mtamboni","Latitude":"-4.00233","Longitude":"39.7013"},"geometry":{"type":"Point","coordinates":[39.7013,-4.00233]}},{"type":"Feature","properties":{"OBJECTID":"7130","Facility_N":"New Age VCT","Type":"VCT Centre (Stand-Alone)","Owner":"Private Enterprise (Institution)","County":"Mombasa","Sub_County":"Likoni","Division":"Likoni","Location":"Likoni","Sub_Locati":"Timbwani","Constituen":"LIKONI","Nearest_To":"Mombasa","Latitude":"-4.09002","Longitude":"39.67122"},"geometry":{"type":"Point","coordinates":[39.67122,-4.09002]}},{"type":"Feature","properties":{"OBJECTID":"7134","Facility_N":"New Chaani Healthcare Clinic & Laboratory","Type":"Medical Clinic","Owner":"Private Practice - Clinical Officer","County":"Mombasa","Sub_County":"Changamwe","Division":"Changamwe","Location":"Chaani","Sub_Locati":"Chaani","Constituen":"CHANGAMWE","Nearest_To":"Mombasa","Latitude":"-4.03151","Longitude":"39.62695"},"geometry":{"type":"Point","coordinates":[39.62695,-4.03151]}},{"type":"Feature","properties":{"OBJECTID":"7140","Facility_N":"New Jamin Medical Clinic","Type":"Medical Clinic","Owner":"Private Enterprise (Institution)","County":"Mombasa","Sub_County":"Changamwe","Division":"Jomvu","Location":"Miritini","Sub_Locati":"Miritini","Constituen":"CHANGAMWE","Nearest_To":"Mombasa","Latitude":"-4.0037","Longitude":"39.58025"},"geometry":{"type":"Point","coordinates":[39.58025,-4.0037]}},{"type":"Feature","properties":{"OBJECTID":"7149","Facility_N":"New Mtongwe Medical Clinic","Type":"Medical Clinic","Owner":"Private Practice - Clinical Officer","County":"Mombasa","Sub_County":"Likoni","Division":"Likoni","Location":"Longo","Sub_Locati":"Longo","Constituen":"LIKONI","Nearest_To":"Mombasa","Latitude":"-4.07537","Longitude":"39.64023"},"geometry":{"type":"Point","coordinates":[39.64023,-4.07537]}},{"type":"Feature","properties":{"OBJECTID":"7152","Facility_N":"New Nyali Paeds Hospital","Type":"Other Hospital","Owner":"Private Enterprise (Institution)","County":"Mombasa","Sub_County":"Kisauni","Division":"Kisauni","Location":"Kongowea","Sub_Locati":"Maweni","Constituen":"KISAUNI","Nearest_To":"Mombasa","Latitude":"-4.02564","Longitude":"39.7103"},"geometry":{"type":"Point","coordinates":[39.7103,-4.02564]}},{"type":"Feature","properties":{"OBJECTID":"7156","Facility_N":"New Road Medical Care","Type":"Medical Clinic","Owner":"Private Enterprise (Institution)","County":"Mombasa","Sub_County":"Changamwe","Division":"Changamwe","Location":"Chaani","Sub_Locati":"Chaani","Constituen":"CHANGAMWE","Nearest_To":"Mombasa","Latitude":"-4.03578","Longitude":"39.61982"},"geometry":{"type":"Point","coordinates":[39.61982,-4.03578]}},{"type":"Feature","properties":{"OBJECTID":"7287","Facility_N":"Nguuni Health Centre","Type":"Medical Clinic","Owner":"Private Enterprise (Institution)","County":"Mombasa","Sub_County":"Kisauni","Division":"Kisauni","Location":"Bamburi","Sub_Locati":"Bamburi","Constituen":"KISAUNI","Nearest_To":"Mombasa","Latitude":"-3.99343","Longitude":"39.69584"},"geometry":{"type":"Point","coordinates":[39.69584,-3.99343]}},{"type":"Feature","properties":{"OBJECTID":"7453","Facility_N":"Nyali Children Hospital","Type":"Other Hospital","Owner":"Private Enterprise (Institution)","County":"Mombasa","Sub_County":"Kisauni","Division":"Kisauni","Location":"Kongowea","Sub_Locati":"Nyali","Constituen":"KISAUNI","Nearest_To":"Mombasa","Latitude":"-4.02978","Longitude":"39.71511"},"geometry":{"type":"Point","coordinates":[39.71511,-4.02978]}},{"type":"Feature","properties":{"OBJECTID":"7454","Facility_N":"Nyali Childrens Hospital","Type":"Health Centre","Owner":"Private Practice - General Practitioner","County":"Mombasa","Sub_County":"Likoni","Division":"Likoni","Location":"Likoni","Sub_Locati":"Likoni","Constituen":"LIKONI","Nearest_To":"Mombasa","Latitude":"-4.0851","Longitude":"39.66229"},"geometry":{"type":"Point","coordinates":[39.66229,-4.0851]}},{"type":"Feature","properties":{"OBJECTID":"7455","Facility_N":"Nyali Health Care Limited","Type":"Dispensary","Owner":"Private Enterprise (Institution)","County":"Mombasa","Sub_County":"Kisauni","Division":"Kisauni","Location":"Kongowea","Sub_Locati":"Maweni","Constituen":"KISAUNI","Nearest_To":"Nakumatt Nyali","Latitude":"-4.02797","Longitude":"39.71669"},"geometry":{"type":"Point","coordinates":[39.71669,-4.02797]}},{"type":"Feature","properties":{"OBJECTID":"7586","Facility_N":"Nys Dispensary (Kilindini)","Type":"Dispensary","Owner":"Ministry of Health","County":"Mombasa","Sub_County":"Likoni","Division":"Longo","Location":"Mtongwe","Sub_Locati":"Mtongwe","Constituen":"LIKONI","Nearest_To":"Mombasa","Latitude":"-4.03872","Longitude":"39.60323"},"geometry":{"type":"Point","coordinates":[39.60323,-4.03872]}},{"type":"Feature","properties":{"OBJECTID":"7642","Facility_N":"Ocean Breeze Medical Facilty","Type":"Nursing Home","Owner":"Private Practice - General Practitioner","County":"Mombasa","Sub_County":"Kisauni","Division":"Kisauni","Location":"Bamburi","Sub_Locati":"Mwembelegeza","Constituen":"KISAUNI","Nearest_To":"Bamburi","Latitude":"-4.00366","Longitude":"39.70989"},"geometry":{"type":"Point","coordinates":[39.70989,-4.00366]}},{"type":"Feature","properties":{"OBJECTID":"7777","Facility_N":"Om Dental Centre","Type":"Medical Clinic","Owner":"Private Enterprise (Institution)","County":"Mombasa","Sub_County":"Mvita","Division":"Island","Location":"Tononoka","Sub_Locati":"Tononoka","Constituen":"MVITA","Nearest_To":"Mombasa","Latitude":"-4.04562","Longitude":"39.6684"},"geometry":{"type":"Point","coordinates":[39.6684,-4.04562]}},{"type":"Feature","properties":{"OBJECTID":"7814","Facility_N":"Optimum Care Medical","Type":"Medical Clinic","Owner":"Private Practice - General Practitioner","County":"Mombasa","Sub_County":"Mvita","Division":"Island","Location":"Kizingo","Sub_Locati":"Kizingo","Constituen":"MVITA","Nearest_To":"Mwembr Tayari","Latitude":"-4.06535","Longitude":"39.67165"},"geometry":{"type":"Point","coordinates":[39.67165,-4.06535]}},{"type":"Feature","properties":{"OBJECTID":"7892","Facility_N":"Palani Health Care Clinic","Type":"Medical Clinic","Owner":"Private Enterprise (Institution)","County":"Mombasa","Sub_County":"Kisauni","Division":"Kisauni","Location":"Kisauni","Sub_Locati":"Kisauni","Constituen":"KISAUNI","Nearest_To":"Mombasa","Latitude":"-4.03219","Longitude":"39.68243"},"geometry":{"type":"Point","coordinates":[39.68243,-4.03219]}},{"type":"Feature","properties":{"OBJECTID":"7902","Facility_N":"Pandya Memorial Hospital","Type":"Other Hospital","Owner":"Private Enterprise (Institution)","County":"Mombasa","Sub_County":"Mvita","Division":"Island","Location":"Ganjoni","Sub_Locati":"Kizingo","Constituen":"KISAUNI","Nearest_To":"Mombasa","Latitude":"-4.06744","Longitude":"39.67127"},"geometry":{"type":"Point","coordinates":[39.67127,-4.06744]}},{"type":"Feature","properties":{"OBJECTID":"7941","Facility_N":"PCEA Makupa Medical Clinic","Type":"Medical Clinic","Owner":"Christian Health Association of Kenya","County":"Mombasa","Sub_County":"Mvita","Division":"Island","Location":"Tudor","Sub_Locati":"Tudor 4","Constituen":"MVITA","Nearest_To":"Makupa","Latitude":"-4.03971","Longitude":"39.65826"},"geometry":{"type":"Point","coordinates":[39.65826,-4.03971]}},{"type":"Feature","properties":{"OBJECTID":"7960","Facility_N":"Pendo Medical Clinic (Kilindini)","Type":"Medical Clinic","Owner":"Private Enterprise (Institution)","County":"Mombasa","Sub_County":"Changamwe","Division":"Changamwe","Location":"Changamwe","Sub_Locati":"Changamwe","Constituen":"CHANGAMWE","Nearest_To":"Mombasa","Latitude":"-4.02771","Longitude":"39.61241"},"geometry":{"type":"Point","coordinates":[39.61241,-4.02771]}},{"type":"Feature","properties":{"OBJECTID":"8037","Facility_N":"Port Reitz District Hospital","Type":"District Hospital","Owner":"Ministry of Health","County":"Mombasa","Sub_County":"Changamwe","Division":"Changamwe","Location":"Portreitz","Sub_Locati":"Portreitz","Constituen":"CHANGAMWE","Nearest_To":"Mombasa","Latitude":"-4.03883","Longitude":"39.60313"},"geometry":{"type":"Point","coordinates":[39.60313,-4.03883]}},{"type":"Feature","properties":{"OBJECTID":"8038","Facility_N":"Port Reitz MTC Dispensary","Type":"Medical Clinic","Owner":"Academic (if registered)","County":"Mombasa","Sub_County":"Changamwe","Division":"Changamwe","Location":"Portreitz","Sub_Locati":"Portreitz","Constituen":"CHANGAMWE","Nearest_To":"Mombasa","Latitude":"-4.03515","Longitude":"39.6011"},"geometry":{"type":"Point","coordinates":[39.6011,-4.03515]}},{"type":"Feature","properties":{"OBJECTID":"8041","Facility_N":"Portreitz Youth Friendly Centre","Type":"VCT Centre (Stand-Alone)","Owner":"Ministry of Health","County":"Mombasa","Sub_County":"Changamwe","Division":"Changamwe","Location":"Portreitz","Sub_Locati":"Portreitz","Constituen":"CHANGAMWE","Nearest_To":"Mombasa","Latitude":"-4.03874","Longitude":"39.60344"},"geometry":{"type":"Point","coordinates":[39.60344,-4.03874]}},{"type":"Feature","properties":{"OBJECTID":"8061","Facility_N":"Prima Medical Centre","Type":"Medical Clinic","Owner":"Private Practice - Medical Specialist","County":"Mombasa","Sub_County":"Kisauni","Division":"Kisauni","Location":"Bamburi","Sub_Locati":"Mwembelegeza","Constituen":"KISAUNI","Nearest_To":"Bamburi Vescon 1","Latitude":"-4.00229","Longitude":"39.70663"},"geometry":{"type":"Point","coordinates":[39.70663,-4.00229]}},