{"type":"FeatureCollection","features":[{"type":"Feature","properties":{"OBJECTID":"30","Facility_N":"Aberdare Health Services","Type":"Medical Clinic","Owner":"Private Practice - Nurse / Midwife","County":"Murang'a","Sub_County":"Kigumo","Division":"Kigumo","Location":"Kangari","Sub_Locati":"Kangari","Constituen":"KIGUMO","Nearest_To":"Kangari","Latitude":"-0.765141","Longitude":"36.8247"},"geometry":{"type":"Point","coordinates":[36.8247,-0.765141]}},{"type":"Feature","properties":{"OBJECTID":"43","Facility_N":"Acc&S Kariua Dispensary","Type":"Dispensary","Owner":"Christian Health Association of Kenya","County":"Murang'a","Sub_County":"Kandara","Division":"Kandara","Location":"Gacharage","Sub_Locati":"Kariua","Constituen":"KANDARA","Nearest_To":"Kariua","Latitude":"-0.83403","Longitude":"36.97599"},"geometry":{"type":"Point","coordinates":[36.97599,-0.83403]}},{"type":"Feature","properties":{"OBJECTID":"107","Facility_N":"Afya Medical Clinic (Muranga North)","Type":"Medical Clinic","Owner":"Private Practice - Nurse / Midwife","County":"Murang'a","Sub_County":"Mathioya","Division":"Kangema","Location":"Rwathia","Sub_Locati":"Kihoya","Constituen":"MATHIOYA","Nearest_To":"Kihoya","Latitude":"-0.647721","Longitude":"36.9012"},"geometry":{"type":"Point","coordinates":[36.9012,-0.647721]}},{"type":"Feature","properties":{"OBJECTID":"148","Facility_N":"Agape Medical Services","Type":"Medical Clinic","Owner":"Private Practice - Nurse / Midwife","County":"Murang'a","Sub_County":"Kigumo","Division":"Kigumo","Location":"Kangari","Sub_Locati":"Mariira","Constituen":"KIGUMO","Nearest_To":"Karinga","Latitude":"-0.789993","Longitude":"36.917"},"geometry":{"type":"Point","coordinates":[36.917,-0.789993]}},{"type":"Feature","properties":{"OBJECTID":"166","Facility_N":"AIC Gituru Dispensary","Type":"Dispensary","Owner":"Christian Health Association of Kenya","County":"Murang'a","Sub_County":"Kandara","Division":"Kandara","Location":"Ruchu","Sub_Locati":"Gituru","Constituen":"KANDARA","Nearest_To":"Githumu","Latitude":"-0.81464","Longitude":"36.8668"},"geometry":{"type":"Point","coordinates":[36.8668,-0.81464]}},{"type":"Feature","properties":{"OBJECTID":"171","Facility_N":"AIC Mununga Dispensary","Type":"Dispensary","Owner":"Christian Health Association of Kenya","County":"Murang'a","Sub_County":"Kigumo","Division":"Kigumo","Location":"Kigumo","Sub_Locati":"Kigumo","Constituen":"KIGUMO","Nearest_To":"Kigumo","Latitude":"-0.78096","Longitude":"36.92437"},"geometry":{"type":"Point","coordinates":[36.92437,-0.78096]}},{"type":"Feature","properties":{"OBJECTID":"249","Facility_N":"All Day Medical Clinic","Type":"Medical Clinic","Owner":"Private Enterprise (Institution)","County":"Murang'a","Sub_County":"Mathioya","Division":"Mathioya","Location":"Gacharageini","Sub_Locati":"Gacharageini","Constituen":"MATHIOYA","Nearest_To":"Kiriaini","Latitude":"-0.624374","Longitude":"36.8481"},"geometry":{"type":"Point","coordinates":[36.8481,-0.624374]}},{"type":"Feature","properties":{"OBJECTID":"351","Facility_N":"Annex Medical Clinic (Muranga North)","Type":"Medical Clinic","Owner":"Private Enterprise (Institution)","County":"Murang'a","Sub_County":"Mathioya","Division":"Mathioya","Location":"Kiru","Sub_Locati":"Kiriaini","Constituen":"MATHIOYA","Nearest_To":"Kiriaini","Latitude":"-0.60221","Longitude":"36.95693"},"geometry":{"type":"Point","coordinates":[36.95693,-0.60221]}},{"type":"Feature","properties":{"OBJECTID":"543","Facility_N":"Baraka Medical Clinic (Muranga North)","Type":"Medical Clinic","Owner":"Private Practice - Nurse / Midwife","County":"Murang'a","Sub_County":"Kiharu","Division":"Kiharu","Location":"Township","Sub_Locati":"Karuri","Constituen":"KIHARU","Nearest_To":"Muranga","Latitude":"-0.713561","Longitude":"37.1602"},"geometry":{"type":"Point","coordinates":[37.1602,-0.713561]}},{"type":"Feature","properties":{"OBJECTID":"551","Facility_N":"Baraka Medical Clinic(Muranga)","Type":"Medical Clinic","Owner":"Private Practice - Clinical Officer","County":"Murang'a","Sub_County":"Kiharu","Division":"Murarandia","Location":"Gatuya","Sub_Locati":"Gatuya","Constituen":"KIHARU","Nearest_To":"Gatuya Market","Latitude":"-0.73203","Longitude":"36.92821"},"geometry":{"type":"Point","coordinates":[36.92821,-0.73203]}},{"type":"Feature","properties":{"OBJECTID":"760","Facility_N":"Breeze Hospital","Type":"Nursing Home","Owner":"Private Enterprise (Institution)","County":"Murang'a","Sub_County":"Kandara","Division":"Kandara","Location":"Kagunduini","Sub_Locati":"Gitura","Constituen":"KANDARA","Nearest_To":"Kenol","Latitude":"-0.93962","Longitude":"37.12439"},"geometry":{"type":"Point","coordinates":[37.12439,-0.93962]}},{"type":"Feature","properties":{"OBJECTID":"1408","Facility_N":"Don Bosco Catholic Dispensary","Type":"Dispensary","Owner":"Kenya Episcopal Conference-Catholic Secretariat","County":"Murang'a","Sub_County":"Muranga South","Division":"Makuyu","Location":"Makuyu","Sub_Locati":"Kimorori","Constituen":"MARAGWA","Nearest_To":"Makuyu","Latitude":"-0.90836","Longitude":"37.1974"},"geometry":{"type":"Point","coordinates":[37.1974,-0.90836]}},{"type":"Feature","properties":{"OBJECTID":"1410","Facility_N":"Dona Medical Clinical","Type":"Medical Clinic","Owner":"Private Enterprise (Institution)","County":"Murang'a","Sub_County":"Gatanga","Division":"Gatanga","Location":"Gatanga","Sub_Locati":"Gatanga","Constituen":"GATANGA","Nearest_To":" ","Latitude":"-0.904477","Longitude":"36.9041"},"geometry":{"type":"Point","coordinates":[36.9041,-0.904477]}},{"type":"Feature","properties":{"OBJECTID":"1517","Facility_N":"Dr Muhiu Medical Clinic","Type":"Medical Clinic","Owner":"Private Practice - Medical Specialist","County":"Murang'a","Sub_County":"Kiharu","Division":"Kiharu","Location":"Township","Sub_Locati":"Karuri","Constituen":"KIHARU","Nearest_To":"Muranga","Latitude":"-0.713561","Longitude":"37.1602"},"geometry":{"type":"Point","coordinates":[37.1602,-0.713561]}},{"type":"Feature","properties":{"OBJECTID":"1629","Facility_N":"Ebenezar Medical Clinic (Muranga North)","Type":"Medical Clinic","Owner":"Private Enterprise (Institution)","County":"Murang'a","Sub_County":"Kiharu","Division":"Kiharu","Location":"Gaturi","Sub_Locati":"Kaweru","Constituen":"KIHARU","Nearest_To":"Muranga","Latitude":"-0.627356","Longitude":"37.1383"},"geometry":{"type":"Point","coordinates":[37.1383,-0.627356]}},{"type":"Feature","properties":{"OBJECTID":"1779","Facility_N":"Emmaus Medical Clinic","Type":"Medical Clinic","Owner":"Private Practice - Nurse / Midwife","County":"Murang'a","Sub_County":"Kigumo","Division":"Kigumo","Location":"Kangari","Sub_Locati":"Kangari","Constituen":"KIGUMO","Nearest_To":"Kangari","Latitude":"-0.74131","Longitude":"36.85284"},"geometry":{"type":"Point","coordinates":[36.85284,-0.74131]}},{"type":"Feature","properties":{"OBJECTID":"1815","Facility_N":"Enkasiti Roses Farm Clinic","Type":"Medical Clinic","Owner":"Private Enterprise (Institution)","County":"Murang'a","Sub_County":"Gatanga","Division":"Gatanga","Location":"Samuru","Sub_Locati":"Gathambarara","Constituen":"GATANGA","Nearest_To":"Thika","Latitude":"-1.03607","Longitude":"37.24623"},"geometry":{"type":"Point","coordinates":[37.24623,-1.03607]}},{"type":"Feature","properties":{"OBJECTID":"1907","Facility_N":"Faith Health Services Medical Clinic","Type":"Medical Clinic","Owner":"Private Practice - Nurse / Midwife","County":"Murang'a","Sub_County":"Kigumo","Division":"Kigumo","Location":"Kigumo","Sub_Locati":"Kirere","Constituen":"KIGUMO","Nearest_To":"Kirere","Latitude":"-0.800883","Longitude":"36.9998"},"geometry":{"type":"Point","coordinates":[36.9998,-0.800883]}},{"type":"Feature","properties":{"OBJECTID":"1994","Facility_N":"Franjane Medical Clinic","Type":"Medical Clinic","Owner":"Private Enterprise (Institution)","County":"Murang'a","Sub_County":"Kahuro","Division":"Kahuro","Location":"Mugoiri","Sub_Locati":"Kahuro","Constituen":"KIHARU","Nearest_To":"Kahuro","Latitude":"-0.745661","Longitude":"36.9985"},"geometry":{"type":"Point","coordinates":[36.9985,-0.745661]}},{"type":"Feature","properties":{"OBJECTID":"2018","Facility_N":"Gacharage Dispensary","Type":"Dispensary","Owner":"Ministry of Health","County":"Murang'a","Sub_County":"Kandara","Division":"Kandara","Location":"Ruchu","Sub_Locati":"Gacharage","Constituen":"KANDARA","Nearest_To":"Gacharage","Latitude":"-0.86303","Longitude":"36.96426"},"geometry":{"type":"Point","coordinates":[36.96426,-0.86303]}},{"type":"Feature","properties":{"OBJECTID":"2019","Facility_N":"Gacharageini Dispensary","Type":"Dispensary","Owner":"Ministry of Health","County":"Murang'a","Sub_County":"Mathioya","Division":"Mathioya","Location":"Njumbi","Sub_Locati":"Gacharageini","Constituen":"MATHIOYA","Nearest_To":"Gacharageini","Latitude":"-0.61184","Longitude":"36.8478"},"geometry":{"type":"Point","coordinates":[36.8478,-0.61184]}},{"type":"Feature","properties":{"OBJECTID":"2033","Facility_N":"Gaichanjiru Hospital","Type":"Other Hospital","Owner":"Kenya Episcopal Conference-Catholic Secretariat","County":"Murang'a","Sub_County":"Kandara","Division":"Kandara","Location":"Gaichanjiru","Sub_Locati":"Gaichanjiru","Constituen":"KANDARA","Nearest_To":"Gaichanjiru","Latitude":"-0.88479","Longitude":"37.05184"},"geometry":{"type":"Point","coordinates":[37.05184,-0.88479]}},{"type":"Feature","properties":{"OBJECTID":"2034","Facility_N":"Gaichanjiru Hospital (Satelite)","Type":"Dispensary","Owner":"Kenya Episcopal Conference-Catholic Secretariat","County":"Murang'a","Sub_County":"Kandara","Division":"Kandara","Location":"Kagunduini","Sub_Locati":"Gitura","Constituen":"KANDARA","Nearest_To":"Kenol","Latitude":"-0.93723","Longitude":"37.12093"},"geometry":{"type":"Point","coordinates":[37.12093,-0.93723]}},{"type":"Feature","properties":{"OBJECTID":"2040","Facility_N":"Gakira Medical Clinic","Type":"Medical Clinic","Owner":"Private Enterprise (Institution)","County":"Murang'a","Sub_County":"Muranga West","Division":"Kangema","Location":"Muguru","Sub_Locati":"Gakira","Constituen":"KANGEMA","Nearest_To":"Kangema","Latitude":"-0.686593","Longitude":"36.961"},"geometry":{"type":"Point","coordinates":[36.961,-0.686593]}},{"type":"Feature","properties":{"OBJECTID":"2046","Facility_N":"Gakurwe Dispensary","Type":"Dispensary","Owner":"Ministry of Health","County":"Murang'a","Sub_County":"Kiharu","Division":"Kiharu","Location":"Gaturi","Sub_Locati":"Gathukiini","Constituen":"KIHARU","Nearest_To":"Muranga","Latitude":"-0.62769","Longitude":"37.0161"},"geometry":{"type":"Point","coordinates":[37.0161,-0.62769]}},{"type":"Feature","properties":{"OBJECTID":"2047","Facility_N":"Gakuyuini Medical Clinic","Type":"Medical Clinic","Owner":"Private Practice - Nurse / Midwife","County":"Murang'a","Sub_County":"Muranga South","Division":"Maragua","Location":"Muthithi","Sub_Locati":"Gikarangu","Constituen":"MARAGWA","Nearest_To":"Muthithi","Latitude":"-0.834581","Longitude":"37.1138"},"geometry":{"type":"Point","coordinates":[37.1138,-0.834581]}},{"type":"Feature","properties":{"OBJECTID":"2082","Facility_N":"Gatanga Dispensary","Type":"Dispensary","Owner":"Kenya Episcopal Conference-Catholic Secretariat","County":"Murang'a","Sub_County":"Gatanga","Division":"Gatanga","Location":"Gatanga","Sub_Locati":"Chomo","Constituen":"GATANGA","Nearest_To":"Thika","Latitude":"-0.93877","Longitude":"36.96232"},"geometry":{"type":"Point","coordinates":[36.96232,-0.93877]}},{"type":"Feature","properties":{"OBJECTID":"2083","Facility_N":"Gatangara Dispensary","Type":"Dispensary","Owner":"Ministry of Health","County":"Murang'a","Sub_County":"Muranga West","Division":"Kangema","Location":"Kanyenyaini","Sub_Locati":"Githiga","Constituen":"KANGEMA","Nearest_To":"GATANGARA","Latitude":"-0.7","Longitude":"36.93"},"geometry":{"type":"Point","coordinates":[36.93,-0.7]}},{"type":"Feature","properties":{"OBJECTID":"2085","Facility_N":"Gatara Health Centre","Type":"Health Centre","Owner":"Ministry of Health","County":"Murang'a","Sub_County":"Kahuro","Division":"Kahuro","Location":"Murarandia","Sub_Locati":"Gatara","Constituen":"KIHARU","Nearest_To":"Gatara Shopping Centre","Latitude":"-0.72","Longitude":"36.86"},"geometry":{"type":"Point","coordinates":[36.86,-0.72]}},{"type":"Feature","properties":{"OBJECTID":"2088","Facility_N":"Gateways Medical Clinic","Type":"Medical Clinic","Owner":"Private Practice - Clinical Officer","County":"Murang'a","Sub_County":"Muranga West","Division":"Kangema","Location":"Muguru","Sub_Locati":"Gakira","Constituen":"KANGEMA","Nearest_To":"Kangema","Latitude":"-0.686593","Longitude":"36.961"},"geometry":{"type":"Point","coordinates":[36.961,-0.686593]}},{"type":"Feature","properties":{"OBJECTID":"2089","Facility_N":"Gathaithi Dispensary","Type":"Dispensary","Owner":"Ministry of Health","County":"Murang'a","Sub_County":"Kiharu","Division":"Kahuro","Location":"Murarandia","Sub_Locati":"Gathaithi","Constituen":"KIHARU","Nearest_To":"Kahatia Market","Latitude":"-0.74029","Longitude":"36.8923"},"geometry":{"type":"Point","coordinates":[36.8923,-0.74029]}},{"type":"Feature","properties":{"OBJECTID":"2095","Facility_N":"Gathanji Dispensary","Type":"Dispensary","Owner":"Ministry of Health","County":"Murang'a","Sub_County":"Gatanga","Division":"Gatanga","Location":"Gatanga","Sub_Locati":" ","Constituen":"GATANGA","Nearest_To":"Thika","Latitude":"-0.90734","Longitude":"36.92869"},"geometry":{"type":"Point","coordinates":[36.92869,-0.90734]}},{"type":"Feature","properties":{"OBJECTID":"2097","Facility_N":"Gatheru Dispensary","Type":"Dispensary","Owner":"Ministry of Health","County":"Murang'a","Sub_County":"Kiharu","Division":"Kahuro","Location":"Kahuhia","Sub_Locati":"Gatheru","Constituen":"KIHARU","Nearest_To":"Gatheru Market","Latitude":"-0.72894","Longitude":"37.0632"},"geometry":{"type":"Point","coordinates":[37.0632,-0.72894]}},{"type":"Feature","properties":{"OBJECTID":"2101","Facility_N":"Gatiaini Dispensary","Type":"Dispensary","Owner":"Ministry of Health","County":"Murang'a","Sub_County":"Kigumo","Division":"Kigumo","Location":"Kangari","Sub_Locati":"Makomboki","Constituen":"KIGUMO","Nearest_To":"Makomboki","Latitude":"-0.77896","Longitude":"36.82418"},"geometry":{"type":"Point","coordinates":[36.82418,-0.77896]}},{"type":"Feature","properties":{"OBJECTID":"2124","Facility_N":"Gatunyu Dispensary","Type":"Dispensary","Owner":"Ministry of Health","County":"Murang'a","Sub_County":"Gatanga","Division":"Gatanga","Location":"Mugumoini","Sub_Locati":"Mugumoini","Constituen":"GATANGA","Nearest_To":"Gatunyu Market","Latitude":"-0.96056","Longitude":"36.9915"},"geometry":{"type":"Point","coordinates":[36.9915,-0.96056]}},{"type":"Feature","properties":{"OBJECTID":"2126","Facility_N":"Gatura Healh Centre","Type":"Health Centre","Owner":"Ministry of Health","County":"Murang'a","Sub_County":"Gatanga","Division":"Gatanga","Location":"Kariara","Sub_Locati":"Gatura","Constituen":"GATANGA","Nearest_To":"Thika","Latitude":"-0.8628","Longitude":"36.86206"},"geometry":{"type":"Point","coordinates":[36.86206,-0.8628]}},{"type":"Feature","properties":{"OBJECTID":"2127","Facility_N":"Gaturi Catholic Parish Dispensary","Type":"Dispensary","Owner":"Kenya Episcopal Conference-Catholic Secretariat","County":"Murang'a","Sub_County":"Kiharu","Division":"Kiharu","Location":"Gaturi","Sub_Locati":"Giitwa","Constituen":"KIHARU","Nearest_To":"Mugeka","Latitude":"-0.6486","Longitude":"37.10141"},"geometry":{"type":"Point","coordinates":[37.10141,-0.6486]}},{"type":"Feature","properties":{"OBJECTID":"2129","Facility_N":"Gaturi Medical Clinic","Type":"Medical Clinic","Owner":"Private Enterprise (Institution)","County":"Murang'a","Sub_County":"Kiharu","Division":"Kiharu","Location":"Gaturi","Sub_Locati":"Geitwa","Constituen":"KIHARU","Nearest_To":"Muranga","Latitude":"-0.634706","Longitude":"37.0923"},"geometry":{"type":"Point","coordinates":[37.0923,-0.634706]}},{"type":"Feature","properties":{"OBJECTID":"2147","Facility_N":"Generations Medical Clinic","Type":"Medical Clinic","Owner":"Private Practice - Nurse / Midwife","County":"Murang'a","Sub_County":"Kigumo","Division":"Kigumo","Location":"Kigumo","Sub_Locati":"Iriguini","Constituen":"KIGUMO","Nearest_To":"Iriguini","Latitude":"-0.80211","Longitude":"36.96108"},"geometry":{"type":"Point","coordinates":[36.96108,-0.80211]}},{"type":"Feature","properties":{"OBJECTID":"2192","Facility_N":"Giachuki Medical Clinic","Type":"Medical Clinic","Owner":"Private Practice - Unspecified","County":"Murang'a","Sub_County":"Gatanga","Division":"Gatanga","Location":"Kariara","Sub_Locati":"Gatura","Constituen":"GATANGA","Nearest_To":" ","Latitude":"-0.85636","Longitude":"36.89708"},"geometry":{"type":"Point","coordinates":[36.89708,-0.85636]}},{"type":"Feature","properties":{"OBJECTID":"2200","Facility_N":"Giatutu Dispensary","Type":"Dispensary","Owner":"Ministry of Health","County":"Murang'a","Sub_County":"Gatanga","Division":"Gatanga","Location":"Gatanga","Sub_Locati":"Kigio","Constituen":"GATANGA","Nearest_To":"Thika","Latitude":"-0.96403","Longitude":"36.9679"},"geometry":{"type":"Point","coordinates":[36.9679,-0.96403]}},{"type":"Feature","properties":{"OBJECTID":"2202","Facility_N":"Gichagini Dispensary","Type":"Dispensary","Owner":"Ministry of Health","County":"Murang'a","Sub_County":"Kandara","Division":"Kandara","Location":" ","Sub_Locati":" ","Constituen":"KANDARA","Nearest_To":" ","Latitude":"-0.8103","Longitude":"36.89763"},"geometry":{"type":"Point","coordinates":[36.89763,-0.8103]}},{"type":"Feature","properties":{"OBJECTID":"2215","Facility_N":"Gikoe Dispensary","Type":"Dispensary","Owner":"Ministry of Health","County":"Murang'a","Sub_County":"Kigumo","Division":"Kigumo","Location":"Kigumo","Sub_Locati":"Gachocho","Constituen":"KIGUMO","Nearest_To":"Gachocho","Latitude":"-0.76188","Longitude":"36.90619"},"geometry":{"type":"Point","coordinates":[36.90619,-0.76188]}},{"type":"Feature","properties":{"OBJECTID":"2216","Facility_N":"Gikoe Medical Clinic","Type":"Medical Clinic","Owner":"Private Enterprise (Institution)","County":"Murang'a","Sub_County":"Mathioya","Division":"Mathioya","Location":"Njumbi","Sub_Locati":"Njumbi","Constituen":"MATHIOYA","Nearest_To":"Kiriaini","Latitude":"-0.65943","Longitude":"36.95746"},"geometry":{"type":"Point","coordinates":[36.95746,-0.65943]}},{"type":"Feature","properties":{"OBJECTID":"2217","Facility_N":"Gikono Dispensary","Type":"Dispensary","Owner":"Ministry of Health","County":"Murang'a","Sub_County":"Muranga South","Division":"Makuyu","Location":"Kimorori","Sub_Locati":"Wempar","Constituen":"MARAGWA","Nearest_To":"Kabati market.","Latitude":"-0.99298","Longitude":"37.16057"},"geometry":{"type":"Point","coordinates":[37.16057,-0.99298]}},{"type":"Feature","properties":{"OBJECTID":"2218","Facility_N":"Gikui Health Centre","Type":"Health Centre","Owner":"Ministry of Health","County":"Murang'a","Sub_County":"Kiharu","Division":"Kangema","Location":"Iyego","Sub_Locati":"Gikui","Constituen":"KANGEMA","Nearest_To":"Karugia shopping centre","Latitude":"-0.67659","Longitude":"37.014"},"geometry":{"type":"Point","coordinates":[37.014,-0.67659]}},{"type":"Feature","properties":{"OBJECTID":"2238","Facility_N":"Gitaro Dispensary","Type":"Dispensary","Owner":"Ministry of Health","County":"Murang'a","Sub_County":"Kahuro","Division":"Kahuro","Location":"Mugoiri","Sub_Locati":"Gatundu","Constituen":"KIHARU","Nearest_To":"Kahuro","Latitude":"-0.74295","Longitude":"37.07393"},"geometry":{"type":"Point","coordinates":[37.07393,-0.74295]}},{"type":"Feature","properties":{"OBJECTID":"2241","Facility_N":"Gitathi Dispensary","Type":"Dispensary","Owner":"Ministry of Health","County":"Murang'a","Sub_County":"Muranga South","Division":"Maragua","Location":"Nginda","Sub_Locati":" ","Constituen":"MARAGWA","Nearest_To":" ","Latitude":"-0.78487","Longitude":"37.04609"},"geometry":{"type":"Point","coordinates":[37.04609,-0.78487]}},{"type":"Feature","properties":{"OBJECTID":"2242","Facility_N":"Gitaus Medical Clinic","Type":"Medical Clinic","Owner":"Private Practice - Nurse / Midwife","County":"Murang'a","Sub_County":"Kahuro","Division":"Kiharu","Location":"Gaturi","Sub_Locati":"Nyakihai","Constituen":"KIHARU","Nearest_To":"Muranga","Latitude":"-0.683956","Longitude":"37.134"},"geometry":{"type":"Point","coordinates":[37.134,-0.683956]}},{"type":"Feature","properties":{"OBJECTID":"2244","Facility_N":"Githagara Health Centre","Type":"Health Centre","Owner":"Ministry of Health","County":"Murang'a","Sub_County":"Kahuro","Division":"Kahuro","Location":"Mugoiri","Sub_Locati":"Mirichu","Constituen":"KIHARU","Nearest_To":"Kahuro","Latitude":"-0.77","Longitude":"37.02"},"geometry":{"type":"Point","coordinates":[37.02,-0.77]}},{"type":"Feature","properties":{"OBJECTID":"2246","Facility_N":"Githambo Dispensary","Type":"Dispensary","Owner":"Community Development Fund","County":"Murang'a","Sub_County":"Kiharu","Division":"KAHURO","Location":"Murarandia","Sub_Locati":"Matharite","Constituen":"KIHARU","Nearest_To":"Githambo Market","Latitude":"-0.71196","Longitude":"36.88353"},"geometry":{"type":"Point","coordinates":[36.88353,-0.71196]}},{"type":"Feature","properties":{"OBJECTID":"2247","Facility_N":"Githanga (ACK) Dispensary","Type":"Dispensary","Owner":"Christian Health Association of Kenya","County":"Murang'a","Sub_County":"Kiharu","Division":"Kiharu","Location":"Gaturi","Sub_Locati":"Geitwa","Constituen":"KIHARU","Nearest_To":"Muranga","Latitude":"-0.62973","Longitude":"37.1018"},"geometry":{"type":"Point","coordinates":[37.1018,-0.62973]}},{"type":"Feature","properties":{"OBJECTID":"2260","Facility_N":"Githumu Hospital","Type":"Other Hospital","Owner":"Christian Health Association of Kenya","County":"Murang'a","Sub_County":"Kandara","Division":"Kandara","Location":"Ruchu","Sub_Locati":"Githumu","Constituen":"KANDARA","Nearest_To":"Githumu","Latitude":"-0.82686","Longitude":"36.91338"},"geometry":{"type":"Point","coordinates":[36.91338,-0.82686]}},{"type":"Feature","properties":{"OBJECTID":"2261","Facility_N":"Githunguri Dispensary","Type":"Dispensary","Owner":"Ministry of Health","County":"Murang'a","Sub_County":"Kandara","Division":"Kandara","Location":"Kagunduini","Sub_Locati":"Githunguri","Constituen":"KANDARA","Nearest_To":"Githunguri","Latitude":"-0.91204","Longitude":"37.07829"},"geometry":{"type":"Point","coordinates":[37.07829,-0.91204]}},{"type":"Feature","properties":{"OBJECTID":"2272","Facility_N":"Githuya Dispensary","Type":"Dispensary","Owner":"Ministry of Health","County":"Murang'a","Sub_County":"Muranga South","Division":"Maragwa","Location":"Ichagaki","Sub_Locati":"Mumbu","Constituen":"MARAGWA","Nearest_To":"Githuya Market Centre","Latitude":"-0.82038","Longitude":"37.11191"},"geometry":{"type":"Point","coordinates":[37.11191,-0.82038]}},{"type":"Feature","properties":{"OBJECTID":"2280","Facility_N":"Gituamba (AIPCA) Dispensary","Type":"Dispensary","Owner":"Other Faith Based","County":"Murang'a","Sub_County":"Gatanga","Division":"Gatanga","Location":"Kihumbuini","Sub_Locati":"Gituamba","Constituen":"GATANGA","Nearest_To":"Kihumbuini  shopping centre","Latitude":"-0.94349","Longitude":"36.98695"},"geometry":{"type":"Point","coordinates":[36.98695,-0.94349]}},{"type":"Feature","properties":{"OBJECTID":"2285","Facility_N":"Gitugi Dispensary (Muranga North)","Type":"Dispensary","Owner":"Ministry of Health","County":"Murang'a","Sub_County":"Mathioya","Division":"Mathioya","Location":"Kiruri","Sub_Locati":"Gitugi","Constituen":"MATHIOYA","Nearest_To":"Kiriaini","Latitude":"-0.65597","Longitude":"37.0255"},"geometry":{"type":"Point","coordinates":[37.0255,-0.65597]}},{"type":"Feature","properties":{"OBJECTID":"2290","Facility_N":"Gituuru Dispensary","Type":"Dispensary","Owner":"Ministry of Health","County":"Murang'a","Sub_County":"Kandara","Division":"Kandara","Location":"Gituuru","Sub_Locati":"Gituuru","Constituen":"KANDARA","Nearest_To":"Gituuru","Latitude":"-0.82233","Longitude":"36.86922"},"geometry":{"type":"Point","coordinates":[36.86922,-0.82233]}},{"type":"Feature","properties":{"OBJECTID":"2313","Facility_N":"GK Prison Dispensary (Murang'a)","Type":"Dispensary","Owner":"Ministry of Health","County":"Murang'a","Sub_County":"Kiharu","Division":"Kiharu","Location":"Township","Sub_Locati":"Karuri","Constituen":"KIHARU","Nearest_To":"Muranga","Latitude":"-0.73123","Longitude":"37.16232"},"geometry":{"type":"Point","coordinates":[37.16232,-0.73123]}},{"type":"Feature","properties":{"OBJECTID":"2578","Facility_N":"Hope Medical Clinic (Kigumo)","Type":"Medical Clinic","Owner":"Private Practice - Nurse / Midwife","County":"Murang'a","Sub_County":"Kigumo","Division":"Kigumo","Location":"Kigumo","Sub_Locati":"Iriguini","Constituen":"KIGUMO","Nearest_To":"Iriguini","Latitude":"-0.793579","Longitude":"36.965"},"geometry":{"type":"Point","coordinates":[36.965,-0.793579]}},{"type":"Feature","properties":{"OBJECTID":"2640","Facility_N":"Ichagaki (Mission) Health Centre","Type":"Health Centre","Owner":"Kenya Episcopal Conference-Catholic Secretariat","County":"Murang'a","Sub_County":"Muranga South","Division":"Maragua","Location":"Ichagaki","Sub_Locati":"Ichagaki","Constituen":"MARAGWA","Nearest_To":"Ichagaki","Latitude":"-0.81065","Longitude":"37.0869"},"geometry":{"type":"Point","coordinates":[37.0869,-0.81065]}},{"type":"Feature","properties":{"OBJECTID":"2643","Facility_N":"Ichichi Dispensary","Type":"Dispensary","Owner":"Ministry of Health","County":"Murang'a","Sub_County":"Muranga West","Division":"Kangema","Location":"Kiruri","Sub_Locati":"Ndui-ini","Constituen":"KANGEMA","Nearest_To":"Ichichi Market","Latitude":"-0.70447","Longitude":"36.8387"},"geometry":{"type":"Point","coordinates":[36.8387,-0.70447]}},{"type":"Feature","properties":{"OBJECTID":"2701","Facility_N":"Ikumbi Clinic","Type":"Medical Clinic","Owner":"Private Practice - Nurse / Midwife","County":"Murang'a","Sub_County":"Kigumo","Division":"Kigumo","Location":"Kigumo","Sub_Locati":"Gachocho","Constituen":"KIGUMO","Nearest_To":"Gachocho","Latitude":"-0.778721","Longitude":"36.9825"},"geometry":{"type":"Point","coordinates":[36.9825,-0.778721]}},{"type":"Feature","properties":{"OBJECTID":"2817","Facility_N":"Irigiro Dispensary","Type":"Dispensary","Owner":"Ministry of Health","County":"Murang'a","Sub_County":"Muranga South","Division":"Maragua","Location":"Sabasaba","Sub_Locati":"Irigiro","Constituen":"MARAGWA","Nearest_To":"Sabasaba","Latitude":"-0.85636","Longitude":"37.12885"},"geometry":{"type":"Point","coordinates":[37.12885,-0.85636]}},{"type":"Feature","properties":{"OBJECTID":"2820","Facility_N":"Iruri Dispensary","Type":"Dispensary","Owner":"Ministry of Health","County":"Murang'a","Sub_County":"Mathioya","Division":"Mathioya","Location":"Kamacharia","Sub_Locati":"Thuita","Constituen":"MATHIOYA","Nearest_To":"Kiriaini","Latitude":"-0.59685","Longitude":"37.02838"},"geometry":{"type":"Point","coordinates":[37.02838,-0.59685]}},{"type":"Feature","properties":{"OBJECTID":"2856","Facility_N":"Ithangarari Dispensary","Type":"Dispensary","Owner":"Ministry of Health","County":"Murang'a","Sub_County":"Gatanga","Division":"Gatanga","Location":"Gatanga","Sub_Locati":" ","Constituen":"KANDARA","Nearest_To":" ","Latitude":"-0.95383","Longitude":"36.96888"},"geometry":{"type":"Point","coordinates":[36.96888,-0.95383]}},{"type":"Feature","properties":{"OBJECTID":"2914","Facility_N":"James Clinic and Lab Services","Type":"Medical Clinic","Owner":"Private Enterprise (Institution)","County":"Murang'a","Sub_County":"Gatanga","Division":"Gatanga","Location":"Kariara","Sub_Locati":"Gatura","Constituen":"GATANGA","Nearest_To":"Gatura","Latitude":"-0.86312","Longitude":"36.86243"},"geometry":{"type":"Point","coordinates":[36.86243,-0.86312]}},{"type":"Feature","properties":{"OBJECTID":"2934","Facility_N":"Jamii Medical Clinic (Muranga North)","Type":"Medical Clinic","Owner":"Private Practice - Nurse / Midwife","County":"Murang'a","Sub_County":"Kahuro","Division":"Kahuro","Location":"Mugoiri","Sub_Locati":"Kahuro","Constituen":"KIHARU","Nearest_To":"Kahuro","Latitude":"-0.745661","Longitude":"36.9985"},"geometry":{"type":"Point","coordinates":[36.9985,-0.745661]}},{"type":"Feature","properties":{"OBJECTID":"2986","Facility_N":"Jirani Medical Clinic","Type":"Medical Clinic","Owner":"Private Enterprise (Institution)","County":"Murang'a","Sub_County":"Kiharu","Division":"Kiharu","Location":"Township","Sub_Locati":"Karuri","Constituen":"KIHARU","Nearest_To":"Muranga","Latitude":"-0.713561","Longitude":"37.1602"},"geometry":{"type":"Point","coordinates":[37.1602,-0.713561]}},{"type":"Feature","properties":{"OBJECTID":"3078","Facility_N":"Kabati Medical Clinic","Type":"Medical Clinic","Owner":"Private Practice - Nurse / Midwife","County":"Murang'a","Sub_County":"Kandara","Division":"Kandara","Location":"Kagunduini","Sub_Locati":"Kabati","Constituen":"KANDARA","Nearest_To":"Kabati","Latitude":"-0.95138","Longitude":"37.10665"},"geometry":{"type":"Point","coordinates":[37.10665,-0.95138]}},{"type":"Feature","properties":{"OBJECTID":"3170","Facility_N":"Kagumoini Dispensary (Muranga North)","Type":"Dispensary","Owner":"Ministry of Health","County":"Murang'a","Sub_County":"Mathioya","Division":"Mathioya","Location":"Kiru","Sub_Locati":"Kairo","Constituen":"MATHIOYA","Nearest_To":"Kiriaini","Latitude":"-0.62007","Longitude":"36.9821"},"geometry":{"type":"Point","coordinates":[36.9821,-0.62007]}},{"type":"Feature","properties":{"OBJECTID":"3171","Facility_N":"Kagumoini Dispensary (Muranga South)","Type":"Dispensary","Owner":"Ministry of Health","County":"Murang'a","Sub_County":"Kandara","Division":"Kandara","Location":"Gaichanjiru","Sub_Locati":"Kagumoini","Constituen":"KANDARA","Nearest_To":"Kagumoini","Latitude":"-0.89741","Longitude":"37.07161"},"geometry":{"type":"Point","coordinates":[37.07161,-0.89741]}},{"type":"Feature","properties":{"OBJECTID":"3172","Facility_N":"Kagunduini Dispensary","Type":"Dispensary","Owner":"Ministry of Health","County":"Murang'a","Sub_County":"Kandara","Division":"Kandara","Location":"Kagunduini","Sub_Locati":"Kagunduini","Constituen":"KANDARA","Nearest_To":"Kagunduini","Latitude":"-0.89464","Longitude":"37.04529"},"geometry":{"type":"Point","coordinates":[37.04529,-0.89464]}},{"type":"Feature","properties":{"OBJECTID":"3174","Facility_N":"Kaguthi Dispensary","Type":"Dispensary","Owner":"Ministry of Health","County":"Murang'a","Sub_County":"Kandara","Division":"Kandara","Location":"Ithiru","Sub_Locati":"Kaguthi","Constituen":"KANDARA","Nearest_To":"Kaguthi","Latitude":"-0.87875","Longitude":"36.95783"},"geometry":{"type":"Point","coordinates":[36.95783,-0.87875]}},{"type":"Feature","properties":{"OBJECTID":"3176","Facility_N":"Kagwathi (SDA) Dispensary","Type":"Dispensary","Owner":"Christian Health Association of Kenya","County":"Murang'a","Sub_County":"Kandara","Division":"Kandara","Location":"Kahumbu","Sub_Locati":"Kandani","Constituen":"KANDARA","Nearest_To":"Gakuyu","Latitude":"-0.85942","Longitude":"37.07856"},"geometry":{"type":"Point","coordinates":[37.07856,-0.85942]}},{"type":"Feature","properties":{"OBJECTID":"3184","Facility_N":"Kaharo Dispensary","Type":"Dispensary","Owner":"Ministry of Health","County":"Murang'a","Sub_County":"Muranga South","Division":"Maragua","Location":"Nginda","Sub_Locati":"Kaharo","Constituen":"MARAGWA","Nearest_To":"Kaharo","Latitude":"-0.79999","Longitude":"37.06166"},"geometry":{"type":"Point","coordinates":[37.06166,-0.79999]}},{"type":"Feature","properties":{"OBJECTID":"3185","Facility_N":"Kahatia Medical Clinic","Type":"Medical Clinic","Owner":"Private Practice - Clinical Officer","County":"Murang'a","Sub_County":"Kahuro","Division":"Kahuro","Location":"Murarandia","Sub_Locati":"Murarandia","Constituen":"KIHARU","Nearest_To":"Kahuro","Latitude":"-0.716275","Longitude":"36.9033"},"geometry":{"type":"Point","coordinates":[36.9033,-0.716275]}},{"type":"Feature","properties":{"OBJECTID":"3193","Facility_N":"Kahuhia (ACK) Clinic","Type":"Dispensary","Owner":"Christian Health Association of Kenya","County":"Murang'a","Sub_County":"Kahuro","Division":"Kahuro","Location":"Kahuhia","Sub_Locati":"Kahuhia","Constituen":"KIHARU","Nearest_To":"Kahuro","Latitude":"-0.71","Longitude":"37.04"},"geometry":{"type":"Point","coordinates":[37.04,-0.71]}},{"type":"Feature","properties":{"OBJECTID":"3197","Facility_N":"Kahuro Medical Clinic","Type":"Medical Clinic","Owner":"Private Enterprise (Institution)","County":"Murang'a","Sub_County":"Kahuro","Division":"Kahuro","Location":"Mugoiri","Sub_Locati":"Kahuro","Constituen":"KIHARU","Nearest_To":"Kahuro","Latitude":"-0.745661","Longitude":"36.9985"},"geometry":{"type":"Point","coordinates":[36.9985,-0.745661]}},{"type":"Feature","properties":{"OBJECTID":"3200","Facility_N":"Kahuti Medical Clinic","Type":"Medical Clinic","Owner":"Private Practice - Unspecified","County":"Murang'a","Sub_County":"Kahuro","Division":"Kahuro","Location":"Weithaga","Sub_Locati":"Kahuti","Constituen":"KIHARU","Nearest_To":"Kahuro","Latitude":"-0.71528","Longitude":"36.9738"},"geometry":{"type":"Point","coordinates":[36.9738,-0.71528]}},{"type":"Feature","properties":{"OBJECTID":"3217","Facility_N":"Kairo Dispensary","Type":"Dispensary","Owner":"Ministry of Health","County":"Murang'a","Sub_County":"Mathioya","Division":"Mathioya","Location":"Kiru","Sub_Locati":"Kairo","Constituen":"MATHIOYA","Nearest_To":"Kiriaini","Latitude":"-0.61066","Longitude":"36.8629"},"geometry":{"type":"Point","coordinates":[36.8629,-0.61066]}},{"type":"Feature","properties":{"OBJECTID":"3218","Facility_N":"Kairo Medical Clinic","Type":"Medical Clinic","Owner":"Private Enterprise (Institution)","County":"Murang'a","Sub_County":"Mathioya","Division":"Mathioya","Location":"Kiambuthia","Sub_Locati":"Kairo","Constituen":"MATHIOYA","Nearest_To":"Kiriaini","Latitude":"-0.587235","Longitude":"36.7786"},"geometry":{"type":"Point","coordinates":[36.7786,-0.587235]}},{"type":"Feature","properties":{"OBJECTID":"3330","Facility_N":"Kamacharia Clinic","Type":"Medical Clinic","Owner":"Private Practice - Clinical Officer","County":"Murang'a","Sub_County":"Mathioya","Division":"Mathioya","Location":"Kamacharia","Sub_Locati":"Kamacharia","Constituen":"MATHIOYA","Nearest_To":"Kiriaini","Latitude":"-0.599524","Longitude":"36.9748"},"geometry":{"type":"Point","coordinates":[36.9748,-0.599524]}},{"type":"Feature","properties":{"OBJECTID":"3331","Facility_N":"Kamacharia Dispensary","Type":"Dispensary","Owner":"Ministry of Health","County":"Murang'a","Sub_County":"Mathioya","Division":"Mathioya","Location":"Kamacharia","Sub_Locati":"Kamacharia","Constituen":"MATHIOYA","Nearest_To":"Kamacharia shoping centre","Latitude":"-0.60464","Longitude":"36.99249"},"geometry":{"type":"Point","coordinates":[36.99249,-0.60464]}},{"type":"Feature","properties":{"OBJECTID":"3340","Facility_N":"Kamahuha Dispensary","Type":"Dispensary","Owner":"Ministry of Health","County":"Murang'a","Sub_County":"Muranga South","Division":"Makuyu","Location":"Kamahuha","Sub_Locati":"Kamahuha","Constituen":"MARAGWA","Nearest_To":"Kamahuha","Latitude":"-0.84556","Longitude":"37.17897"},"geometry":{"type":"Point","coordinates":[37.17897,-0.84556]}},{"type":"Feature","properties":{"OBJECTID":"3369","Facility_N":"Kambirwa Health Centre","Type":"Health Centre","Owner":"Ministry of Health","County":"Murang'a","Sub_County":"Kiharu","Division":"Kiharu","Location":"Gikindu","Sub_Locati":"Kambirwa","Constituen":"KIHARU","Nearest_To":"Muranga","Latitude":"-0.74124","Longitude":"37.1921"},"geometry":{"type":"Point","coordinates":[37.1921,-0.74124]}},{"type":"Feature","properties":{"OBJECTID":"3370","Facility_N":"Kambiti Health Centre","Type":"Health Centre","Owner":"Ministry of Health","County":"Murang'a","Sub_County":"Muranga South","Division":"Makuyu","Location":"Kambiti","Sub_Locati":"Kambiti","Constituen":"MARAGWA","Nearest_To":"Kambiti","Latitude":"-0.83128","Longitude":"37.2348"},"geometry":{"type":"Point","coordinates":[37.2348,-0.83128]}},{"type":"Feature","properties":{"OBJECTID":"3414","Facility_N":"Kamung'ang'a (ACK) Dispensary","Type":"Health Centre","Owner":"Christian Health Association of Kenya","County":"Murang'a","Sub_County":"Kigumo","Division":"Kigumo","Location":"Kigumo","Sub_Locati":"Gachocho","Constituen":"KIGUMO","Nearest_To":"Gachocho","Latitude":"-0.78673","Longitude":"36.97782"},"geometry":{"type":"Point","coordinates":[36.97782,-0.78673]}},{"type":"Feature","properties":{"OBJECTID":"3415","Facility_N":"Kamunyaka Clinic","Type":"Medical Clinic","Owner":"Private Practice - Nurse / Midwife","County":"Murang'a","Sub_County":"Kandara","Division":"Kandara","Location":"Kagunduini","Sub_Locati":"Githunguri","Constituen":"KANDARA","Nearest_To":"Kamunyaka","Latitude":"-0.92157","Longitude":"37.08785"},"geometry":{"type":"Point","coordinates":[37.08785,-0.92157]}},{"type":"Feature","properties":{"OBJECTID":"3443","Facility_N":"Kandara Sub County Hospital","Type":"Sub-District Hospital","Owner":"Ministry of Health","County":"Murang'a","Sub_County":"Kandara","Division":"Kandara","Location":"Ithiru","Sub_Locati":"Gakui","Constituen":"KANDARA","Nearest_To":"Kandara","Latitude":"-0.90068","Longitude":"37.00274"},"geometry":{"type":"Point","coordinates":[37.00274,-0.90068]}},{"type":"Feature","properties":{"OBJECTID":"3447","Facility_N":"Kanderendu Dispensary","Type":"Dispensary","Owner":"Ministry of Health","County":"Murang'a","Sub_County":"Kigumo","Division":"Kigumo","Location":"Kinyona","Sub_Locati":"Kinyona","Constituen":"KIGUMO","Nearest_To":"Kanderendu","Latitude":"-0.78456","Longitude":"36.81595"},"geometry":{"type":"Point","coordinates":[36.81595,-0.78456]}},{"type":"Feature","properties":{"OBJECTID":"3460","Facility_N":"Kangari Health Centre","Type":"Health Centre","Owner":"Ministry of Health","County":"Murang'a","Sub_County":"Kigumo","Division":"Kigumo","Location":"Kangari","Sub_Locati":"Kangari","Constituen":"KIGUMO","Nearest_To":"Kangari","Latitude":"-0.78477","Longitude":"36.86789"},"geometry":{"type":"Point","coordinates":[36.86789,-0.78477]}},{"type":"Feature","properties":{"OBJECTID":"3466","Facility_N":"Kangema Medical Clinic","Type":"Medical Clinic","Owner":"Private Practice - Clinical Officer","County":"Murang'a","Sub_County":"Muranga West","Division":"Kangema","Location":"Muguru","Sub_Locati":"Gakira","Constituen":"KANGEMA","Nearest_To":"Kangema","Latitude":"-0.686593","Longitude":"36.961"},"geometry":{"type":"Point","coordinates":[36.961,-0.686593]}},{"type":"Feature","properties":{"OBJECTID":"3467","Facility_N":"Kangema Sub-District Hospital","Type":"Sub-District Hospital","Owner":"Ministry of Health","County":"Murang'a","Sub_County":"Kiharu","Division":"Kangema","Location":"Muguru","Sub_Locati":"Gakira","Constituen":"KANGEMA","Nearest_To":"Kangema","Latitude":"-0.68962","Longitude":"36.97145"},"geometry":{"type":"Point","coordinates":[36.97145,-0.68962]}},{"type":"Feature","properties":{"OBJECTID":"3484","Facility_N":"Kanjama Dispensary","Type":"Dispensary","Owner":"Ministry of Health","County":"Murang'a","Sub_County":"Mathioya","Division":"Mathioya","Location":"Kiru","Sub_Locati":"Kanjama","Constituen":"MATHIOYA","Nearest_To":"Kanjama","Latitude":"-0.61908","Longitude":"36.9522"},"geometry":{"type":"Point","coordinates":[36.9522,-0.61908]}},{"type":"Feature","properties":{"OBJECTID":"3498","Facility_N":"Kanyenyaini Health Centre","Type":"Health Centre","Owner":"Ministry of Health","County":"Murang'a","Sub_County":"Muranga West","Division":"Kangema","Location":"Kanyenyaini","Sub_Locati":"Kanyenyaini","Constituen":"KANGEMA","Nearest_To":"Kanyenyaini","Latitude":"-0.68602","Longitude":"36.8829"},"geometry":{"type":"Point","coordinates":[36.8829,-0.68602]}},{"type":"Feature","properties":{"OBJECTID":"3499","Facility_N":"Kanyenyaini Medical Clinic","Type":"Medical Clinic","Owner":"Private Enterprise (Institution)","County":"Murang'a","Sub_County":"Kiharu","Division":"Kangema","Location":"Kanyenyaini","Sub_Locati":"Kanyenyaini","Constituen":"KANGEMA","Nearest_To":"Kangema","Latitude":"-0.688393","Longitude":"36.8943"},"geometry":{"type":"Point","coordinates":[36.8943,-0.688393]}},{"type":"Feature","properties":{"OBJECTID":"3699","Facility_N":"Karaha Dispensary","Type":"Dispensary","Owner":"Ministry of Health","County":"Murang'a","Sub_County":"Kiharu","Division":"Kiharu","Location":"Mbiri","Sub_Locati":"Muchungucha","Constituen":"KIHARU","Nearest_To":"Muranga","Latitude":"-0.750075","Longitude":"37.1211"},"geometry":{"type":"Point","coordinates":[37.1211,-0.750075]}},{"type":"Feature","properties":{"OBJECTID":"3706","Facility_N":"Karangaita Socfinaf Dispensary","Type":"Dispensary","Owner":"Private Enterprise (Institution)","County":"Murang'a","Sub_County":"Gatanga","Division":"Gatanga","Location":"Mugumoini","Sub_Locati":"Kigio","Constituen":"GATANGA","Nearest_To":" ","Latitude":"-0.962412","Longitude":"36.9696"},"geometry":{"type":"Point","coordinates":[36.9696,-0.962412]}},{"type":"Feature","properties":{"OBJECTID":"3708","Facility_N":"Karangi Dispensary","Type":"Dispensary","Owner":"Ministry of Health","County":"Murang'a","Sub_County":"Gatanga","Division":"Gatanga","Location":"Kariara","Sub_Locati":"Mbugiti","Constituen":"GATANGA","Nearest_To":"Karangi","Latitude":"-0.83099","Longitude":"36.79854"},"geometry":{"type":"Point","coordinates":[36.79854,-0.83099]}},{"type":"Feature","properties":{"OBJECTID":"3714","Facility_N":"Karathe Medical Clinic","Type":"Medical Clinic","Owner":"Private Practice - Nurse / Midwife","County":"Murang'a","Sub_County":"Muranga South","Division":"Makuyu","Location":" ","Sub_Locati":" ","Constituen":"MARAGWA","Nearest_To":"Sabasaba","Latitude":"-0.87547","Longitude":"37.14252"},"geometry":{"type":"Point","coordinates":[37.14252,-0.87547]}},{"type":"Feature","properties":{"OBJECTID":"3762","Facility_N":"Kariti Dispensary","Type":"Dispensary","Owner":"Ministry of Health","County":"Murang'a","Sub_County":"Kandara","Division":"Kandara","Location":"Kagunduini","Sub_Locati":"Kariti","Constituen":"KANDARA","Nearest_To":"Kagunduini","Latitude":"-0.86837","Longitude":"37.01783"},"geometry":{"type":"Point","coordinates":[37.01783,-0.86837]}},{"type":"Feature","properties":{"OBJECTID":"3763","Facility_N":"Kariua Dispensary","Type":"Dispensary","Owner":"Ministry of Health","County":"Murang'a","Sub_County":"Kandara","Division":"Kandara","Location":"Ruchu","Sub_Locati":"Kariua","Constituen":"KANDARA","Nearest_To":"Kariua","Latitude":"-0.83379","Longitude":"36.97651"},"geometry":{"type":"Point","coordinates":[36.97651,-0.83379]}},{"type":"Feature","properties":{"OBJECTID":"3878","Facility_N":"Katipanga Dispensary","Type":"Dispensary","Owner":"Ministry of Health","County":"Murang'a","Sub_County":"Muranga South","Division":"Makuyu","Location":"Kimorori","Sub_Locati":"Kimorori","Constituen":"MARAGWA","Nearest_To":"Kenol","Latitude":"-0.94435","Longitude":"37.14424"},"geometry":{"type":"Point","coordinates":[37.14424,-0.94435]}},{"type":"Feature","properties":{"OBJECTID":"3933","Facility_N":"Kaweru Medical Clinic","Type":"Medical Clinic","Owner":"Private Enterprise (Institution)","County":"Murang'a","Sub_County":"Kiharu","Division":"Kiharu","Location":"Gaturi","Sub_Locati":"Kaweru","Constituen":"KIHARU","Nearest_To":"Muranga","Latitude":"-0.631256","Longitude":"37.0472"},"geometry":{"type":"Point","coordinates":[37.0472,-0.631256]}},{"type":"Feature","properties":{"OBJECTID":"3986","Facility_N":"Kenol Hospital","Type":"Nursing Home","Owner":"Private Enterprise (Institution)","County":"Murang'a","Sub_County":"Muranga South","Division":"Makuyu","Location":"Kimorori","Sub_Locati":"Kenol","Constituen":"MARAGWA","Nearest_To":"Kenol","Latitude":"-0.9372","Longitude":"37.12638"},"geometry":{"type":"Point","coordinates":[37.12638,-0.9372]}},{"type":"Feature","properties":{"OBJECTID":"4058","Facility_N":"Kesma Clinic","Type":"Medical Clinic","Owner":"Private Enterprise (Institution)","County":"Murang'a","Sub_County":"Gatanga","Division":"Gatanga","Location":"Kigoro","Sub_Locati":"Ndunyu Chege","Constituen":"GATANGA","Nearest_To":"Thika","Latitude":"-0.87293","Longitude":"36.9117"},"geometry":{"type":"Point","coordinates":[36.9117,-0.87293]}},{"type":"Feature","properties":{"OBJECTID":"4104","Facility_N":"Kiairathe Dispensary","Type":"Dispensary","Owner":"Ministry of Health","County":"Murang'a","Sub_County":"Muranga West","Division":"Kangema","Location":"Muguru","Sub_Locati":"Muguru","Constituen":"KANGEMA","Nearest_To":"Gakira Market","Latitude":"-0.67264","Longitude":"36.94304"},"geometry":{"type":"Point","coordinates":[36.94304,-0.67264]}},{"type":"Feature","properties":{"OBJECTID":"4105","Facility_N":"Kiairegi Clinic","Type":"Medical Clinic","Owner":"Private Enterprise (Institution)","County":"Murang'a","Sub_County":"Gatanga","Division":"Gatanga","Location":"Kigoro","Sub_Locati":"Kigoro","Constituen":"GATANGA","Nearest_To":"Thika","Latitude":"-0.84296","Longitude":"36.8823"},"geometry":{"type":"Point","coordinates":[36.8823,-0.84296]}},{"type":"Feature","properties":{"OBJECTID":"4111","Facility_N":"Kiamara Dispensary","Type":"Dispensary","Owner":"Ministry of Health","County":"Murang'a","Sub_County":"Muranga West","Division":"Kangema","Location":"Iyego","Sub_Locati":"Gacharaigu","Constituen":"KANGEMA","Nearest_To":"Kangema","Latitude":"-0.69758","Longitude":"37.0636"},"geometry":{"type":"Point","coordinates":[37.0636,-0.69758]}},{"type":"Feature","properties":{"OBJECTID":"4112","Facility_N":"Kiamara Medical Clinic","Type":"Medical Clinic","Owner":"Private Enterprise (Institution)","County":"Murang'a","Sub_County":"Kiharu","Division":"Kangema","Location":"Iyego","Sub_Locati":"Gacharaigu","Constituen":"KANGEMA","Nearest_To":"kiamara shopping cemtre","Latitude":"-0.696742","Longitude":"37.0439"},"geometry":{"type":"Point","coordinates":[37.0439,-0.696742]}},{"type":"Feature","properties":{"OBJECTID":"4127","Facility_N":"Kiambuthia Dispensary","Type":"Dispensary","Owner":"Community","County":"Murang'a","Sub_County":"Mathioya","Division":"Mathioya","Location":"Kairo","Sub_Locati":"Kiambuthia","Constituen":"MATHIOYA","Nearest_To":"Kiruri Market","Latitude":"-0.61842","Longitude":"36.90954"},"geometry":{"type":"Point","coordinates":[36.90954,-0.61842]}},{"type":"Feature","properties":{"OBJECTID":"4150","Facility_N":"Kiane Medical & Eye Clinic","Type":"Medical Clinic","Owner":"Private Practice - Clinical Officer","County":"Murang'a","Sub_County":"Kandara","Division":"Kandara","Location":"Muruka","Sub_Locati":"Naaro","Constituen":"KANDARA","Nearest_To":"Naaro","Latitude":"-0.913834","Longitude":"37.0103"},"geometry":{"type":"Point","coordinates":[37.0103,-0.913834]}},{"type":"Feature","properties":{"OBJECTID":"4157","Facility_N":"Kiangochi Dispensary","Type":"Dispensary","Owner":"Ministry of Health","County":"Murang'a","Sub_County":"Kiharu","Division":"Kiharu","Location":"Mbiri","Sub_Locati":"Muchungucha","Constituen":"KIHARU","Nearest_To":"Muranga","Latitude":"-0.76081","Longitude":"37.11847"},"geometry":{"type":"Point","coordinates":[37.11847,-0.76081]}},{"type":"Feature","properties":{"OBJECTID":"4162","Facility_N":"Kiangunyi Dispensary","Type":"Dispensary","Owner":"Ministry of Health","County":"Murang'a","Sub_County":"Muranga West","Division":"Kangema","Location":"Muguru","Sub_Locati":"Watuha","Constituen":"KANGEMA","Nearest_To":"Kangema","Latitude":"-0.686608","Longitude":"36.9915"},"geometry":{"type":"Point","coordinates":[36.9915,-0.686608]}},{"type":"Feature","properties":{"OBJECTID":"4169","Facility_N":"Kianjugu Dispensary","Type":"Dispensary","Owner":"Ministry of Health","County":"Murang'a","Sub_County":"Muranga South","Division":"Makuyu","Location":"Kirimiri","Sub_Locati":"Mithini","Constituen":"MARAGWA","Nearest_To":"Kirimiri","Latitude":"-0.90149","Longitude":"37.25383"},"geometry":{"type":"Point","coordinates":[37.25383,-0.90149]}},{"type":"Feature","properties":{"OBJECTID":"4182","Facility_N":"Kiarutara Dispensary","Type":"Dispensary","Owner":"Ministry of Health","County":"Murang'a","Sub_County":"Gatanga","Division":"Kariiira","Location":"Kiarutara","Sub_Locati":"Kiarutara","Constituen":"GATANGA","Nearest_To":"Gatua","Latitude":"-0.85962","Longitude":"36.82617"},"geometry":{"type":"Point","coordinates":[36.82617,-0.85962]}},{"type":"Feature","properties":{"OBJECTID":"4244","Facility_N":"Kibutha Dispensary","Type":"Dispensary","Owner":"Ministry of Health","County":"Murang'a","Sub_County":"Muranga West","Division":"Kangema","Location":"Kanyenyaini","Sub_Locati":"Kibutha","Constituen":"KANGEMA","Nearest_To":"Kangema","Latitude":"-0.698678","Longitude":"36.9288"},"geometry":{"type":"Point","coordinates":[36.9288,-0.698678]}},{"type":"Feature","properties":{"OBJECTID":"4245","Facility_N":"Kibutha Medical Clinic","Type":"Medical Clinic","Owner":"Private Enterprise (Institution)","County":"Murang'a","Sub_County":"Muranga West","Division":"Kangema","Location":"Kibutha","Sub_Locati":"Kibutha","Constituen":"KANGEMA","Nearest_To":"Kangema","Latitude":"-0.6982","Longitude":"36.91892"},"geometry":{"type":"Point","coordinates":[36.91892,-0.6982]}},{"type":"Feature","properties":{"OBJECTID":"4271","Facility_N":"Kigetuini Dispensary","Type":"Dispensary","Owner":"Ministry of Health","County":"Murang'a","Sub_County":"Kiharu","Division":"Kiharu","Location":"Gaturi","Sub_Locati":"Kigongo","Constituen":"KIHARU","Nearest_To":"Kigetuini","Latitude":"-0.67321","Longitude":"37.16234"},"geometry":{"type":"Point","coordinates":[37.16234,-0.67321]}},{"type":"Feature","properties":{"OBJECTID":"4275","Facility_N":"Kigoro Dispensary","Type":"Dispensary","Owner":"Ministry of Health","County":"Murang'a","Sub_County":"Gatanga","Division":"Gatanga","Location":"Kigoro","Sub_Locati":"Kigoro","Constituen":"GATANGA","Nearest_To":"Kigoro","Latitude":"-0.85592","Longitude":"36.8879"},"geometry":{"type":"Point","coordinates":[36.8879,-0.85592]}},{"type":"Feature","properties":{"OBJECTID":"4279","Facility_N":"Kigumo Sub County Hospital (Kigumo)","Type":"Sub-District Hospital","Owner":"Ministry of Health","County":"Murang'a","Sub_County":"Kigumo","Division":"Kigumo","Location":"Kigumo","Sub_Locati":"Iriguini","Constituen":"KIGUMO","Nearest_To":"Iriguini","Latitude":"-0.80404","Longitude":"36.9612"},"geometry":{"type":"Point","coordinates":[36.9612,-0.80404]}},{"type":"Feature","properties":{"OBJECTID":"4285","Facility_N":"Kihinga Dispensary","Type":"Medical Clinic","Owner":"Private Enterprise (Institution)","County":"Murang'a","Sub_County":"Kahuro","Division":"Kahuro","Location":"Gatheru","Sub_Locati":"Gatheru","Constituen":"KIHARU","Nearest_To":"Kahuro","Latitude":"-0.727363","Longitude":"37.0622"},"geometry":{"type":"Point","coordinates":[37.0622,-0.727363]}},{"type":"Feature","properties":{"OBJECTID":"4286","Facility_N":"Kihinga Medical Clinic","Type":"Medical Clinic","Owner":"Private Practice - Nurse / Midwife","County":"Murang'a","Sub_County":"Kiharu","Division":"Kahuro","Location":"Mugoiri","Sub_Locati":"Gatundu","Constituen":"KIHARU","Nearest_To":"Gatundu","Latitude":"-0.726075","Longitude":"36.9267"},"geometry":{"type":"Point","coordinates":[36.9267,-0.726075]}},{"type":"Feature","properties":{"OBJECTID":"4289","Facility_N":"Kihoya Dispensary","Type":"Dispensary","Owner":"Ministry of Health","County":"Murang'a","Sub_County":"Kiharu","Division":"Kangema","Location":"Rwathia","Sub_Locati":"Kihoya","Constituen":"KANGEMA","Nearest_To":"Kihoya","Latitude":"-0.647721","Longitude":"36.9012"},"geometry":{"type":"Point","coordinates":[36.9012,-0.647721]}},{"type":"Feature","properties":{"OBJECTID":"4290","Facility_N":"Kihoya Medical Centre","Type":"Medical Clinic","Owner":"Private Enterprise (Institution)","County":"Murang'a","Sub_County":"Muranga West","Division":"Kangema","Location":"Rwathia","Sub_Locati":"Kihoya","Constituen":"KANGEMA","Nearest_To":"Kangema","Latitude":"-0.647721","Longitude":"36.9012"},"geometry":{"type":"Point","coordinates":[36.9012,-0.647721]}},{"type":"Feature","properties":{"OBJECTID":"4292","Facility_N":"Kihumbuini (PCEA) Dispensary","Type":"Dispensary","Owner":"Christian Health Association of Kenya","County":"Murang'a","Sub_County":"Gatanga","Division":"Kihumbuini","Location":"Kihumbuini","Sub_Locati":"Kihumbuini","Constituen":"GATANGA","Nearest_To":"Kihumbuini","Latitude":"-0.92878","Longitude":"36.98749"},"geometry":{"type":"Point","coordinates":[36.98749,-0.92878]}},{"type":"Feature","properties":{"OBJECTID":"4293","Facility_N":"Kihumbu-Ini Community Dispensary","Type":"Dispensary","Owner":"Ministry of Health","County":"Murang'a","Sub_County":"Gatanga","Division":"Gatanga","Location":"Kihumbuini","Sub_Locati":"Kihumbuini","Constituen":"GATANGA","Nearest_To":"Thika","Latitude":"-0.9292","Longitude":"36.98856"},"geometry":{"type":"Point","coordinates":[36.98856,-0.9292]}},{"type":"Feature","properties":{"OBJECTID":"4295","Facility_N":"Kihuro (ACK) Dispensary","Type":"Dispensary","Owner":"Christian Health Association of Kenya","County":"Murang'a","Sub_County":"Mathioya","Division":"Mathioya","Location":"Kamacharia","Sub_Locati":"Kamacharia","Constituen":"MATHIOYA","Nearest_To":"Kiriaini","Latitude":"-0.61","Longitude":"36.97"},"geometry":{"type":"Point","coordinates":[36.97,-0.61]}},{"type":"Feature","properties":{"OBJECTID":"4368","Facility_N":"Kimandi Clinic and Laboratory","Type":"Medical Clinic","Owner":"Private Enterprise (Institution)","County":"Murang'a","Sub_County":"Gatanga","Division":"Gatanga","Location":"Kigoro","Sub_Locati":"Ndakaini","Constituen":"GATANGA","Nearest_To":" ","Latitude":"-0.770206","Longitude":"36.7761"},"geometry":{"type":"Point","coordinates":[36.7761,-0.770206]}},{"type":"Feature","properties":{"OBJECTID":"4391","Facility_N":"Kimkan Health Services","Type":"Medical Clinic","Owner":"Private Practice - Medical Specialist","County":"Murang'a","Sub_County":"Kiharu","Division":"MBIRI","Location":"Karuri","Sub_Locati":"Township","Constituen":"KIHARU","Nearest_To":"Muranga Town","Latitude":"-0.71522","Longitude":"37.15901"},"geometry":{"type":"Point","coordinates":[37.15901,-0.71522]}},{"type":"Feature","properties":{"OBJECTID":"4464","Facility_N":"Kinyona Dispensary","Type":"Dispensary","Owner":"Ministry of Health","County":"Murang'a","Sub_County":"Kigumo","Division":"Kigumo","Location":"Kinyona","Sub_Locati":"Kinyona","Constituen":"KIGUMO","Nearest_To":"Kinyona","Latitude":"-0.74939","Longitude":"36.82797"},"geometry":{"type":"Point","coordinates":[36.82797,-0.74939]}},{"type":"Feature","properties":{"OBJECTID":"4465","Facility_N":"Kinyona Health Clinic","Type":"Medical Clinic","Owner":"Private Practice - Nurse / Midwife","County":"Murang'a","Sub_County":"Kigumo","Division":"Kigumo","Location":"Kinyona","Sub_Locati":"Kinyona","Constituen":"KIGUMO","Nearest_To":"Kinyona","Latitude":"-0.74997","Longitude":"36.82933"},"geometry":{"type":"Point","coordinates":[36.82933,-0.74997]}},{"type":"Feature","properties":{"OBJECTID":"4553","Facility_N":"Kiracha Medical Clinic","Type":"Medical Clinic","Owner":"Private Enterprise (Institution)","County":"Murang'a","Sub_County":"Kiharu","Division":"Kahuro","Location":"Murarandia","Sub_Locati":"Murarandia","Constituen":"KIHARU","Nearest_To":"Kahuro","Latitude":"-0.716275","Longitude":"36.9033"},"geometry":{"type":"Point","coordinates":[36.9033,-0.716275]}},{"type":"Feature","properties":{"OBJECTID":"4559","Facility_N":"Kiria Health Centre","Type":"Health Centre","Owner":"Ministry of Health","County":"Murang'a","Sub_County":"Kahuro","Division":"Kahuro","Location":"Mugoiri","Sub_Locati":"Kiria","Constituen":"KIHARU","Nearest_To":"Kiria","Latitude":"-0.76781","Longitude":"37.0672"},"geometry":{"type":"Point","coordinates":[37.0672,-0.76781]}},{"type":"Feature","properties":{"OBJECTID":"4560","Facility_N":"Kiria-Ini Dispensary","Type":"Dispensary","Owner":"Ministry of Health","County":"Murang'a","Sub_County":"Mathioya","Division":"Mathioya","Location":"Kiru","Sub_Locati":"Kiriaini","Constituen":"MATHIOYA","Nearest_To":"Kiriaini","Latitude":"-0.59941","Longitude":"36.95155"},"geometry":{"type":"Point","coordinates":[36.95155,-0.59941]}},{"type":"Feature","properties":{"OBJECTID":"4561","Facility_N":"Kiriaini Medical Clinic","Type":"Medical Clinic","Owner":"Private Enterprise (Institution)","County":"Murang'a","Sub_County":"Mathioya","Division":"Mathioya","Location":"Kiru","Sub_Locati":"Kiriaini","Constituen":"MATHIOYA","Nearest_To":"Kiriaini","Latitude":"-0.59941","Longitude":"36.95155"},"geometry":{"type":"Point","coordinates":[36.95155,-0.59941]}},{"type":"Feature","properties":{"OBJECTID":"4562","Facility_N":"Kiria-Ini Mission Hospital","Type":"Other Hospital","Owner":"Other Faith Based","County":"Murang'a","Sub_County":"Mathioya","Division":"Mathioya","Location":"Kiru","Sub_Locati":"Kiriaini","Constituen":"MATHIOYA","Nearest_To":"Kiriaini","Latitude":"-0.60248","Longitude":"36.95297"},"geometry":{"type":"Point","coordinates":[36.95297,-0.60248]}},{"type":"Feature","properties":{"OBJECTID":"4588","Facility_N":"Kirogo Health Centre","Type":"Health Centre","Owner":"Ministry of Health","County":"Murang'a","Sub_County":"Kahuro","Division":"Kahuro","Location":"Kahuhia","Sub_Locati":"Kirogo","Constituen":"KIHARU","Nearest_To":"Muranga","Latitude":"-0.71178","Longitude":"37.02947"},"geometry":{"type":"Point","coordinates":[37.02947,-0.71178]}},{"type":"Feature","properties":{"OBJECTID":"4596","Facility_N":"Kiruri Dispensary (Muranga North)","Type":"Dispensary","Owner":"Ministry of Health","County":"Murang'a","Sub_County":"Muranga West","Division":"Kangema","Location":"Muguru","Sub_Locati":"Muguru","Constituen":"KANGEMA","Nearest_To":"Kiruri Market","Latitude":"-0.69281","Longitude":"36.85731"},"geometry":{"type":"Point","coordinates":[36.85731,-0.69281]}},{"type":"Feature","properties":{"OBJECTID":"4598","Facility_N":"Kirwara Health Clinic","Type":"Medical Clinic","Owner":"Private Enterprise (Institution)","County":"Murang'a","Sub_County":"Gatanga","Division":"Gatanga","Location":"Gatanga","Sub_Locati":"Gatanga","Constituen":"GATANGA","Nearest_To":" ","Latitude":"-0.92953","Longitude":"36.94281"},"geometry":{"type":"Point","coordinates":[36.94281,-0.92953]}},{"type":"Feature","properties":{"OBJECTID":"4599","Facility_N":"Kirwara Sub District","Type":"Sub-District Hospital","Owner":"Ministry of Health","County":"Murang'a","Sub_County":"Gatanga","Division":"Gatanga","Location":"Gatanga","Sub_Locati":"Gatanga","Constituen":"GATANGA","Nearest_To":"Kirwara","Latitude":"-0.92936","Longitude":"36.94314"},"geometry":{"type":"Point","coordinates":[36.94314,-0.92936]}},{"type":"Feature","properties":{"OBJECTID":"4727","Facility_N":"Kiunyu Dispensary","Type":"Dispensary","Owner":"Ministry of Health","County":"Murang'a","Sub_County":"Gatanga","Division":"Gatanga","Location":"Kihumbuini","Sub_Locati":"Kiunyu","Constituen":"GATANGA","Nearest_To":"Thika","Latitude":"-0.94456","Longitude":"37.0107"},"geometry":{"type":"Point","coordinates":[37.0107,-0.94456]}},{"type":"Feature","properties":{"OBJECTID":"4739","Facility_N":"Kiwa Laboratory","Type":"Laboratory (Stand-alone)","Owner":"Private Practice - Unspecified","County":"Murang'a","Sub_County":"Muranga South","Division":"Maragwa","Location":"Nginda","Sub_Locati":"Rurago","Constituen":"MARAGWA","Nearest_To":"Maragua Town","Latitude":"-0.79084","Longitude":"37.13041"},"geometry":{"type":"Point","coordinates":[37.13041,-0.79084]}},{"type":"Feature","properties":{"OBJECTID":"4782","Facility_N":"Koimbi Medical Clinic","Type":"Medical Clinic","Owner":"Private Enterprise (Institution)","County":"Murang'a","Sub_County":"Kahuro","Division":"Kahuro","Location":"Weithaga","Sub_Locati":"Wangu","Constituen":"KIHARU","Nearest_To":"Kahuro","Latitude":"-0.701925","Longitude":"36.988"},"geometry":{"type":"Point","coordinates":[36.988,-0.701925]}},{"type":"Feature","properties":{"OBJECTID":"4921","Facility_N":"Kwa Ng'ang'a Medicare","Type":"Medical Clinic","Owner":"Private Practice - Nurse / Midwife","County":"Murang'a","Sub_County":"Muranga South","Division":"Makuyu","Location":"Kamahuha","Sub_Locati":"Kamahuha","Constituen":"MARAGWA","Nearest_To":"Kamahuha","Latitude":"-0.8415","Longitude":"37.17964"},"geometry":{"type":"Point","coordinates":[37.17964,-0.8415]}},{"type":"Feature","properties":{"OBJECTID":"5059","Facility_N":"Leah Njoki Ndegwa Dispensary","Type":"Dispensary","Owner":"Ministry of Health","County":"Murang'a","Sub_County":"Muranga South","Division":" ","Location":" ","Sub_Locati":" ","Constituen":"MARAGWA","Nearest_To":" ","Latitude":"-0.711403","Longitude":"37.00234"},"geometry":{"type":"Point","coordinates":[37.00234,-0.711403]}},{"type":"Feature","properties":{"OBJECTID":"5135","Facility_N":"Lilian Wachuka Clinic","Type":"Medical Clinic","Owner":"Private Enterprise (Institution)","County":"Murang'a","Sub_County":"Kiharu","Division":"Kiharu","Location":"Nyakihai","Sub_Locati":"Nyakihai","Constituen":"KIHARU","Nearest_To":"Muranga","Latitude":"-0.750075","Longitude":"37.1211"},"geometry":{"type":"Point","coordinates":[37.1211,-0.750075]}},{"type":"Feature","properties":{"OBJECTID":"5426","Facility_N":"Mairi Dispensary","Type":"Dispensary","Owner":"Ministry of Health","County":"Murang'a","Sub_County":"Kigumo","Division":"Kigumo","Location":"Kangari","Sub_Locati":"Kangari","Constituen":"KIGUMO","Nearest_To":"Mairi","Latitude":"-0.77088","Longitude":"36.83134"},"geometry":{"type":"Point","coordinates":[36.83134,-0.77088]}},{"type":"Feature","properties":{"OBJECTID":"5495","Facility_N":"Makuyu Health Centre","Type":"Health Centre","Owner":"Ministry of Health","County":"Murang'a","Sub_County":"Muranga South","Division":"Makuyu","Location":"Makuyu","Sub_Locati":"Makuyu","Constituen":"MARAGWA","Nearest_To":"Makuyu","Latitude":"-0.89672","Longitude":"37.18753"},"geometry":{"type":"Point","coordinates":[37.18753,-0.89672]}},{"type":"Feature","properties":{"OBJECTID":"5552","Facility_N":"Mananga Dispensary","Type":"Dispensary","Owner":"Christian Health Association of Kenya","County":"Murang'a","Sub_County":"Mathioya","Division":" ","Location":"Kiru","Sub_Locati":"Kora","Constituen":"MATHIOYA","Nearest_To":"Kiriaini Market","Latitude":"-0.7183","Longitude":"37.16104"},"geometry":{"type":"Point","coordinates":[37.16104,-0.7183]}},{"type":"Feature","properties":{"OBJECTID":"5607","Facility_N":"Maragi Dispensary","Type":"Dispensary","Owner":"Community","County":"Murang'a","Sub_County":"Kiharu","Division":"Kiharu","Location":"Mbiri","Sub_Locati":"Maragi","Constituen":"KIHARU","Nearest_To":"Mukuyu Market","Latitude":"-0.73347","Longitude":"37.1206"},"geometry":{"type":"Point","coordinates":[37.1206,-0.73347]}},{"type":"Feature","properties":{"OBJECTID":"5608","Facility_N":"Maragi Medical Clinic","Type":"Medical Clinic","Owner":"Private Enterprise (Institution)","County":"Murang'a","Sub_County":"Kiharu","Division":"Kiharu","Location":"Mbiri","Sub_Locati":"Maragi","Constituen":"KIHARU","Nearest_To":"Muranga","Latitude":"-0.731465","Longitude":"37.1306"},"geometry":{"type":"Point","coordinates":[37.1306,-0.731465]}},{"type":"Feature","properties":{"OBJECTID":"5609","Facility_N":"Maragua (African Christian Churches and Schools) C","Type":"Dispensary","Owner":"Christian Health Association of Kenya","County":"Murang'a","Sub_County":"Muranga South","Division":"Maragua","Location":"Nginda","Sub_Locati":"Gakoigo","Constituen":"MARAGWA","Nearest_To":"Maragua","Latitude":"-0.776287","Longitude":"37.1274"},"geometry":{"type":"Point","coordinates":[37.1274,-0.776287]}},{"type":"Feature","properties":{"OBJECTID":"5610","Facility_N":"Maragua Clinic","Type":"Medical Clinic","Owner":"Private Practice - Nurse / Midwife","County":"Murang'a","Sub_County":"Muranga South","Division":"Maragua","Location":"Nginda","Sub_Locati":"Gakoigo","Constituen":"MARAGWA","Nearest_To":"Maragua","Latitude":"-0.776287","Longitude":"37.1274"},"geometry":{"type":"Point","coordinates":[37.1274,-0.776287]}},{"type":"Feature","properties":{"OBJECTID":"5611","Facility_N":"Maragua District Hospital","Type":"District Hospital","Owner":"Ministry of Health","County":"Murang'a","Sub_County":"Muranga South","Division":"Maragua","Location":"Nginda","Sub_Locati":"Gakoigo","Constituen":"MARAGWA","Nearest_To":"Maragua","Latitude":"-0.78914","Longitude":"37.12754"},"geometry":{"type":"Point","coordinates":[37.12754,-0.78914]}},{"type":"Feature","properties":{"OBJECTID":"5612","Facility_N":"Maragua Ridge Health Centre","Type":"Health Centre","Owner":"Ministry of Health","County":"Murang'a","Sub_County":"Muranga South","Division":"Maragua","Location":"Maragua Ridge","Sub_Locati":"Maragua Ridge","Constituen":"MARAGWA","Nearest_To":"Mungetho","Latitude":"-0.77765","Longitude":"37.20875"},"geometry":{"type":"Point","coordinates":[37.20875,-0.77765]}},{"type":"Feature","properties":{"OBJECTID":"5624","Facility_N":"Maranjau Dispensary","Type":"Dispensary","Owner":"Ministry of Health","County":"Murang'a","Sub_County":"Muranga South","Division":"Makuyu","Location":"Kamahuha","Sub_Locati":"Kamahuha","Constituen":"MARAGWA","Nearest_To":"Kamahuha","Latitude":"-0.80195","Longitude":"37.22395"},"geometry":{"type":"Point","coordinates":[37.22395,-0.80195]}},{"type":"Feature","properties":{"OBJECTID":"5638","Facility_N":"Mariaini Dispensary","Type":"Dispensary","Owner":"Ministry of Health","County":"Murang'a","Sub_County":"Kandara","Division":"Kandara","Location":"Gaichanjiru","Sub_Locati":"Mariaini","Constituen":"KANDARA","Nearest_To":"Kenol town,Karugia Market","Latitude":"-0.88466","Longitude":"37.09043"},"geometry":{"type":"Point","coordinates":[37.09043,-0.88466]}},{"type":"Feature","properties":{"OBJECTID":"5670","Facility_N":"Marie Stopes Nursing Home (Muranga)","Type":"Nursing Home","Owner":"Non-Governmental Organizations","County":"Murang'a","Sub_County":"Kiharu","Division":"Kiharu","Location":"Mbiri","Sub_Locati":"Maragi","Constituen":"KIHARU","Nearest_To":"Muranga","Latitude":"-0.731465","Longitude":"37.1306"},"geometry":{"type":"Point","coordinates":[37.1306,-0.731465]}},{"type":"Feature","properties":{"OBJECTID":"5676","Facility_N":"Mariira Catholic Dispensary","Type":"Dispensary","Owner":"Kenya Episcopal Conference-Catholic Secretariat","County":"Murang'a","Sub_County":"Kigumo","Division":"Kigumo","Location":"Kigumo","Sub_Locati":"Iriguini","Constituen":"KIGUMO","Nearest_To":"Githima","Latitude":"-0.79819","Longitude":"36.93235"},"geometry":{"type":"Point","coordinates":[36.93235,-0.79819]}},{"type":"Feature","properties":{"OBJECTID":"5798","Facility_N":"Matharite Dispensary","Type":"Dispensary","Owner":"Ministry of Health","County":"Murang'a","Sub_County":"Kahuro","Division":"Kahuro","Location":"Murarandia","Sub_Locati":"Matharite","Constituen":"KIHARU","Nearest_To":"Githambo Market","Latitude":"-0.70764","Longitude":"36.90736"},"geometry":{"type":"Point","coordinates":[36.90736,-0.70764]}},{"type":"Feature","properties":{"OBJECTID":"5803","Facility_N":"Mathioya Medical Clinic","Type":"Medical Clinic","Owner":"Private Practice - Clinical Officer","County":"Murang'a","Sub_County":"Mathioya","Division":"Kiru","Location":"Kiru","Sub_Locati":"Kiru","Constituen":"MATHIOYA","Nearest_To":"Kiriaini Market","Latitude":"-0.73103","Longitude":"36.96844"},"geometry":{"type":"Point","coordinates":[36.96844,-0.73103]}},{"type":"Feature","properties":{"OBJECTID":"5936","Facility_N":"Mbugiti Dispensary","Type":"Dispensary","Owner":"Ministry of Health","County":"Murang'a","Sub_County":"Gatanga","Division":"Gatanga","Location":" ","Sub_Locati":" ","Constituen":"KANDARA","Nearest_To":" ","Latitude":"-0.83589","Longitude":"36.82355"},"geometry":{"type":"Point","coordinates":[36.82355,-0.83589]}},{"type":"Feature","properties":{"OBJECTID":"5945","Facility_N":"Mbuti Medical Clinic","Type":"Medical Clinic","Owner":"Private Practice - Nurse / Midwife","County":"Murang'a","Sub_County":"Muranga South","Division":"Maragua","Location":"Kamahuha","Sub_Locati":"Sabasaba","Constituen":"MARAGWA","Nearest_To":"Mugumoini","Latitude":"-0.868075","Longitude":"37.1556"},"geometry":{"type":"Point","coordinates":[37.1556,-0.868075]}},{"type":"Feature","properties":{"OBJECTID":"6117","Facility_N":"Midway Clinic","Type":"Medical Clinic","Owner":"Private Enterprise (Institution)","County":"Murang'a","Sub_County":"Mathioya","Division":"Mathioya","Location":"Kamacharia","Sub_Locati":"Kamacharia","Constituen":"MATHIOYA","Nearest_To":"Kiriaini","Latitude":"-0.599524","Longitude":"36.9748"},"geometry":{"type":"Point","coordinates":[36.9748,-0.599524]}},{"type":"Feature","properties":{"OBJECTID":"6125","Facility_N":"Mihang'o Dispensary","Type":"Dispensary","Owner":"Ministry of Health","County":"Murang'a","Sub_County":"Muranga South","Division":"Makuyu","Location":"Kimorori","Sub_Locati":"Mihang'O","Constituen":"MARAGWA","Nearest_To":"Mihang'O","Latitude":"-0.86185","Longitude":"37.21496"},"geometry":{"type":"Point","coordinates":[37.21496,-0.86185]}},{"type":"Feature","properties":{"OBJECTID":"6127","Facility_N":"Mihuti Dispensary (Muranga North)","Type":"Dispensary","Owner":"Christian Health Association of Kenya","County":"Murang'a","Sub_County":"Mathioya","Division":"Mathioya","Location":"Gitugi","Sub_Locati":"Mihuti","Constituen":"MATHIOYA","Nearest_To":"Kiriaini","Latitude":"-0.66","Longitude":"36.96"},"geometry":{"type":"Point","coordinates":[36.96,-0.66]}},{"type":"Feature","properties":{"OBJECTID":"6451","Facility_N":"Mugeka Dispensary","Type":"Dispensary","Owner":"Ministry of Health","County":"Murang'a","Sub_County":"Kiharu","Division":"Kiharu","Location":"Gaturi","Sub_Locati":"Mugeka","Constituen":"KIHARU","Nearest_To":"Mugeka shopping centre","Latitude":"-0.63969","Longitude":"37.09145"},"geometry":{"type":"Point","coordinates":[37.09145,-0.63969]}},{"type":"Feature","properties":{"OBJECTID":"6453","Facility_N":"Mugoiri Dispensary","Type":"Dispensary","Owner":"Ministry of Health","County":"Murang'a","Sub_County":"Kahuro","Division":"Kahuro","Location":"Mugoiri","Sub_Locati":"Kahuro","Constituen":"KIHARU","Nearest_To":"Kahuro","Latitude":"-0.745661","Longitude":"36.9985"},"geometry":{"type":"Point","coordinates":[36.9985,-0.745661]}},{"type":"Feature","properties":{"OBJECTID":"6461","Facility_N":"Mugumoini Dispensary (Muranga South)","Type":"Dispensary","Owner":"Ministry of Health","County":"Murang'a","Sub_County":"Muranga South","Division":"Maragua","Location":"Kahumbu","Sub_Locati":"Mugumoini","Constituen":"MARAGWA","Nearest_To":"Mugumoini","Latitude":"-0.85031","Longitude":"37.0786"},"geometry":{"type":"Point","coordinates":[37.0786,-0.85031]}},{"type":"Feature","properties":{"OBJECTID":"6462","Facility_N":"Mugumo-Ini Medical Clinic","Type":"Medical Clinic","Owner":"Private Enterprise (Institution)","County":"Murang'a","Sub_County":"Gatanga","Division":"Gatanga","Location":"Mugumoini","Sub_Locati":"Mugumoini","Constituen":"GATANGA","Nearest_To":" ","Latitude":"-0.96118","Longitude":"36.99326"},"geometry":{"type":"Point","coordinates":[36.99326,-0.96118]}},{"type":"Feature","properties":{"OBJECTID":"6484","Facility_N":"Mukanga Dispensary (Muranga North)","Type":"Dispensary","Owner":"Ministry of Health","County":"Murang'a","Sub_County":"Kiharu","Division":"Wangu","Location":"Kahuhia","Sub_Locati":"Mukangu","Constituen":"KIHARU","Nearest_To":"MukangaVillage","Latitude":"-0.71766","Longitude":"37.0668"},"geometry":{"type":"Point","coordinates":[37.0668,-0.71766]}},{"type":"Feature","properties":{"OBJECTID":"6487","Facility_N":"Mukarara Community Dispensary","Type":"Dispensary","Owner":"Ministry of Health","County":"Murang'a","Sub_County":"Gatanga","Division":"Gatanga","Location":"Mukarara","Sub_Locati":"Mukarara","Constituen":"GATANGA","Nearest_To":" ","Latitude":"-0.90886","Longitude":"36.94325"},"geometry":{"type":"Point","coordinates":[36.94325,-0.90886]}},{"type":"Feature","properties":{"OBJECTID":"6489","Facility_N":"Mukerenju Dispensary","Type":"Dispensary","Owner":"Ministry of Health","County":"Murang'a","Sub_County":"Kandara","Division":"Kandara","Location":"kagunduini","Sub_Locati":"Kabati","Constituen":"KANDARA","Nearest_To":"kabati","Latitude":"-0.82615","Longitude":"37.00015"},"geometry":{"type":"Point","coordinates":[37.00015,-0.82615]}},{"type":"Feature","properties":{"OBJECTID":"6496","Facility_N":"Mukoe Dispensary","Type":"Dispensary","Owner":"Ministry of Health","County":"Murang'a","Sub_County":"Kandara","Division":"Kandara","Location":"Ithiru","Sub_Locati":"Mukoe","Constituen":"KANDARA","Nearest_To":"Gakui","Latitude":"-0.85529","Longitude":"36.97797"},"geometry":{"type":"Point","coordinates":[36.97797,-0.85529]}},{"type":"Feature","properties":{"OBJECTID":"6506","Facility_N":"Mukuria Dispensary","Type":"Dispensary","Owner":"Ministry of Health","County":"Murang'a","Sub_County":"Kandara","Division":"Kandara","Location":"Ithuri","Sub_Locati":"Mukuria","Constituen":"KANDARA","Nearest_To":"Mukuria","Latitude":"-0.81043","Longitude":"36.92699"},"geometry":{"type":"Point","coordinates":[36.92699,-0.81043]}},{"type":"Feature","properties":{"OBJECTID":"6511","Facility_N":"Mukurwe Dispensary","Type":"Dispensary","Owner":"Ministry of Health","County":"Murang'a","Sub_County":"Gatanga","Division":"Gatanga","Location":"Mukarara","Sub_Locati":"Mukurwe","Constituen":"GATANGA","Nearest_To":"Thika","Latitude":"-0.90231","Longitude":"36.96321"},"geometry":{"type":"Point","coordinates":[36.96321,-0.90231]}},{"type":"Feature","properties":{"OBJECTID":"6519","Facility_N":"Mukuyu Medical Clinic","Type":"Medical Clinic","Owner":"Private Practice - Nurse / Midwife","County":"Murang'a","Sub_County":"Kiharu","Division":"Kiharu","Location":"Mbiri","Sub_Locati":"Maragi","Constituen":"KIHARU","Nearest_To":"Muranga","Latitude":"-0.731465","Longitude":"37.1306"},"geometry":{"type":"Point","coordinates":[37.1306,-0.731465]}},{"type":"Feature","properties":{"OBJECTID":"6569","Facility_N":"Mungaria Dispensary","Type":"Dispensary","Owner":"Ministry of Health","County":"Murang'a","Sub_County":"Kandara","Division":"Kandara","Location":"Ithiru","Sub_Locati":"Mungaria","Constituen":"KANDARA","Nearest_To":"Mungaria","Latitude":"-0.85629","Longitude":"36.97797"},"geometry":{"type":"Point","coordinates":[36.97797,-0.85629]}},{"type":"Feature","properties":{"OBJECTID":"6578","Facility_N":"Mununga Dispensary","Type":"Dispensary","Owner":"Christian Health Association of Kenya","County":"Murang'a","Sub_County":"Kigumo","Division":"Kigumo","Location":"Kinyona","Sub_Locati":"Kinyona","Constituen":"KIGUMO","Nearest_To":"Kinyona","Latitude":"-0.74231","Longitude":"36.8648"},"geometry":{"type":"Point","coordinates":[36.8648,-0.74231]}},{"type":"Feature","properties":{"OBJECTID":"6579","Facility_N":"Mununga Health Clinic","Type":"Medical Clinic","Owner":"Private Practice - Nurse / Midwife","County":"Murang'a","Sub_County":"Kigumo","Division":"Kigumo","Location":"Kinyona","Sub_Locati":"Kinyona","Constituen":"KIGUMO","Nearest_To":"Kinyona","Latitude":"-0.74267","Longitude":"36.85323"},"geometry":{"type":"Point","coordinates":[36.85323,-0.74267]}},{"type":"Feature","properties":{"OBJECTID":"6594","Facility_N":"Murang'a District Hospital","Type":"District Hospital","Owner":"Ministry of Health","County":"Murang'a","Sub_County":"Kiharu","Division":"Kiharu","Location":"Township","Sub_Locati":"Karuri","Constituen":"KIHARU","Nearest_To":"Muranga","Latitude":"-0.71587","Longitude":"37.15985"},"geometry":{"type":"Point","coordinates":[37.15985,-0.71587]}},{"type":"Feature","properties":{"OBJECTID":"6596","Facility_N":"Murarandia Dispensary","Type":"Dispensary","Owner":"Ministry of Health","County":"Murang'a","Sub_County":"Kiharu","Division":"Kahuro","Location":"Murarandia","Sub_Locati":"Murarandia","Constituen":"KIHARU","Nearest_To":"Kahuro","Latitude":"-0.71863","Longitude":"36.8958"},"geometry":{"type":"Point","coordinates":[36.8958,-0.71863]}},{"type":"Feature","properties":{"OBJECTID":"6597","Facility_N":"Murarandia Medical Centre","Type":"Medical Clinic","Owner":"Private Enterprise (Institution)","County":"Murang'a","Sub_County":"Kahuro","Division":"Kahuro","Location":"Murarandia","Sub_Locati":"Their","Constituen":"KIHARU","Nearest_To":"Kahuro","Latitude":"-0.722125","Longitude":"36.9369"},"geometry":{"type":"Point","coordinates":[36.9369,-0.722125]}},{"type":"Feature","properties":{"OBJECTID":"6598","Facility_N":"Murarandia Medical Clinic","Type":"Medical Clinic","Owner":"Private Practice - Clinical Officer","County":"Murang'a","Sub_County":"Kahuro","Division":"Kahuro","Location":"Murarandia","Sub_Locati":"Kahatia","Constituen":"KIHARU","Nearest_To":"Murarania Market","Latitude":"-0.73301","Longitude":"36.92797"},"geometry":{"type":"Point","coordinates":[36.92797,-0.73301]}},{"type":"Feature","properties":{"OBJECTID":"6608","Facility_N":"Muriranjas Sub-District Hospital","Type":"Sub-District Hospital","Owner":"Ministry of Health","County":"Murang'a","Sub_County":"Kahuro","Division":"Kahuro","Location":"Mugoiri","Sub_Locati":"Kahuro","Constituen":"KIHARU","Nearest_To":"Kahuro","Latitude":"-0.74315","Longitude":"36.97306"},"geometry":{"type":"Point","coordinates":[36.97306,-0.74315]}},{"type":"Feature","properties":{"OBJECTID":"6620","Facility_N":"Muruka Dispensary","Type":"Dispensary","Owner":"Ministry of Health","County":"Murang'a","Sub_County":"Kandara","Division":"Kandara","Location":"Muruka","Sub_Locati":"Muruka","Constituen":"KANDARA","Nearest_To":"Muruka","Latitude":"-0.93067","Longitude":"37.06085"},"geometry":{"type":"Point","coordinates":[37.06085,-0.93067]}},{"type":"Feature","properties":{"OBJECTID":"6670","Facility_N":"Mutheru Dispensary","Type":"Dispensary","Owner":"Ministry of Health","County":"Murang'a","Sub_County":"Kandara","Division":"Kandara","Location":"Ruchu","Sub_Locati":"Gacharage","Constituen":"KANDARA","Nearest_To":"Mutheru","Latitude":"-0.82163","Longitude":"36.9557"},"geometry":{"type":"Point","coordinates":[36.9557,-0.82163]}},{"type":"Feature","properties":{"OBJECTID":"6677","Facility_N":"Muthithi (PCEA) Dispensary","Type":"Dispensary","Owner":"Christian Health Association of Kenya","County":"Murang'a","Sub_County":"Muranga South","Division":"Maragua","Location":" ","Sub_Locati":"Muthithi","Constituen":"MARAGWA","Nearest_To":" ","Latitude":"-0.84502","Longitude":"37.09818"},"geometry":{"type":"Point","coordinates":[37.09818,-0.84502]}},{"type":"Feature","properties":{"OBJECTID":"6678","Facility_N":"Muthithi Dispensary","Type":"Dispensary","Owner":"Ministry of Health","County":"Murang'a","Sub_County":"Muranga South","Division":"Makuyu","Location":"Muthithi","Sub_Locati":"Muthithi","Constituen":"MARAGWA","Nearest_To":"Muthithi","Latitude":"-0.81699","Longitude":"37.03767"},"geometry":{"type":"Point","coordinates":[37.03767,-0.81699]}},{"type":"Feature","properties":{"OBJECTID":"6697","Facility_N":"Mutithi Dispensary","Type":"Dispensary","Owner":"Ministry of Health","County":"Murang'a","Sub_County":"Muranga South","Division":"Makuyu","Location":"KKirimiri","Sub_Locati":"Mithini","Constituen":"MARAGWA","Nearest_To":"Mithini","Latitude":"-0.94403","Longitude":"37.2822"},"geometry":{"type":"Point","coordinates":[37.2822,-0.94403]}},{"type":"Feature","properties":{"OBJECTID":"6840","Facility_N":"Naaro Dispensary","Type":"Dispensary","Owner":"Ministry of Health","County":"Murang'a","Sub_County":"Kandara","Division":"Kandara","Location":"Muruka","Sub_Locati":"Naaro","Constituen":"KANDARA","Nearest_To":"Naaro","Latitude":"-0.93647","Longitude":"37.03767"},"geometry":{"type":"Point","coordinates":[37.03767,-0.93647]}},{"type":"Feature","properties":{"OBJECTID":"7015","Facility_N":"Ndakaini Clinic","Type":"Medical Clinic","Owner":"Private Enterprise (Institution)","County":"Murang'a","Sub_County":"Gatanga","Division":"Gatanga","Location":"Kigoro","Sub_Locati":"Ndakaini","Constituen":"GATANGA","Nearest_To":"Thika","Latitude":"-0.82575","Longitude":"36.84262"},"geometry":{"type":"Point","coordinates":[36.84262,-0.82575]}},{"type":"Feature","properties":{"OBJECTID":"7016","Facility_N":"Ndakaini Dispensary","Type":"Dispensary","Owner":"Ministry of Health","County":"Murang'a","Sub_County":"Gatanga","Division":"Gatanga","Location":"Ndakaini","Sub_Locati":"Ndakaini","Constituen":"GATANGA","Nearest_To":"Thika","Latitude":"-0.82651","Longitude":"36.83651"},"geometry":{"type":"Point","coordinates":[36.83651,-0.82651]}},{"type":"Feature","properties":{"OBJECTID":"7083","Facility_N":"Ndunyu Chege Dispensary","Type":"Dispensary","Owner":"Ministry of Health","County":"Murang'a","Sub_County":"Gatanga","Division":"Gatanga","Location":"Ndunyu Chege","Sub_Locati":"Ndunyu Chege","Constituen":"GATANGA","Nearest_To":"Ndunyuchege","Latitude":"-0.87108","Longitude":"36.91228"},"geometry":{"type":"Point","coordinates":[36.91228,-0.87108]}},{"type":"Feature","properties":{"OBJECTID":"7106","Facility_N":"Neema Medical","Type":"Medical Clinic","Owner":"Private Practice - Nurse / Midwife","County":"Murang'a","Sub_County":"Muranga South","Division":"Makuyu","Location":"Kamahuha","Sub_Locati":"Sabasaba","Constituen":"MARAGWA","Nearest_To":"Sabasaba","Latitude":"-0.87778","Longitude":"37.13886"},"geometry":{"type":"Point","coordinates":[37.13886,-0.87778]}},{"type":"Feature","properties":{"OBJECTID":"7111","Facility_N":"Neema Medical Clinic (Muranga North)","Type":"Medical Clinic","Owner":"Private Practice - Clinical Officer","County":"Murang'a","Sub_County":"Kiharu","Division":"Kahuro","Location":"Mugoiri","Sub_Locati":"Kahuro","Constituen":"KIHARU","Nearest_To":"Kahuro Market","Latitude":"-0.745669","Longitude":"36.9122"},"geometry":{"type":"Point","coordinates":[36.9122,-0.745669]}},{"type":"Feature","properties":{"OBJECTID":"7141","Facility_N":"New Kihoya Clinic","Type":"Medical Clinic","Owner":"Private Practice - Nurse / Midwife","County":"Murang'a","Sub_County":"Kiharu","Division":"Kangema","Location":"Rwathia","Sub_Locati":"Kihoya","Constituen":"KANGEMA","Nearest_To":"Kihoya Market","Latitude":"-0.647721","Longitude":"36.9012"},"geometry":{"type":"Point","coordinates":[36.9012,-0.647721]}},{"type":"Feature","properties":{"OBJECTID":"7170","Facility_N":"Ngamba Dispensary","Type":"Dispensary","Owner":"Private Enterprise (Institution)","County":"Murang'a","Sub_County":"Mathioya","Division":"Mathioya","Location":"Gitugi","Sub_Locati":"Gitugi","Constituen":"MATHIOYA","Nearest_To":"Kiriaini","Latitude":"-0.679142","Longitude":"37.0856"},"geometry":{"type":"Point","coordinates":[37.0856,-0.679142]}},{"type":"Feature","properties":{"OBJECTID":"7181","Facility_N":"Ngararia Dispensary","Type":"Dispensary","Owner":"Community","County":"Murang'a","Sub_County":"Kandara","Division":"Kandara","Location":"Muruka","Sub_Locati":"Ngararia","Constituen":"KANDARA","Nearest_To":"Ngararia","Latitude":"-0.94523","Longitude":"37.02017"},"geometry":{"type":"Point","coordinates":[37.02017,-0.94523]}},{"type":"Feature","properties":{"OBJECTID":"7281","Facility_N":"Ngurweini Dispensary","Type":"Dispensary","Owner":"Ministry of Health","County":"Murang'a","Sub_County":"Kandara","Division":"Kandara","Location":"Gaichanjiru","Sub_Locati":"Ngurweini","Constituen":"KANDARA","Nearest_To":"Ngurweini","Latitude":"-0.89466","Longitude":"37.09043"},"geometry":{"type":"Point","coordinates":[37.09043,-0.89466]}},{"type":"Feature","properties":{"OBJECTID":"7282","Facility_N":"Nguthuru Dispensary","Type":"Dispensary","Owner":"Ministry of Health","County":"Murang'a","Sub_County":"Kandara","Division":"Kandara","Location":"Muruka","Sub_Locati":"Nguthuru","Constituen":"KANDARA","Nearest_To":"Makenji","Latitude":"-0.96422","Longitude":"37.09954"},"geometry":{"type":"Point","coordinates":[37.09954,-0.96422]}},{"type":"Feature","properties":{"OBJECTID":"7309","Facility_N":"Njambu Clinic","Type":"Medical Clinic","Owner":"Private Practice - Nurse / Midwife","County":"Murang'a","Sub_County":"Kandara","Division":"Kandara","Location":"Kagunduini","Sub_Locati":"Kagunduini","Constituen":"KANDARA","Nearest_To":"Kagunduini Market","Latitude":"-0.94418","Longitude":"37.00312"},"geometry":{"type":"Point","coordinates":[37.00312,-0.94418]}},{"type":"Feature","properties":{"OBJECTID":"7311","Facility_N":"Njemuka Clinic","Type":"Medical Clinic","Owner":"Private Enterprise (Institution)","County":"Murang'a","Sub_County":"Gatanga","Division":"Gatanga","Location":"Gatanga","Sub_Locati":"Mugumoini","Constituen":"GATANGA","Nearest_To":"Thika","Latitude":"-0.849228","Longitude":"37.0763"},"geometry":{"type":"Point","coordinates":[37.0763,-0.849228]}},{"type":"Feature","properties":{"OBJECTID":"7424","Facility_N":"Nyagiti Dispensary","Type":"Dispensary","Owner":"Ministry of Health","County":"Murang'a","Sub_County":"Mathioya","Division":"Mathioya","Location":"Gitugi","Sub_Locati":"Runyeki","Constituen":"MATHIOYA","Nearest_To":"Kiriaini","Latitude":"-0.67109","Longitude":"37.06607"},"geometry":{"type":"Point","coordinates":[37.06607,-0.67109]}},{"type":"Feature","properties":{"OBJECTID":"7443","Facility_N":"Nyakianga Health Centre","Type":"Health Centre","Owner":"Ministry of Health","County":"Murang'a","Sub_County":"Mathioya","Division":"Mathioya","Location":"Njumbi","Sub_Locati":"Njumbi","Constituen":"MATHIOYA","Nearest_To":"Kangema town","Latitude":"-0.63943","Longitude":"36.95746"},"geometry":{"type":"Point","coordinates":[36.95746,-0.63943]}},{"type":"Feature","properties":{"OBJECTID":"7635","Facility_N":"Obeys Medical Clinic","Type":"Medical Clinic","Owner":"Private Practice - Nurse / Midwife","County":"Murang'a","Sub_County":"Mathioya","Division":"Mathioya","Location":"Kiru","Sub_Locati":"Kiriaini","Constituen":"MATHIOYA","Nearest_To":"Kiriaini","Latitude":"-0.60019","Longitude":"36.95401"},"geometry":{"type":"Point","coordinates":[36.95401,-0.60019]}},{"type":"Feature","properties":{"OBJECTID":"7884","Facility_N":"Paed Afya Clinic","Type":"Medical Clinic","Owner":"Private Practice - Clinical Officer","County":"Murang'a","Sub_County":"Muranga South","Division":"Maragua","Location":"Nginda","Sub_Locati":"Gakoigo","Constituen":"MARAGWA","Nearest_To":"Maragua","Latitude":"-0.79166","Longitude":"37.13074"},"geometry":{"type":"Point","coordinates":[37.13074,-0.79166]}},{"type":"Feature","properties":{"OBJECTID":"8010","Facility_N":"Polly Jam Medical Clinic","Type":"Medical Clinic","Owner":"Private Practice - Nurse / Midwife","County":"Murang'a","Sub_County":"Muranga South","Division":"Maragua","Location":"Muthithi","Sub_Locati":"Muthithi","Constituen":"MARAGWA","Nearest_To":"Muthithi","Latitude":"-0.816981","Longitude":"37.0375"},"geometry":{"type":"Point","coordinates":[37.0375,-0.816981]}},{"type":"Feature","properties":{"OBJECTID":"8082","Facility_N":"Provide Medical Clinic","Type":"Medical Clinic","Owner":"Private Practice - Nurse / Midwife","County":"Murang'a","Sub_County":"Kandara","Division":"Kandara","Location":"Ithiru","Sub_Locati":" ","Constituen":"KANDARA","Nearest_To":"Gacharage Market","Latitude":"-0.86104","Longitude":"36.95991"},"geometry":{"type":"Point","coordinates":[36.95991,-0.86104]}},{"type":"Feature","properties":{"OBJECTID":"8136","Facility_N":"Rafiki Medical Clinic (Muranga North)","Type":"Medical Clinic","Owner":"Private Practice - Nurse / Midwife","County":"Murang'a","Sub_County":"Kiharu","Division":"Kiharu","Location":"Gaturi","Sub_Locati":"Geitwa","Constituen":"KIHARU","Nearest_To":"Muranga","Latitude":"-0.634706","Longitude":"37.0923"},"geometry":{"type":"Point","coordinates":[37.0923,-0.634706]}},{"type":"Feature","properties":{"OBJECTID":"8188","Facility_N":"Rau Dispensary","Type":"Dispensary","Owner":"Ministry of Health","County":"Murang'a","Sub_County":"Mathioya","Division":"Mathioya","Location":"Kamacharia","Sub_Locati":" ","Constituen":"MATHIOYA","Nearest_To":"kamacharia shoping centre","Latitude":"-0.6097","Longitude":"37.00572"},"geometry":{"type":"Point","coordinates":[37.00572,-0.6097]}},{"type":"Feature","properties":{"OBJECTID":"8201","Facility_N":"Real I P M Company Clinic","Type":"Medical Clinic","Owner":"Private Enterprise (Institution)","County":"Murang'a","Sub_County":"Gatanga","Division":"Samuru","Location":"Muthuri","Sub_Locati":"Gathambara","Constituen":"GATANGA","Nearest_To":"Thika","Latitude":"-1.02906","Longitude":"37.03688"},"geometry":{"type":"Point","coordinates":[37.03688,-1.02906]}},{"type":"Feature","properties":{"OBJECTID":"8215","Facility_N":"Rehema Medical Centre","Type":"Medical Clinic","Owner":"Private Practice - Nurse / Midwife","County":"Murang'a","Sub_County":"Kiharu","Division":"Kiharu","Location":"Gaturi","Sub_Locati":"Gathukiini","Constituen":"KIHARU","Nearest_To":"Muranga","Latitude":"-0.631256","Longitude":"37.0472"},"geometry":{"type":"Point","coordinates":[37.0472,-0.631256]}},{"type":"Feature","properties":{"OBJECTID":"8286","Facility_N":"Roadside Clinic (Kagunduini)","Type":"Medical Clinic","Owner":"Private Practice - Nurse / Midwife","County":"Murang'a","Sub_County":"Kandara","Division":"Kandara","Location":"Kagunduini","Sub_Locati":"Gitura","Constituen":"KANDARA","Nearest_To":"Kenol","Latitude":"-0.93557","Longitude":"37.12092"},"geometry":{"type":"Point","coordinates":[37.12092,-0.93557]}},{"type":"Feature","properties":{"OBJECTID":"8322","Facility_N":"Rose Medical Clinic","Type":"Medical Clinic","Owner":"Private Practice - Nurse / Midwife","County":"Murang'a","Sub_County":"Kandara","Division":"Kandara","Location":"Kagunduini","Sub_Locati":"Kabati","Constituen":"KANDARA","Nearest_To":"Kabati","Latitude":"-0.95161","Longitude":"37.10632"},"geometry":{"type":"Point","coordinates":[37.10632,-0.95161]}},{"type":"Feature","properties":{"OBJECTID":"8351","Facility_N":"Ruchu Dispensary","Type":"Dispensary","Owner":"Kenya Episcopal Conference-Catholic Secretariat","County":"Murang'a","Sub_County":"Kandara","Division":"Kandara","Location":"Ruchu","Sub_Locati":"Kamurugu","Constituen":"KANDARA","Nearest_To":"Kamurugu","Latitude":"-0.89659","Longitude":"36.98612"},"geometry":{"type":"Point","coordinates":[36.98612,-0.89659]}},{"type":"Feature","properties":{"OBJECTID":"8376","Facility_N":"Ruona Dispensary","Type":"Dispensary","Owner":"Ministry of Health","County":"Murang'a","Sub_County":"Kandara","Division":"Kandara","Location":" ","Sub_Locati":" ","Constituen":"KANDARA","Nearest_To":"Kibendera","Latitude":"-0.84489","Longitude":"36.95959"},"geometry":{"type":"Point","coordinates":[36.95959,-0.84489]}},{"type":"Feature","properties":{"OBJECTID":"8381","Facility_N":"Rural Medical Clinic (Muranga South)","Type":"Medical Clinic","Owner":"Private Practice - Nurse / Midwife","County":"Murang'a","Sub_County":"Kandara","Division":"Kandara","Location":"Kagunduini","Sub_Locati":"Gitura","Constituen":"KANDARA","Nearest_To":"Kagunduini","Latitude":"-0.93657","Longitude":"37.12092"},"geometry":{"type":"Point","coordinates":[37.12092,-0.93657]}},{"type":"Feature","properties":{"OBJECTID":"8397","Facility_N":"Rwathe Dispensary","Type":"Dispensary","Owner":"Christian Health Association of Kenya","County":"Murang'a","Sub_County":"Kandara","Division":"Kandara","Location":"Ruchu","Sub_Locati":"Rwathe","Constituen":"KANDARA","Nearest_To":"Kandara","Latitude":"-0.858073","Longitude":"36.9387"},"geometry":{"type":"Point","coordinates":[36.9387,-0.858073]}},{"type":"Feature","properties":{"OBJECTID":"8398","Facility_N":"Rwathia Dispensary","Type":"Dispensary","Owner":"Ministry of Health","County":"Murang'a","Sub_County":"Muranga West","Division":"Kangema","Location":"Rwathia","Sub_Locati":"Rwathia","Constituen":"KANGEMA","Nearest_To":"Rwathia Market","Latitude":"-0.6596","Longitude":"36.9328"},"geometry":{"type":"Point","coordinates":[36.9328,-0.6596]}},{"type":"Feature","properties":{"OBJECTID":"8402","Facility_N":"Sabasaba Catholic Dispensary","Type":"Dispensary","Owner":"Christian Health Association of Kenya","County":"Murang'a","Sub_County":"Muranga South","Division":"Makuyu","Location":"Kamahuha","Sub_Locati":"Sabasaba","Constituen":"MARAGWA","Nearest_To":"Sabasaba","Latitude":"-0.87165","Longitude":"37.14483"},"geometry":{"type":"Point","coordinates":[37.14483,-0.87165]}},{"type":"Feature","properties":{"OBJECTID":"8403","Facility_N":"Sabasaba Health Centre","Type":"Health Centre","Owner":"Ministry of Health","County":"Murang'a","Sub_County":"Muranga South","Division":"Kigumo","Location":"Kahumbu","Sub_Locati":"Kandani","Constituen":"MARAGWA","Nearest_To":"Sabasaba","Latitude":"-0.87786","Longitude":"37.13685"},"geometry":{"type":"Point","coordinates":[37.13685,-0.87786]}},{"type":"Feature","properties":{"OBJECTID":"8617","Facility_N":"Shalom Medical Clinic (Thika)","Type":"Medical Clinic","Owner":"Private Enterprise (Institution)","County":"Murang'a","Sub_County":"Gatanga","Division":"Gatanga","Location":"Gatanga","Sub_Locati":"Gatanga","Constituen":"GATANGA","Nearest_To":" ","Latitude":"-0.904477","Longitude":"36.9041"},"geometry":{"type":"Point","coordinates":[36.9041,-0.904477]}},{"type":"Feature","properties":{"OBJECTID":"8628","Facility_N":"Shanka Medical","Type":"Medical Clinic","Owner":"Private Practice - Nurse / Midwife","County":"Murang'a","Sub_County":"Muranga South","Division":"Maragua","Location":"Ichagaki","Sub_Locati":"Ichagaki","Constituen":"MARAGWA","Nearest_To":"Ichagaki","Latitude":"-0.82054","Longitude":"37.04255"},"geometry":{"type":"Point","coordinates":[37.04255,-0.82054]}},{"type":"Feature","properties":{"OBJECTID":"8745","Facility_N":"Simbi Roses Clinic","Type":"Medical Clinic","Owner":"Private Enterprise (Institution)","County":"Murang'a","Sub_County":"Gatanga","Division":"Gatanga","Location":"Mugumoini","Sub_Locati":"Kigio","Constituen":"GATANGA","Nearest_To":" ","Latitude":"-0.99493","Longitude":"37.02271"},"geometry":{"type":"Point","coordinates":[37.02271,-0.99493]}},{"type":"Feature","properties":{"OBJECTID":"8838","Facility_N":"Solea Medical Clinic","Type":"Medical Clinic","Owner":"Private Practice - Nurse / Midwife","County":"Murang'a","Sub_County":"Kandara","Division":"Kandara","Location":"Ithiru","Sub_Locati":"Gakui","Constituen":"KANDARA","Nearest_To":"Kandara","Latitude":"-0.89806","Longitude":"37.00264"},"geometry":{"type":"Point","coordinates":[37.00264,-0.89806]}},{"type":"Feature","properties":{"OBJECTID":"8848","Facility_N":"Somo Medical Clinic","Type":"Medical Clinic","Owner":"Private Enterprise (Institution)","County":"Murang'a","Sub_County":"Gatanga","Division":"Gatanga","Location":"Gatanga","Sub_Locati":"Chomo","Constituen":"GATANGA","Nearest_To":" ","Latitude":"-0.936144","Longitude":"36.955"},"geometry":{"type":"Point","coordinates":[36.955,-0.936144]}},{"type":"Feature","properties":{"OBJECTID":"8914","Facility_N":"St Andrew Umoja Medical Clinic","Type":"Medical Clinic","Owner":"Private Practice - Nurse / Midwife","County":"Murang'a","Sub_County":"Kigumo","Division":"Kigumo","Location":"Kigumo","Sub_Locati":"Kirere","Constituen":"KIGUMO","Nearest_To":"Iriguini","Latitude":"-0.76977","Longitude":"36.92981"},"geometry":{"type":"Point","coordinates":[36.92981,-0.76977]}},{"type":"Feature","properties":{"OBJECTID":"8924","Facility_N":"St Anne (ACK) Dispensary","Type":"Dispensary","Owner":"Christian Health Association of Kenya","County":"Murang'a","Sub_County":"Kiharu","Division":"Kiharu","Location":"Gathukiini","Sub_Locati":"Gathukiini","Constituen":"KIHARU","Nearest_To":"Muranga","Latitude":"-0.71746","Longitude":"37.15611"},"geometry":{"type":"Point","coordinates":[37.15611,-0.71746]}},{"type":"Feature","properties":{"OBJECTID":"9011","Facility_N":"St John Afya Bora Medical Clinic","Type":"Medical Clinic","Owner":"Private Practice - Nurse / Midwife","County":"Murang'a","Sub_County":"Kiharu","Division":"Kiharu","Location":"Mbiri","Sub_Locati":"Muchungucha","Constituen":"KIHARU","Nearest_To":"Kiangochi","Latitude":"-0.76103","Longitude":"37.13195"},"geometry":{"type":"Point","coordinates":[37.13195,-0.76103]}},{"type":"Feature","properties":{"OBJECTID":"9040","Facility_N":"St Joseph Clinic (Muranga)","Type":"Medical Clinic","Owner":"Private Practice - Nurse / Midwife","County":"Murang'a","Sub_County":"Kiharu","Division":"Kiharu","Location":"Township","Sub_Locati":"Karuri","Constituen":"KIHARU","Nearest_To":"Muranga","Latitude":"-0.713561","Longitude":"37.1602"},"geometry":{"type":"Point","coordinates":[37.1602,-0.713561]}},{"type":"Feature","properties":{"OBJECTID":"9046","Facility_N":"St Joseph Medical Clinic (Thika)","Type":"Medical Clinic","Owner":"Private Enterprise (Institution)","County":"Murang'a","Sub_County":"Gatanga","Division":"Gatanga","Location":"Gatanga","Sub_Locati":"Gatanga","Constituen":"GATANGA","Nearest_To":" ","Latitude":"-0.904477","Longitude":"36.9041"},"geometry":{"type":"Point","coordinates":[36.9041,-0.904477]}},{"type":"Feature","properties":{"OBJECTID":"9070","Facility_N":"St Jude Medical Clinic (Maragua)","Type":"Medical Clinic","Owner":"Private Practice - Nurse / Midwife","County":"Murang'a","Sub_County":"Muranga South","Division":"Maragua","Location":"Nginda","Sub_Locati":"Gakoigo","Constituen":"MARAGWA","Nearest_To":"Maragua","Latitude":"-0.79295","Longitude":"37.1303"},"geometry":{"type":"Point","coordinates":[37.1303,-0.79295]}},{"type":"Feature","properties":{"OBJECTID":"9123","Facility_N":"St Marys Clinic (Kangema)","Type":"Medical Clinic","Owner":"Private Practice - Nurse / Midwife","County":"Murang'a","Sub_County":"Muranga West","Division":"Kangema","Location":"Gacharaigu","Sub_Locati":"Kiamara","Constituen":"KANGEMA","Nearest_To":"Kangema","Latitude":"-0.686593","Longitude":"36.961"},"geometry":{"type":"Point","coordinates":[36.961,-0.686593]}},{"type":"Feature","properties":{"OBJECTID":"9139","Facility_N":"St Mary's Medical Clinic (Muranga South)","Type":"Medical Clinic","Owner":"Private Practice - Nurse / Midwife","County":"Murang'a","Sub_County":"Kigumo","Division":"Maragua","Location":"Muthithi","Sub_Locati":"Muthithi","Constituen":"KIGUMO","Nearest_To":"Muthithi","Latitude":"-0.816981","Longitude":"37.0375"},"geometry":{"type":"Point","coordinates":[37.0375,-0.816981]}},{"type":"Feature","properties":{"OBJECTID":"9182","Facility_N":"St Paul Kiamuri (ACK) Dispensary","Type":"Dispensary","Owner":"Christian Health Association of Kenya","County":"Murang'a","Sub_County":"Kiharu","Division":"kiharu","Location":"gaturi","Sub_Locati":"gakuyu","Constituen":"KIHARU","Nearest_To":"one kilometre from kaweru market","Latitude":"-0.66212","Longitude":"37.10299"},"geometry":{"type":"Point","coordinates":[37.10299,-0.66212]}},{"type":"Feature","properties":{"OBJECTID":"9184","Facility_N":"St Pauline Medical Clinic","Type":"Maternity Home","Owner":"Private Practice - Nurse / Midwife","County":"Murang'a","Sub_County":"Muranga South","Division":"Makuyu","Location":"Makuyu","Sub_Locati":"Wempa","Constituen":"MARAGWA","Nearest_To":"Kabati","Latitude":"-0.96674","Longitude":"37.11694"},"geometry":{"type":"Point","coordinates":[37.11694,-0.96674]}},{"type":"Feature","properties":{"OBJECTID":"9199","Facility_N":"St Peters Gaitheri (ACK) Dispensary","Type":"Dispensary","Owner":"Christian Health Association of Kenya","County":"Murang'a","Sub_County":"Mathioya","Division":"Mathioya","Location":"Gaitheri","Sub_Locati":"Gathukiini","Constituen":"MATHIOYA","Nearest_To":"Kiriaini","Latitude":"-0.62849","Longitude":"37.04126"},"geometry":{"type":"Point","coordinates":[37.04126,-0.62849]}},{"type":"Feature","properties":{"OBJECTID":"9223","Facility_N":"St Teresia Medical Clinic","Type":"Medical Clinic","Owner":"Private Enterprise (Institution)","County":"Murang'a","Sub_County":"Gatanga","Division":"Gatanga","Location":"Gatanga","Sub_Locati":"Chomo","Constituen":"GATANGA","Nearest_To":" ","Latitude":"-0.904477","Longitude":"36.9041"},"geometry":{"type":"Point","coordinates":[36.9041,-0.904477]}},{"type":"Feature","properties":{"OBJECTID":"9252","Facility_N":"ST. Mark Ndutumi (ACK) Dispensary","Type":"Dispensary","Owner":"Christian Health Association of Kenya","County":"Murang'a","Sub_County":"Kahuro","Division":"Mugoiri","Location":"Kiria","Sub_Locati":"Ndutumi","Constituen":"KIHARU","Nearest_To":"Ndutumi Market","Latitude":"-0.7183","Longitude":"36.99816"},"geometry":{"type":"Point","coordinates":[36.99816,-0.7183]}},