{"type":"FeatureCollection","features":[{"type":"Feature","properties":{"OBJECTID":"197","Facility_N":"Akemo Nursing Home","Type":"Maternity Home","Owner":"Private Enterprise (Institution)","County":"Narok","Sub_County":"Trans Mara West - Dikirr","Division":"Kilgoris","Location":"Poroko","Sub_Locati":"Poroko","Constituen":"KILGORIS","Nearest_To":"Nyangusu","Latitude":"-0.93404","Longitude":"34.84508"},"geometry":{"type":"Point","coordinates":[34.84508,-0.93404]}},{"type":"Feature","properties":{"OBJECTID":"333","Facility_N":"Angata Health Centre","Type":"Health Centre","Owner":"Ministry of Health","County":"Narok","Sub_County":"Trans Mara West - Dikirr","Division":"Angata","Location":"Angata","Sub_Locati":"Angata Barikoi","Constituen":"KILGORIS","Nearest_To":"Angata Market","Latitude":"-1.37645","Longitude":"34.77567"},"geometry":{"type":"Point","coordinates":[34.77567,-1.37645]}},{"type":"Feature","properties":{"OBJECTID":"1001","Facility_N":"Chemamit Dispensary","Type":"Dispensary","Owner":"Ministry of Health","County":"Narok","Sub_County":"Trans Mara East","Division":"Emurua Dikir","Location":"Chemamit","Sub_Locati":"Chemamit","Constituen":"KILGORIS","Nearest_To":"Chemamit Market","Latitude":"-0.96569","Longitude":"35.10445"},"geometry":{"type":"Point","coordinates":[35.10445,-0.96569]}},{"type":"Feature","properties":{"OBJECTID":"1037","Facility_N":"Chemwokter Dispensary","Type":"Dispensary","Owner":"Ministry of Health","County":"Narok","Sub_County":"Narok South","Division":"Mulot","Location":"Mulot","Sub_Locati":"Kuto","Constituen":"NAROK SOUTH","Nearest_To":"Mulot","Latitude":"-0.942699","Longitude":"35.504617"},"geometry":{"type":"Point","coordinates":[35.504617,-0.942699]}},{"type":"Feature","properties":{"OBJECTID":"1214","Facility_N":"Cmf Aitong Health Centre","Type":"Health Centre","Owner":"Other Faith Based","County":"Narok","Sub_County":"Narok South","Division":"Mara","Location":"Aitong","Sub_Locati":"Aitong","Constituen":"NAROK SOUTH","Nearest_To":"Aitong Market","Latitude":"-1.13315","Longitude":"35.25075"},"geometry":{"type":"Point","coordinates":[35.25075,-1.13315]}},{"type":"Feature","properties":{"OBJECTID":"1639","Facility_N":"Ebenezer Reproductive health clinic","Type":"Medical Clinic","Owner":"Private Practice - Nurse / Midwife","County":"Narok","Sub_County":"Narok North","Division":"Central","Location":"Township","Sub_Locati":"Township","Constituen":"NAROK NORTH","Nearest_To":"Township","Latitude":"-1.2166","Longitude":"35.93599"},"geometry":{"type":"Point","coordinates":[35.93599,-1.2166]}},{"type":"Feature","properties":{"OBJECTID":"1640","Facility_N":"Ebenezer Reproductive health clinic","Type":"Medical Clinic","Owner":"Private Enterprise (Institution)","County":"Narok","Sub_County":"Narok South","Division":" ","Location":" ","Sub_Locati":" ","Constituen":"NAROK SOUTH","Nearest_To":" ","Latitude":"-1.216","Longitude":"35.93599"},"geometry":{"type":"Point","coordinates":[35.93599,-1.216]}},{"type":"Feature","properties":{"OBJECTID":"1684","Facility_N":"Elangata Enterit Dispensary","Type":"Dispensary","Owner":"Ministry of Health","County":"Narok","Sub_County":"Narok South","Division":"Osupuko","Location":"Elangata Enterit","Sub_Locati":"Elangata Enterit","Constituen":"NAROK SOUTH","Nearest_To":"Naroosura Market","Latitude":"-1.47849","Longitude":"35.9195"},"geometry":{"type":"Point","coordinates":[35.9195,-1.47849]}},{"type":"Feature","properties":{"OBJECTID":"1745","Facility_N":"Emarti Health Centre","Type":"Health Centre","Owner":"Ministry of Health","County":"Narok","Sub_County":"Trans Mara West - Dikirr","Division":"Kirindon","Location":"Emarti","Sub_Locati":"Emarti","Constituen":"KILGORIS","Nearest_To":"Emarti Market","Latitude":"-1.04563","Longitude":"35.22125"},"geometry":{"type":"Point","coordinates":[35.22125,-1.04563]}},{"type":"Feature","properties":{"OBJECTID":"1790","Facility_N":"Emurua Dikirr Dispensary","Type":"Dispensary","Owner":"Ministry of Health","County":"Narok","Sub_County":"Trans Mara East","Division":"Emurua Dikirr","Location":"Emurua Dikirr","Sub_Locati":"Chemamit","Constituen":"KILGORIS","Nearest_To":"Emurua Dikir Market","Latitude":"-1.01549","Longitude":"35.10275"},"geometry":{"type":"Point","coordinates":[35.10275,-1.01549]}},{"type":"Feature","properties":{"OBJECTID":"1796","Facility_N":"Enabelbel Health Centre","Type":"Health Centre","Owner":"Ministry of Health","County":"Narok","Sub_County":"Narok North","Division":"Olokurto","Location":"Kisiriri","Sub_Locati":"Enabelbel","Constituen":"NAROK NORTH","Nearest_To":"Narok","Latitude":"-0.79673","Longitude":"35.89382"},"geometry":{"type":"Point","coordinates":[35.89382,-0.79673]}},{"type":"Feature","properties":{"OBJECTID":"1797","Facility_N":"Enaibor Ajijik Dispensary","Type":"Dispensary","Owner":"Ministry of Health","County":"Narok","Sub_County":"Narok North","Division":"Mau","Location":"Upper Melili","Sub_Locati":"Enaibor Ajijik","Constituen":"NAROK NORTH","Nearest_To":"Naivasha","Latitude":"-0.77156","Longitude":"36.16754"},"geometry":{"type":"Point","coordinates":[36.16754,-0.77156]}},{"type":"Feature","properties":{"OBJECTID":"1799","Facility_N":"Enaramatishoreki Health Centre","Type":"Health Centre","Owner":"Ministry of Health","County":"Narok","Sub_County":"Narok North","Division":"Central","Location":"Oletukat","Sub_Locati":"Enkorika","Constituen":"NAROK NORTH","Nearest_To":" ","Latitude":"-1.35246","Longitude":"35.96964"},"geometry":{"type":"Point","coordinates":[35.96964,-1.35246]}},{"type":"Feature","properties":{"OBJECTID":"1807","Facility_N":"Endoinyo Erinka Dispensary","Type":"Dispensary","Owner":"Ministry of Health","County":"Narok","Sub_County":"Narok South","Division":"Mara","Location":"Aitong","Sub_Locati":"Endoinyo Erinka","Constituen":"NAROK SOUTH","Nearest_To":"Aitong Market","Latitude":"-1.2306","Longitude":"35.3947"},"geometry":{"type":"Point","coordinates":[35.3947,-1.2306]}},{"type":"Feature","properties":{"OBJECTID":"1808","Facility_N":"Endoinyo Narasha","Type":"Dispensary","Owner":"Ministry of Health","County":"Narok","Sub_County":"Narok South","Division":"Mara","Location":"Olkinyei","Sub_Locati":"Endoinyo Narasha","Constituen":"NAROK SOUTH","Nearest_To":"Endoinyo Narasha","Latitude":"-1.25505","Longitude":"35.4949"},"geometry":{"type":"Point","coordinates":[35.4949,-1.25505]}},{"type":"Feature","properties":{"OBJECTID":"1810","Facility_N":"Enesampulai Dispensary","Type":"Dispensary","Owner":"Ministry of Health","County":"Narok","Sub_County":"Narok North","Division":"mau","Location":"Upper Melili","Sub_Locati":"Enesambulai","Constituen":"NAROK NORTH","Nearest_To":"Narok","Latitude":"-0.81482","Longitude":"36.11761"},"geometry":{"type":"Point","coordinates":[36.11761,-0.81482]}},{"type":"Feature","properties":{"OBJECTID":"1814","Facility_N":"Engos Health Cente","Type":"Health Centre","Owner":"Christian Health Association of Kenya","County":"Narok","Sub_County":"Trans Mara East","Division":"Lolgorian","Location":"Oloirien","Sub_Locati":"Kawai","Constituen":"KILGORIS","Nearest_To":"Lolgorian Market","Latitude":"-1.27168","Longitude":"34.91971"},"geometry":{"type":"Point","coordinates":[34.91971,-1.27168]}},{"type":"Feature","properties":{"OBJECTID":"1816","Facility_N":"Enkipai Dispensary","Type":"Dispensary","Owner":"Ministry of Health","County":"Narok","Sub_County":"Trans Mara West - Dikirr","Division":"Kirindon","Location":"Kirindon","Sub_Locati":" ","Constituen":"KILGORIS","Nearest_To":"Murkan Junction","Latitude":"-1.09564","Longitude":"34.77568"},"geometry":{"type":"Point","coordinates":[34.77568,-1.09564]}},{"type":"Feature","properties":{"OBJECTID":"1820","Facility_N":"Enkitoria Dispensary","Type":"Dispensary","Owner":"Other Faith Based","County":"Narok","Sub_County":"Narok South","Division":"Mara","Location":"Enkitoria","Sub_Locati":"Enkitoria","Constituen":"NAROK SOUTH","Nearest_To":"Ololulunga","Latitude":"-1.67601","Longitude":"35.6967"},"geometry":{"type":"Point","coordinates":[35.6967,-1.67601]}},{"type":"Feature","properties":{"OBJECTID":"1823","Facility_N":"Enoombarbali Dispensary","Type":"Dispensary","Owner":"Ministry of Health","County":"Narok","Sub_County":"Narok North","Division":"Mau","Location":"Sosian","Sub_Locati":"Sosian","Constituen":"NAROK NORTH","Nearest_To":"Mosiro Market","Latitude":"-1.3914","Longitude":"36.11645"},"geometry":{"type":"Point","coordinates":[36.11645,-1.3914]}},{"type":"Feature","properties":{"OBJECTID":"1824","Facility_N":"Enoosaen Health Centre","Type":"Health Centre","Owner":"Ministry of Health","County":"Narok","Sub_County":"Trans Mara West - Dikirr","Division":"Keiyan","Location":"Enoosaen","Sub_Locati":"Enoosaen","Constituen":"KILGORIS","Nearest_To":"Enoosaen Market","Latitude":"-1.0223","Longitude":"34.73355"},"geometry":{"type":"Point","coordinates":[34.73355,-1.0223]}},{"type":"Feature","properties":{"OBJECTID":"1825","Facility_N":"Enoosaen Zh Clinic","Type":"Medical Clinic","Owner":"Private Practice - Nurse / Midwife","County":"Narok","Sub_County":"Trans Mara West - Dikirr","Division":"Keiyan","Location":"Enoosaen","Sub_Locati":"Enoosaen","Constituen":"KILGORIS","Nearest_To":"Enoosaen Market","Latitude":"-1.02393","Longitude":"34.72988"},"geometry":{"type":"Point","coordinates":[34.72988,-1.02393]}},{"type":"Feature","properties":{"OBJECTID":"1826","Facility_N":"Enooseyia Dispensary","Type":"Dispensary","Owner":"Ministry of Health","County":"Narok","Sub_County":"Narok North","Division":"mau","Location":"Ildamat","Sub_Locati":"Enooseyia","Constituen":"NAROK NORTH","Nearest_To":"Kojonga","Latitude":"-0.9612","Longitude":"36.13048"},"geometry":{"type":"Point","coordinates":[36.13048,-0.9612]}},{"type":"Feature","properties":{"OBJECTID":"1827","Facility_N":"Enoosupukia Dispensary","Type":"Dispensary","Owner":"Kenya Episcopal Conference-Catholic Secretariat","County":"Narok","Sub_County":"Narok North","Division":"Mau","Location":"Enoosupukia","Sub_Locati":"Enoosupukia","Constituen":"NAROK NORTH","Nearest_To":"Narok","Latitude":"-0.91939","Longitude":"36.16462"},"geometry":{"type":"Point","coordinates":[36.16462,-0.91939]}},{"type":"Feature","properties":{"OBJECTID":"1832","Facility_N":"Entargeti Dispensary","Type":"Dispensary","Owner":"Ministry of Health","County":"Narok","Sub_County":"Trans Mara West - Dikirr","Division":"Kilgoris","Location":"Olalui","Sub_Locati":"Olalui","Constituen":"KILGORIS","Nearest_To":"Kilgoris","Latitude":"-1.0733","Longitude":"34.8532"},"geometry":{"type":"Point","coordinates":[34.8532,-1.0733]}},{"type":"Feature","properties":{"OBJECTID":"1833","Facility_N":"Entasekera Health Centre","Type":"Health Centre","Owner":"Other Faith Based","County":"Narok","Sub_County":"Narok South","Division":"Loita","Location":"Entasekera","Sub_Locati":"Entasekera","Constituen":"NAROK SOUTH","Nearest_To":"Narok","Latitude":"-1.85142","Longitude":"35.85272"},"geometry":{"type":"Point","coordinates":[35.85272,-1.85142]}},{"type":"Feature","properties":{"OBJECTID":"1835","Facility_N":"Entiyani Dispensary","Type":"Dispensary","Owner":"Ministry of Health","County":"Narok","Sub_County":"Narok North","Division":"Olokurto","Location":"Entiyani","Sub_Locati":"Entiyani","Constituen":"NAROK NORTH","Nearest_To":"Nakuru","Latitude":"-0.551166","Longitude":"35.904154"},"geometry":{"type":"Point","coordinates":[35.904154,-0.551166]}},{"type":"Feature","properties":{"OBJECTID":"1836","Facility_N":"Entontol Dispensary","Type":"Dispensary","Owner":"Ministry of Health","County":"Narok","Sub_County":"Narok North","Division":"Mau","Location":"Upper Melili","Sub_Locati":"Olkinyei","Constituen":"NAROK NORTH","Nearest_To":"Narok","Latitude":"-0.86997","Longitude":"36.03315"},"geometry":{"type":"Point","coordinates":[36.03315,-0.86997]}},{"type":"Feature","properties":{"OBJECTID":"1851","Facility_N":"Ereto Health Centre","Type":"Health Centre","Owner":"Non-Governmental Organizations","County":"Narok","Sub_County":"Narok North","Division":"Mau","Location":"Suswa","Sub_Locati":"Oloikarere","Constituen":"NAROK NORTH","Nearest_To":"Narok","Latitude":"-1.12233","Longitude":"36.20453"},"geometry":{"type":"Point","coordinates":[36.20453,-1.12233]}},{"type":"Feature","properties":{"OBJECTID":"1888","Facility_N":"Ewang'ane Suswa","Type":"Dispensary","Owner":"Community","County":"Narok","Sub_County":"Narok North","Division":"Mau","Location":"Suswa","Sub_Locati":"suswa","Constituen":"NAROK NORTH","Nearest_To":"Suswa centre","Latitude":"-1.07577","Longitude":"36.31022"},"geometry":{"type":"Point","coordinates":[36.31022,-1.07577]}},{"type":"Feature","properties":{"OBJECTID":"1890","Facility_N":"Ewaso Ngiro Dispensary","Type":"Dispensary","Owner":"Ministry of Health","County":"Narok","Sub_County":"Narok North","Division":"Central","Location":"Nkareta","Sub_Locati":"Oleleshwa","Constituen":"NAROK NORTH","Nearest_To":"Narok","Latitude":"-1.10613","Longitude":"35.8072"},"geometry":{"type":"Point","coordinates":[35.8072,-1.10613]}},{"type":"Feature","properties":{"OBJECTID":"1891","Facility_N":"Ewaso Ngiro Health Centre","Type":"Health Centre","Owner":"Other Faith Based","County":"Narok","Sub_County":"Narok South","Division":"Osupuko","Location":"Olenkuluo","Sub_Locati":"Oldoinyo Orasha","Constituen":"NAROK SOUTH","Nearest_To":"Narok","Latitude":"-1.15086","Longitude":"35.76178"},"geometry":{"type":"Point","coordinates":[35.76178,-1.15086]}},{"type":"Feature","properties":{"OBJECTID":"1988","Facility_N":"Fountain Medical Centre","Type":"Medical Clinic","Owner":"Christian Health Association of Kenya","County":"Narok","Sub_County":"Narok North","Division":"Central","Location":"Upper Melili","Sub_Locati":"Narok Town","Constituen":"NAROK NORTH","Nearest_To":"Narok","Latitude":"-1.04089","Longitude":"35.906"},"geometry":{"type":"Point","coordinates":[35.906,-1.04089]}},{"type":"Feature","properties":{"OBJECTID":"2318","Facility_N":"GK Prisons Dispensary","Type":"Dispensary","Owner":"Ministry of Health","County":"Narok","Sub_County":"Narok North","Division":"Central","Location":"Lower Melili","Sub_Locati":"Olopito","Constituen":"NAROK NORTH","Nearest_To":"Narok","Latitude":"-1.07772","Longitude":"35.8397"},"geometry":{"type":"Point","coordinates":[35.8397,-1.07772]}},{"type":"Feature","properties":{"OBJECTID":"2710","Facility_N":"Iladoru Dispensary","Type":"Dispensary","Owner":"Ministry of Health","County":"Narok","Sub_County":"Narok South","Division":"Ololulunga","Location":"Olkiriaine","Sub_Locati":"Iladoru","Constituen":"NAROK SOUTH","Nearest_To":"Ololulunga","Latitude":"-1.16028","Longitude":"35.77482"},"geometry":{"type":"Point","coordinates":[35.77482,-1.16028]}},{"type":"Feature","properties":{"OBJECTID":"2711","Facility_N":"Ilaiser Dispensary","Type":"Dispensary","Owner":"Ministry of Health","County":"Narok","Sub_County":"Narok North","Division":"Mau","Location":"Upper Melili","Sub_Locati":"Ilaiser","Constituen":"NAROK NORTH","Nearest_To":"Narok","Latitude":"-0.88928","Longitude":"36.10432"},"geometry":{"type":"Point","coordinates":[36.10432,-0.88928]}},{"type":"Feature","properties":{"OBJECTID":"2721","Facility_N":"Ilkerin Dispensary (Narok South)","Type":"Dispensary","Owner":"Ministry of Health","County":"Narok","Sub_County":"Narok South","Division":"Loita","Location":"Ilkerin","Sub_Locati":"Ilmarai","Constituen":"NAROK SOUTH","Nearest_To":"Ilkerin","Latitude":"-1.235176","Longitude":"35.669857"},"geometry":{"type":"Point","coordinates":[35.669857,-1.235176]}},{"type":"Feature","properties":{"OBJECTID":"2722","Facility_N":"Ilkerin Dispensary (Trans Mara)","Type":"Dispensary","Owner":"Ministry of Health","County":"Narok","Sub_County":"Trans Mara East","Division":"Emurua Dikirr","Location":"Murgan","Sub_Locati":"Ilkerin","Constituen":"KILGORIS","Nearest_To":"Kurangurik Market","Latitude":"-1.06626","Longitude":"35.11089"},"geometry":{"type":"Point","coordinates":[35.11089,-1.06626]}},{"type":"Feature","properties":{"OBJECTID":"2725","Facility_N":"Ilkiremisho Dispensary","Type":"Dispensary","Owner":"Community Development Fund","County":"Narok","Sub_County":"Narok North","Division":"Mau","Location":"Ntulele","Sub_Locati":"Ntulele","Constituen":"NAROK NORTH","Nearest_To":"Ntulele markert","Latitude":"-1.02762","Longitude":"36.07735"},"geometry":{"type":"Point","coordinates":[36.07735,-1.02762]}},{"type":"Feature","properties":{"OBJECTID":"2730","Facility_N":"Illikeek Oodupa Clinic","Type":"Medical Clinic","Owner":"Private Practice - Nurse / Midwife","County":"Narok","Sub_County":"Trans Mara West - Dikirr","Division":"Kilgoris","Location":"Olalui","Sub_Locati":"Olalui","Constituen":"KILGORIS","Nearest_To":"Kilgoris","Latitude":"-1.00974","Longitude":"34.87885"},"geometry":{"type":"Point","coordinates":[34.87885,-1.00974]}},{"type":"Feature","properties":{"OBJECTID":"2788","Facility_N":"Inkoirienito Dispensary","Type":"Dispensary","Owner":"Ministry of Health","County":"Narok","Sub_County":"Narok North","Division":"Mau","Location":"Suswa","Sub_Locati":"Nkoirienito","Constituen":"NAROK NORTH","Nearest_To":"Narok","Latitude":"-0.94207","Longitude":"36.24375"},"geometry":{"type":"Point","coordinates":[36.24375,-0.94207]}},{"type":"Feature","properties":{"OBJECTID":"3104","Facility_N":"Kabolecho Dispensary","Type":"Dispensary","Owner":"Ministry of Health","County":"Narok","Sub_County":"Trans Mara East","Division":"Emurua Dikirr","Location":"Kapsasian","Sub_Locati":"Kabolecho","Constituen":"KILGORIS","Nearest_To":"Kabolecho Market","Latitude":"-0.99162","Longitude":"35.13925"},"geometry":{"type":"Point","coordinates":[35.13925,-0.99162]}},{"type":"Feature","properties":{"OBJECTID":"3337","Facility_N":"Kamaget Dispensary (Trans Mara)","Type":"Dispensary","Owner":"Ministry of Health","County":"Narok","Sub_County":"Trans Mara East","Division":"Emurua Dikirr","Location":"Murgan","Sub_Locati":"Ilkerin","Constituen":"KILGORIS","Nearest_To":"Kamaget Market","Latitude":"-1.07987","Longitude":"35.07997"},"geometry":{"type":"Point","coordinates":[35.07997,-1.07987]}},{"type":"Feature","properties":{"OBJECTID":"3622","Facility_N":"Kapsasian Dispensary","Type":"Dispensary","Owner":"Ministry of Health","County":"Narok","Sub_County":"Trans Mara East","Division":"Emurua Dikirr","Location":"Kapsasian","Sub_Locati":"Kapsasian","Constituen":"KILGORIS","Nearest_To":"Kabolecho Market","Latitude":"-0.96376","Longitude":"35.13376"},"geometry":{"type":"Point","coordinates":[35.13376,-0.96376]}},{"type":"Feature","properties":{"OBJECTID":"3688","Facility_N":"Kapune Dispensary","Type":"Dispensary","Owner":"Ministry of Health","County":"Narok","Sub_County":"Trans Mara West - Dikirr","Division":"Pirrar","Location":"Kapune","Sub_Locati":"Kapune","Constituen":"KILGORIS","Nearest_To":"Kilgoris","Latitude":"-0.92808","Longitude":"34.98525"},"geometry":{"type":"Point","coordinates":[34.98525,-0.92808]}},{"type":"Feature","properties":{"OBJECTID":"3691","Facility_N":"Kapweria Dispensary","Type":"Dispensary","Owner":"Ministry of Health","County":"Narok","Sub_County":"Trans Mara East","Division":"Ololmasani","Location":"Ololmasani","Sub_Locati":"Abossi","Constituen":"KILGORIS","Nearest_To":"Kilgoris","Latitude":"-0.93973","Longitude":"35.09665"},"geometry":{"type":"Point","coordinates":[35.09665,-0.93973]}},{"type":"Feature","properties":{"OBJECTID":"3726","Facility_N":"Karda Dispensary","Type":"Dispensary","Owner":"Other Faith Based","County":"Narok","Sub_County":"Trans Mara West - Dikirr","Division":"Keiyan","Location":"Sikawa","Sub_Locati":"Sikawa","Constituen":"KILGORIS","Nearest_To":"Kilgoris","Latitude":"-1.02253","Longitude":"34.62115"},"geometry":{"type":"Point","coordinates":[34.62115,-1.02253]}},{"type":"Feature","properties":{"OBJECTID":"4038","Facility_N":"Keringani Dispensary","Type":"Dispensary","Owner":"Ministry of Health","County":"Narok","Sub_County":"Trans Mara West - Dikirr","Division":"Lolgorian","Location":"Isokon","Sub_Locati":"Keringani","Constituen":"KILGORIS","Nearest_To":"Lolgorian","Latitude":"-1.35624","Longitude":"34.8473"},"geometry":{"type":"Point","coordinates":[34.8473,-1.35624]}},{"type":"Feature","properties":{"OBJECTID":"4070","Facility_N":"Keyian SDA Dispensary","Type":"Dispensary","Owner":"Other Faith Based","County":"Narok","Sub_County":"Trans Mara West - Dikirr","Division":"Keyian","Location":"Oloontare","Sub_Locati":"Ilpashire","Constituen":"KILGORIS","Nearest_To":"Enoosaen","Latitude":"-0.99476","Longitude":"34.68664"},"geometry":{"type":"Point","coordinates":[34.68664,-0.99476]}},{"type":"Feature","properties":{"OBJECTID":"4254","Facility_N":"Kichwa Tembo Dispensary","Type":"Dispensary","Owner":"Private Enterprise (Institution)","County":"Narok","Sub_County":"Trans Mara West - Dikirr","Division":"Kirindon","Location":"Kimintet","Sub_Locati":"Oloololo","Constituen":"KILGORIS","Nearest_To":"Lolgorian","Latitude":"-1.24963","Longitude":"35.01074"},"geometry":{"type":"Point","coordinates":[35.01074,-1.24963]}},{"type":"Feature","properties":{"OBJECTID":"4337","Facility_N":"Kilgoris (Cog) Dispensary","Type":"Dispensary","Owner":"Christian Health Association of Kenya","County":"Narok","Sub_County":"Trans Mara West - Dikirr","Division":"Kilgoris","Location":"Ololchani","Sub_Locati":"Ololchani","Constituen":"KILGORIS","Nearest_To":"Kilgoris","Latitude":"-1.00805","Longitude":"34.87835"},"geometry":{"type":"Point","coordinates":[34.87835,-1.00805]}},{"type":"Feature","properties":{"OBJECTID":"4338","Facility_N":"Kilgoris Medical Centre","Type":"Medical Clinic","Owner":"Private Enterprise (Institution)","County":"Narok","Sub_County":"Trans Mara West - Dikirr","Division":"Pirrar","Location":"Shartuka","Sub_Locati":"Shartuka","Constituen":"KILGORIS","Nearest_To":"Shartuka Market","Latitude":"-0.97105","Longitude":"34.9454"},"geometry":{"type":"Point","coordinates":[34.9454,-0.97105]}},{"type":"Feature","properties":{"OBJECTID":"4389","Facility_N":"Kimintet Dispensary","Type":"Dispensary","Owner":"Ministry of Health","County":"Narok","Sub_County":"Trans Mara West - Dikirr","Division":"Kirindon","Location":"Kimintet","Sub_Locati":"Kimintet","Constituen":"KILGORIS","Nearest_To":"Kimintet Market","Latitude":"-1.12275","Longitude":"35.08693"},"geometry":{"type":"Point","coordinates":[35.08693,-1.12275]}},{"type":"Feature","properties":{"OBJECTID":"4566","Facility_N":"Kiribwet Dispensary","Type":"Dispensary","Owner":"Ministry of Health","County":"Narok","Sub_County":"Trans Mara East","Division":"Emurua Dikirr","Location":"Kapsasian","Sub_Locati":"Kiribwet","Constituen":"KILGORIS","Nearest_To":"Kiribwet Market","Latitude":"-1.02932","Longitude":"35.1841"},"geometry":{"type":"Point","coordinates":[35.1841,-1.02932]}},{"type":"Feature","properties":{"OBJECTID":"4625","Facility_N":"Kishon","Type":"Health Centre","Owner":"Non-Governmental Organizations","County":"Narok","Sub_County":"Narok South","Division":"Ololulunga","Location":"Melelo","Sub_Locati":"Melelo","Constituen":"NAROK SOUTH","Nearest_To":"Ololulunga","Latitude":"-1.46059","Longitude":"35.38831"},"geometry":{"type":"Point","coordinates":[35.38831,-1.46059]}},{"type":"Feature","properties":{"OBJECTID":"4793","Facility_N":"Kojonga Dispensary","Type":"Dispensary","Owner":"Ministry of Health","County":"Narok","Sub_County":"Narok North","Division":"Mau","Location":"Ntulele","Sub_Locati":"Kojonga","Constituen":"NAROK NORTH","Nearest_To":"Narok","Latitude":"-0.96615","Longitude":"36.13057"},"geometry":{"type":"Point","coordinates":[36.13057,-0.96615]}},{"type":"Feature","properties":{"OBJECTID":"4829","Facility_N":"Kondamet Dispensary","Type":"Dispensary","Owner":"Ministry of Health","County":"Narok","Sub_County":"Trans Mara West - Dikirr","Division":"Angata","Location":"Oldonyorok","Sub_Locati":"Kondamet","Constituen":"KILGORIS","Nearest_To":"Kilgoris","Latitude":"-1.37142","Longitude":"34.81707"},"geometry":{"type":"Point","coordinates":[34.81707,-1.37142]}},{"type":"Feature","properties":{"OBJECTID":"4898","Facility_N":"Kurangurik Dispensary","Type":"Dispensary","Owner":"Ministry of Health","County":"Narok","Sub_County":"Trans Mara East","Division":"Emurua Dikirr","Location":"Murgan","Sub_Locati":"Mogondo","Constituen":"KILGORIS","Nearest_To":"Kurangurik Market","Latitude":"-1.03376","Longitude":"35.07789"},"geometry":{"type":"Point","coordinates":[35.07789,-1.03376]}},{"type":"Feature","properties":{"OBJECTID":"4899","Facility_N":"Kuresiet Dispensary","Type":"Dispensary","Owner":"Ministry of Health","County":"Narok","Sub_County":"Trans Mara East","Division":"Ololmasani","Location":"Njipship","Sub_Locati":"Njipship","Constituen":"KILGORIS","Nearest_To":"Kilgoris","Latitude":"-1.44009","Longitude":"35.3503"},"geometry":{"type":"Point","coordinates":[35.3503,-1.44009]}},{"type":"Feature","properties":{"OBJECTID":"4975","Facility_N":"KYC Transmara","Type":"VCT Centre (Stand-Alone)","Owner":"Humanitarian Agencies","County":"Narok","Sub_County":"Trans Mara West - Dikirr","Division":" ","Location":" ","Sub_Locati":" ","Constituen":"KILGORIS","Nearest_To":" ","Latitude":"-1.00472","Longitude":"34.87947"},"geometry":{"type":"Point","coordinates":[34.87947,-1.00472]}},{"type":"Feature","properties":{"OBJECTID":"5079","Facility_N":"Lenana Hills Hospital","Type":"Other Hospital","Owner":"Private Practice - General Practitioner","County":"Narok","Sub_County":"Narok North","Division":"Central","Location":"Lower Melili","Sub_Locati":"Town","Constituen":"NAROK NORTH","Nearest_To":"Narok","Latitude":"-1.04113","Longitude":"35.52023"},"geometry":{"type":"Point","coordinates":[35.52023,-1.04113]}},{"type":"Feature","properties":{"OBJECTID":"5093","Facility_N":"Leshuta Dispensary","Type":"Dispensary","Owner":"Ministry of Health","County":"Narok","Sub_County":"Narok South","Division":"Mara","Location":"Naikara","Sub_Locati":"Leshuta","Constituen":"NAROK SOUTH","Nearest_To":"Naikara","Latitude":"-1.68992","Longitude":"35.7411"},"geometry":{"type":"Point","coordinates":[35.7411,-1.68992]}},{"type":"Feature","properties":{"OBJECTID":"5208","Facility_N":"Lolgorian Sub District Hosp","Type":"Sub-District Hospital","Owner":"Ministry of Health","County":"Narok","Sub_County":"Trans Mara West - Dikirr","Division":"Lolgorian","Location":"Moyoi","Sub_Locati":"Lolgorian","Constituen":"KILGORIS","Nearest_To":"Lolgorian","Latitude":"-1.23384","Longitude":"34.79975"},"geometry":{"type":"Point","coordinates":[34.79975,-1.23384]}},{"type":"Feature","properties":{"OBJECTID":"5253","Facility_N":"Losho Dispensary","Type":"Dispensary","Owner":"Ministry of Health","County":"Narok","Sub_County":"Narok South","Division":"Mara","Location":"Siana","Sub_Locati":"Siana","Constituen":"NAROK SOUTH","Nearest_To":"Oloolaimutia","Latitude":"-1.61362","Longitude":"35.51324"},"geometry":{"type":"Point","coordinates":[35.51324,-1.61362]}},{"type":"Feature","properties":{"OBJECTID":"5332","Facility_N":"Maasai Nursing Home","Type":"Nursing Home","Owner":"Private Enterprise (Institution)","County":"Narok","Sub_County":"Narok North","Division":"Central","Location":"Lower Melili","Sub_Locati":"Town","Constituen":"NAROK NORTH","Nearest_To":"Narok","Latitude":"-1.09074","Longitude":"35.87395"},"geometry":{"type":"Point","coordinates":[35.87395,-1.09074]}},{"type":"Feature","properties":{"OBJECTID":"5437","Facility_N":"Maji Moto Dispensary (Narok South)","Type":"Dispensary","Owner":"Other Faith Based","County":"Narok","Sub_County":"Narok South","Division":"Osupuko","Location":"Maji Moto","Sub_Locati":"Maji Moto","Constituen":"NAROK SOUTH","Nearest_To":"Maji Moto Market","Latitude":"-1.31828","Longitude":"35.7932"},"geometry":{"type":"Point","coordinates":[35.7932,-1.31828]}},{"type":"Feature","properties":{"OBJECTID":"5602","Facility_N":"Mara Serena Dispensary","Type":"Dispensary","Owner":"Private Enterprise (Institution)","County":"Narok","Sub_County":"Trans Mara West - Dikirr","Division":"Lolgorian","Location":"Ololerian","Sub_Locati":"Kawai","Constituen":"KILGORIS","Nearest_To":"Lolgorian","Latitude":"-1.40167","Longitude":"35.02559"},"geometry":{"type":"Point","coordinates":[35.02559,-1.40167]}},{"type":"Feature","properties":{"OBJECTID":"5625","Facility_N":"Mararianta Dispensary","Type":"Dispensary","Owner":"Other Faith Based","County":"Narok","Sub_County":"Narok South","Division":"Mara","Location":"Aitong","Sub_Locati":"Mararinta","Constituen":"NAROK SOUTH","Nearest_To":"Mararianta Market","Latitude":"-1.23758","Longitude":"35.12215"},"geometry":{"type":"Point","coordinates":[35.12215,-1.23758]}},{"type":"Feature","properties":{"OBJECTID":"5693","Facility_N":"Marps Drop In Medical Centre","Type":"Medical Clinic","Owner":"Non-Governmental Organizations","County":"Narok","Sub_County":"Narok North","Division":"central","Location":"Lower Melili","Sub_Locati":"Town","Constituen":"NAROK NORTH","Nearest_To":"Narok town","Latitude":"-1.09118","Longitude":"35.87267"},"geometry":{"type":"Point","coordinates":[35.87267,-1.09118]}},{"type":"Feature","properties":{"OBJECTID":"5748","Facility_N":"Mashangwa Dispensary","Type":"Dispensary","Owner":"Ministry of Health","County":"Narok","Sub_County":"Trans Mara West - Dikirr","Division":"Angata","Location":"Mashangwa","Sub_Locati":"Mashangwa","Constituen":"KILGORIS","Nearest_To":"Kilgoris","Latitude":"-1.30769","Longitude":"34.71362"},"geometry":{"type":"Point","coordinates":[34.71362,-1.30769]}},{"type":"Feature","properties":{"OBJECTID":"5772","Facility_N":"Masurura Dispensary","Type":"Dispensary","Owner":"Ministry of Health","County":"Narok","Sub_County":"Trans Mara West - Dikirr","Division":"Keiyan","Location":"Masurura","Sub_Locati":"Masurura","Constituen":"KILGORIS","Nearest_To":"Masurura Market","Latitude":"-1.19815","Longitude":"34.69979"},"geometry":{"type":"Point","coordinates":[34.69979,-1.19815]}},{"type":"Feature","properties":{"OBJECTID":"5857","Facility_N":"Mausa Dispensary","Type":"Dispensary","Owner":"Ministry of Health","County":"Narok","Sub_County":"Narok South","Division":"Loita","Location":"Mausa","Sub_Locati":"Mausa","Constituen":"NAROK SOUTH","Nearest_To":"Narok","Latitude":"-1.98682","Longitude":"35.89476"},"geometry":{"type":"Point","coordinates":[35.89476,-1.98682]}},{"type":"Feature","properties":{"OBJECTID":"5990","Facility_N":"Meguara Dispensary","Type":"Dispensary","Owner":"Ministry of Health","County":"Narok","Sub_County":"Trans Mara West - Dikirr","Division":"Pirrar","Location":"Meguara","Sub_Locati":"Romosha","Constituen":"KILGORIS","Nearest_To":"Meguara Market","Latitude":"-0.9358","Longitude":"34.93912"},"geometry":{"type":"Point","coordinates":[34.93912,-0.9358]}},{"type":"Feature","properties":{"OBJECTID":"5991","Facility_N":"Megwara Dispensary","Type":"Dispensary","Owner":"Ministry of Health","County":"Narok","Sub_County":"Narok South","Division":"Mara","Location":"Siana","Sub_Locati":"Megwara","Constituen":"NAROK SOUTH","Nearest_To":"Siana Boarding Primary School","Latitude":"-1.51594","Longitude":"35.4804"},"geometry":{"type":"Point","coordinates":[35.4804,-1.51594]}},{"type":"Feature","properties":{"OBJECTID":"5996","Facility_N":"Melelo Dispensary","Type":"Dispensary","Owner":"Ministry of Health","County":"Narok","Sub_County":"Narok South","Division":"Mulot","Location":"Melelo","Sub_Locati":"Melelo","Constituen":"NAROK SOUTH","Nearest_To":"Ololulunga","Latitude":"-0.70408","Longitude":"35.40129"},"geometry":{"type":"Point","coordinates":[35.40129,-0.70408]}},{"type":"Feature","properties":{"OBJECTID":"6261","Facility_N":"Mogoiywet Dispensary","Type":"Dispensary","Owner":"Ministry of Health","County":"Narok","Sub_County":"Trans Mara East","Division":"Ololmasani","Location":"Ololmasani","Sub_Locati":"Ololmasani","Constituen":"KILGORIS","Nearest_To":"Olchobosei Market","Latitude":"-0.93159","Longitude":"35.0628"},"geometry":{"type":"Point","coordinates":[35.0628,-0.93159]}},{"type":"Feature","properties":{"OBJECTID":"6265","Facility_N":"Mogor Dispensary","Type":"Dispensary","Owner":"Ministry of Health","County":"Narok","Sub_County":"Trans Mara East","Division":"Emurua Dikirr","Location":"Mogor","Sub_Locati":"Mogor","Constituen":"KILGORIS","Nearest_To":"Emurua Dikir","Latitude":"-1.00477","Longitude":"34.87962"},"geometry":{"type":"Point","coordinates":[34.87962,-1.00477]}},{"type":"Feature","properties":{"OBJECTID":"6319","Facility_N":"Morijo Loita Dispensary","Type":"Dispensary","Owner":"Ministry of Health","County":"Narok","Sub_County":"Narok South","Division":"Loita","Location":"Morijo","Sub_Locati":"Morijo","Constituen":"NAROK SOUTH","Nearest_To":"Ololulunga","Latitude":"-1.71902","Longitude":"35.8357"},"geometry":{"type":"Point","coordinates":[35.8357,-1.71902]}},{"type":"Feature","properties":{"OBJECTID":"6327","Facility_N":"Mosiro Dispensary","Type":"Dispensary","Owner":"Ministry of Health","County":"Narok","Sub_County":"Narok North","Division":"Mau","Location":"Mosiro","Sub_Locati":"Mosiro","Constituen":"NAROK NORTH","Nearest_To":"Narok","Latitude":"-1.39141","Longitude":"36.11648"},"geometry":{"type":"Point","coordinates":[36.11648,-1.39141]}},{"type":"Feature","properties":{"OBJECTID":"6368","Facility_N":"Mpata Club Dispensary","Type":"Dispensary","Owner":"Private Enterprise (Institution)","County":"Narok","Sub_County":"Trans Mara West - Dikirr","Division":"Kirindon","Location":"Kimintet","Sub_Locati":"Kimintet","Constituen":"KILGORIS","Nearest_To":"Kimintet","Latitude":"-1.19338","Longitude":"35.0402"},"geometry":{"type":"Point","coordinates":[35.0402,-1.19338]}},{"type":"Feature","properties":{"OBJECTID":"6532","Facility_N":"Mulot Catholic Dispensary","Type":"Dispensary","Owner":"Kenya Episcopal Conference-Catholic Secretariat","County":"Narok","Sub_County":"Narok South","Division":"Mulot","Location":"Mulot","Sub_Locati":"Mulot","Constituen":"NAROK SOUTH","Nearest_To":"Mulot Market","Latitude":"-0.93986","Longitude":"35.43277"},"geometry":{"type":"Point","coordinates":[35.43277,-0.93986]}},{"type":"Feature","properties":{"OBJECTID":"6534","Facility_N":"Mulot Health Centre","Type":"Health Centre","Owner":"Ministry of Health","County":"Narok","Sub_County":"Narok South","Division":"Mulot","Location":"Mulot","Sub_Locati":"Mulot","Constituen":"NAROK SOUTH","Nearest_To":"Mulot","Latitude":"-0.93986","Longitude":"35.43277"},"geometry":{"type":"Point","coordinates":[35.43277,-0.93986]}},{"type":"Feature","properties":{"OBJECTID":"6535","Facility_N":"Mulot VCT","Type":"VCT Centre (Stand-Alone)","Owner":"Christian Health Association of Kenya","County":"Narok","Sub_County":"Narok South","Division":"Mulot","Location":"Mulot","Sub_Locati":"Mulot","Constituen":"NAROK SOUTH","Nearest_To":"Mulot","Latitude":"-0.93727","Longitude":"35.43177"},"geometry":{"type":"Point","coordinates":[35.43177,-0.93727]}},{"type":"Feature","properties":{"OBJECTID":"6860","Facility_N":"Naikara Dispensary","Type":"Dispensary","Owner":"Other Faith Based","County":"Narok","Sub_County":"Narok South","Division":"Mara","Location":"Naikara","Sub_Locati":"Naikara","Constituen":"NAROK SOUTH","Nearest_To":"Narok","Latitude":"-1.66159","Longitude":"35.6406"},"geometry":{"type":"Point","coordinates":[35.6406,-1.66159]}},{"type":"Feature","properties":{"OBJECTID":"6862","Facility_N":"Nairagie-Enkare Health Centre","Type":"Health Centre","Owner":"Ministry of Health","County":"Narok","Sub_County":"Narok North","Division":"Mau","Location":"Keekonyokie","Sub_Locati":"Nairagie Enkare","Constituen":"NAROK NORTH","Nearest_To":"Narok","Latitude":"-1.0466","Longitude":"36.16286"},"geometry":{"type":"Point","coordinates":[36.16286,-1.0466]}},{"type":"Feature","properties":{"OBJECTID":"6863","Facility_N":"Nairasirasa Dispensary","Type":"Dispensary","Owner":"Other Faith Based","County":"Narok","Sub_County":"Narok North","Division":"Central","Location":"Upper Melili","Sub_Locati":"Narok Town","Constituen":"NAROK NORTH","Nearest_To":"Narok","Latitude":"-1.05615","Longitude":"35.81805"},"geometry":{"type":"Point","coordinates":[35.81805,-1.05615]}},{"type":"Feature","properties":{"OBJECTID":"6864","Facility_N":"Nairenke Dispensary","Type":"Dispensary","Owner":"Ministry of Health","County":"Narok","Sub_County":"Narok North","Division":"Mau","Location":"Olchorro","Sub_Locati":"Parkarara","Constituen":"NAROK NORTH","Nearest_To":"Olchorro market","Latitude":"-0.8294","Longitude":"35.99789"},"geometry":{"type":"Point","coordinates":[35.99789,-0.8294]}},{"type":"Feature","properties":{"OBJECTID":"6887","Facility_N":"Naisoya Dispensary","Type":"Dispensary","Owner":"Ministry of Health","County":"Narok","Sub_County":"Narok North","Division":"Central","Location":"Lower Melili","Sub_Locati":"Naisoya","Constituen":"NAROK NORTH","Nearest_To":"Narok","Latitude":"-0.95893","Longitude":"35.8569"},"geometry":{"type":"Point","coordinates":[35.8569,-0.95893]}},{"type":"Feature","properties":{"OBJECTID":"6917","Facility_N":"Nalepo Medical Clinic","Type":"Medical Clinic","Owner":"Private Enterprise (Institution)","County":"Narok","Sub_County":"Narok North","Division":"Mau","Location":"Ntulele","Sub_Locati":"Ntulele","Constituen":"NAROK NORTH","Nearest_To":"Narok","Latitude":"-1.07839","Longitude":"36.083"},"geometry":{"type":"Point","coordinates":[36.083,-1.07839]}},{"type":"Feature","properties":{"OBJECTID":"6969","Facility_N":"Narok Beyond Zero Campaign Clinic","Type":"Medical Clinic","Owner":"Ministry of Health","County":"Narok","Sub_County":"Narok North","Division":" ","Location":" ","Sub_Locati":" ","Constituen":"NAROK NORTH","Nearest_To":" ","Latitude":"-1.08575","Longitude":"35.86677"},"geometry":{"type":"Point","coordinates":[35.86677,-1.08575]}},{"type":"Feature","properties":{"OBJECTID":"6970","Facility_N":"Narok Cottage Hospital","Type":"Other Hospital","Owner":"Private Enterprise (Institution)","County":"Narok","Sub_County":"Narok South","Division":" ","Location":" ","Sub_Locati":" ","Constituen":"NAROK SOUTH","Nearest_To":" ","Latitude":"-1.02762","Longitude":"36.07785"},"geometry":{"type":"Point","coordinates":[36.07785,-1.02762]}},{"type":"Feature","properties":{"OBJECTID":"6971","Facility_N":"Narok District Hospital","Type":"District Hospital","Owner":"Ministry of Health","County":"Narok","Sub_County":"Narok North","Division":"Central","Location":"Lower Melili","Sub_Locati":"Town","Constituen":"NAROK NORTH","Nearest_To":"Narok","Latitude":"-1.08575","Longitude":"35.86677"},"geometry":{"type":"Point","coordinates":[35.86677,-1.08575]}},{"type":"Feature","properties":{"OBJECTID":"6972","Facility_N":"Narok University College Clinic","Type":"Health Centre","Owner":"Parastatal","County":"Narok","Sub_County":"Narok North","Division":"Central","Location":"Lower Melili","Sub_Locati":"Town","Constituen":"NAROK NORTH","Nearest_To":"Narok town","Latitude":"-1.09511","Longitude":"35.85977"},"geometry":{"type":"Point","coordinates":[35.85977,-1.09511]}},{"type":"Feature","properties":{"OBJECTID":"6973","Facility_N":"Narolong Dispensary","Type":"Dispensary","Owner":"Ministry of Health","County":"Narok","Sub_County":"Trans Mara East","Division":"Keiyan","Location":"Moita","Sub_Locati":"Moita","Constituen":"KILGORIS","Nearest_To":"Moita","Latitude":"-1.1478","Longitude":"34.67278"},"geometry":{"type":"Point","coordinates":[34.67278,-1.1478]}},{"type":"Feature","properties":{"OBJECTID":"6974","Facility_N":"Narolong Dispensary (Trans Mara West)","Type":"Dispensary","Owner":"Community","County":"Narok","Sub_County":"Trans Mara West - Dikirr","Division":"Keiyan","Location":"Sikawa","Sub_Locati":"Sikawa","Constituen":"KILGORIS","Nearest_To":"Kilgoris","Latitude":"-1.06251","Longitude":"34.633"},"geometry":{"type":"Point","coordinates":[34.633,-1.06251]}},{"type":"Feature","properties":{"OBJECTID":"6976","Facility_N":"Naroosura Health Centre","Type":"Health Centre","Owner":"Ministry of Health","County":"Narok","Sub_County":"Narok South","Division":"Osupuko","Location":"Naroosura","Sub_Locati":"Naroosura","Constituen":"NAROK SOUTH","Nearest_To":"Naroosura Market","Latitude":"-1.54047","Longitude":"35.86447"},"geometry":{"type":"Point","coordinates":[35.86447,-1.54047]}},{"type":"Feature","properties":{"OBJECTID":"6985","Facility_N":"Nasha Lengot Medical Centre","Type":"Dispensary","Owner":"Private Practice - Unspecified","County":"Narok","Sub_County":"Narok North","Division":"Central","Location":"Lower Melili","Sub_Locati":"Narok Town","Constituen":"NAROK NORTH","Nearest_To":"NarokTown","Latitude":"-1.7522","Longitude":"35.86504"},"geometry":{"type":"Point","coordinates":[35.86504,-1.7522]}},{"type":"Feature","properties":{"OBJECTID":"7022","Facility_N":"Ndamama Dispensary","Type":"Dispensary","Owner":"Ministry of Health","County":"Narok","Sub_County":"Trans Mara East","Division":"Ololmasani","Location":"Njipship","Sub_Locati":"Ndamama","Constituen":"KILGORIS","Nearest_To":"Njipiship Market","Latitude":"-0.91676","Longitude":"35.02258"},"geometry":{"type":"Point","coordinates":[35.02258,-0.91676]}},{"type":"Feature","properties":{"OBJECTID":"7174","Facility_N":"Nganayio Dispensary","Type":"Dispensary","Owner":"Ministry of Health","County":"Narok","Sub_County":"Trans Mara West - Dikirr","Division":"Kilgoris","Location":"Olomismis","Sub_Locati":"Olongoloto","Constituen":"KILGORIS","Nearest_To":"Kilgoris","Latitude":"-1.05219","Longitude":"34.90626"},"geometry":{"type":"Point","coordinates":[34.90626,-1.05219]}},{"type":"Feature","properties":{"OBJECTID":"7205","Facility_N":"Ngendalel Dispensary (Transmara)","Type":"Dispensary","Owner":"Ministry of Health","County":"Narok","Sub_County":"Trans Mara West - Dikirr","Division":"Angata","Location":" ","Sub_Locati":" ","Constituen":"KILGORIS","Nearest_To":" ","Latitude":"-1.37647","Longitude":"34.77569"},"geometry":{"type":"Point","coordinates":[34.77569,-1.37647]}},{"type":"Feature","properties":{"OBJECTID":"7234","Facility_N":"Ngito Dispensary","Type":"Dispensary","Owner":"Other Faith Based","County":"Narok","Sub_County":"Narok South","Division":"Mulot","Location":"Ngito","Sub_Locati":"Ngito","Constituen":"NAROK SOUTH","Nearest_To":"Ololulunga","Latitude":"-0.92085","Longitude":"35.48407"},"geometry":{"type":"Point","coordinates":[35.48407,-0.92085]}},{"type":"Feature","properties":{"OBJECTID":"7260","Facility_N":"Ngosuani Dispensary","Type":"Dispensary","Owner":"Other Faith Based","County":"Narok","Sub_County":"Narok South","Division":"Osupuko","Location":"Ngosuani","Sub_Locati":"Ngosuani","Constituen":"NAROK SOUTH","Nearest_To":"Ngosuani Market","Latitude":"-1.41424","Longitude":"35.59263"},"geometry":{"type":"Point","coordinates":[35.59263,-1.41424]}},{"type":"Feature","properties":{"OBJECTID":"7317","Facility_N":"Njipiship Dispensary","Type":"Dispensary","Owner":"Ministry of Health","County":"Narok","Sub_County":"Trans Mara East","Division":"Ololmasani","Location":"Njipiship","Sub_Locati":"Njipiship","Constituen":"KILGORIS","Nearest_To":"Njipiship","Latitude":"-0.93576","Longitude":"35.00576"},"geometry":{"type":"Point","coordinates":[35.00576,-0.93576]}},{"type":"Feature","properties":{"OBJECTID":"7331","Facility_N":"Nkararo Health Centre","Type":"Health Centre","Owner":"Ministry of Health","County":"Narok","Sub_County":"Trans Mara West - Dikirr","Division":"Keiyan","Location":"Nkararo","Sub_Locati":"Nkararo","Constituen":"KILGORIS","Nearest_To":"Nkararo Market","Latitude":"-1.07383","Longitude":"34.75763"},"geometry":{"type":"Point","coordinates":[34.75763,-1.07383]}},{"type":"Feature","properties":{"OBJECTID":"7332","Facility_N":"Nkareta Dispensary","Type":"Dispensary","Owner":"Ministry of Health","County":"Narok","Sub_County":"Narok North","Division":"Central","Location":"Nkareta","Sub_Locati":"Nkareta","Constituen":"NAROK NORTH","Nearest_To":"Narok","Latitude":"-0.96611","Longitude":"35.74446"},"geometry":{"type":"Point","coordinates":[35.74446,-0.96611]}},{"type":"Feature","properties":{"OBJECTID":"7336","Facility_N":"Nkoilale Health Centre","Type":"Health Centre","Owner":"Ministry of Health","County":"Narok","Sub_County":"Narok South","Division":"Mara","Location":"Nkoilale","Sub_Locati":"Nkoilale","Constituen":"NAROK SOUTH","Nearest_To":"Narok","Latitude":"-1.40349","Longitude":"35.43281"},"geometry":{"type":"Point","coordinates":[35.43281,-1.40349]}},{"type":"Feature","properties":{"OBJECTID":"7338","Facility_N":"Nkorinkori Dispensary","Type":"Dispensary","Owner":"Ministry of Health","County":"Narok","Sub_County":"Narok South","Division":"Ololulunga","Location":"Nkorinkori","Sub_Locati":"Nkorinkori","Constituen":"NAROK SOUTH","Nearest_To":"Nkorinkori Market","Latitude":"-1.14444","Longitude":"35.302203"},"geometry":{"type":"Point","coordinates":[35.302203,-1.14444]}},{"type":"Feature","properties":{"OBJECTID":"7383","Facility_N":"Ntulele Dispensary","Type":"Dispensary","Owner":"Ministry of Health","County":"Narok","Sub_County":"Narok North","Division":"Mau","Location":"Ntulele","Sub_Locati":"Ntulele","Constituen":"NAROK NORTH","Nearest_To":"Narok","Latitude":"-1.09223","Longitude":"36.09116"},"geometry":{"type":"Point","coordinates":[36.09116,-1.09223]}},{"type":"Feature","properties":{"OBJECTID":"7386","Facility_N":"Nturumeti Dispensary","Type":"Dispensary","Owner":"Other Faith Based","County":"Narok","Sub_County":"Narok North","Division":"Mau","Location":"Ongata Naado","Sub_Locati":"Nturumeti","Constituen":"NAROK NORTH","Nearest_To":"Narok","Latitude":"-1.16849","Longitude":"36.1"},"geometry":{"type":"Point","coordinates":[36.1,-1.16849]}},{"type":"Feature","properties":{"OBJECTID":"7686","Facility_N":"Olasiti (AIC) Dispensary","Type":"Dispensary","Owner":"Christian Health Association of Kenya","County":"Narok","Sub_County":"Narok North","Division":"Mau","Location":"Suswa","Sub_Locati":"Suswa","Constituen":"NAROK NORTH","Nearest_To":"Narok","Latitude":"-1.07985","Longitude":"36.23631"},"geometry":{"type":"Point","coordinates":[36.23631,-1.07985]}},{"type":"Feature","properties":{"OBJECTID":"7689","Facility_N":"Olchekut Community Based Clinic","Type":"Medical Clinic","Owner":"Private Practice - Nurse / Midwife","County":"Narok","Sub_County":"Narok North","Division":"Central","Location":"Lower melili","Sub_Locati":"Town","Constituen":"NAROK NORTH","Nearest_To":"Narok","Latitude":"-1.08806","Longitude":"35.87366"},"geometry":{"type":"Point","coordinates":[35.87366,-1.08806]}},{"type":"Feature","properties":{"OBJECTID":"7690","Facility_N":"Olchobosei Clinic","Type":"Medical Clinic","Owner":"Private Enterprise (Institution)","County":"Narok","Sub_County":"Trans Mara East","Division":"Ololmasani","Location":"Njipship","Sub_Locati":"Kapkoros","Constituen":"KILGORIS","Nearest_To":"Olchobosei Market","Latitude":"-0.9312","Longitude":"35.03107"},"geometry":{"type":"Point","coordinates":[35.03107,-0.9312]}},{"type":"Feature","properties":{"OBJECTID":"7692","Facility_N":"Olchorro Health Centre","Type":"Health Centre","Owner":"Ministry of Health","County":"Narok","Sub_County":"Narok North","Division":"Mau","Location":"Upper Melili","Sub_Locati":"Parkarara","Constituen":"NAROK NORTH","Nearest_To":"Narok","Latitude":"-0.82943","Longitude":"35.99792"},"geometry":{"type":"Point","coordinates":[35.99792,-0.82943]}},{"type":"Feature","properties":{"OBJECTID":"7694","Facility_N":"Oldanyati Health Centre","Type":"Health Centre","Owner":"Ministry of Health","County":"Narok","Sub_County":"Trans Mara West - Dikirr","Division":"Keiyan","Location":"Sikawa","Sub_Locati":"Oldanyati","Constituen":"KILGORIS","Nearest_To":"Kilgoris","Latitude":"-1.07465","Longitude":"34.69501"},"geometry":{"type":"Point","coordinates":[34.69501,-1.07465]}},{"type":"Feature","properties":{"OBJECTID":"7697","Facility_N":"Olderkesi Dispensary","Type":"Dispensary","Owner":"Ministry of Health","County":"Narok","Sub_County":"Narok South","Division":"Mara","Location":"Olderkesi","Sub_Locati":"Enkirori","Constituen":"NAROK SOUTH","Nearest_To":"Olderkesi Market","Latitude":"-1.75866","Longitude":"35.5712"},"geometry":{"type":"Point","coordinates":[35.5712,-1.75866]}},{"type":"Feature","properties":{"OBJECTID":"7701","Facility_N":"Oldonyorok (Cog) Dispensary","Type":"Dispensary","Owner":"Other Faith Based","County":"Narok","Sub_County":"Trans Mara West - Dikirr","Division":"Angata","Location":"Oldonyorok","Sub_Locati":"Oldonyorok","Constituen":"KILGORIS","Nearest_To":"Oldonyorok Market","Latitude":"-1.04255","Longitude":"34.79166"},"geometry":{"type":"Point","coordinates":[34.79166,-1.04255]}},{"type":"Feature","properties":{"OBJECTID":"7705","Facility_N":"Olendeem Dispensary","Type":"Dispensary","Owner":"Other Faith Based","County":"Narok","Sub_County":"Narok North","Division":"Mau","Location":"Upper Melili","Sub_Locati":"Olchorro","Constituen":"NAROK NORTH","Nearest_To":"Narok","Latitude":"-0.8311","Longitude":"35.96762"},"geometry":{"type":"Point","coordinates":[35.96762,-0.8311]}},{"type":"Feature","properties":{"OBJECTID":"7706","Facility_N":"Olengoloto Dispensary","Type":"Dispensary","Owner":"Ministry of Health","County":"Narok","Sub_County":"Trans Mara West - Dikirr","Division":" ","Location":" ","Sub_Locati":" ","Constituen":"KILGORIS","Nearest_To":" ","Latitude":"-1.0521","Longitude":"34.90627"},"geometry":{"type":"Point","coordinates":[34.90627,-1.0521]}},{"type":"Feature","properties":{"OBJECTID":"7708","Facility_N":"Olenkasurai Dispensary","Type":"Dispensary","Owner":"Other Faith Based","County":"Narok","Sub_County":"Narok North","Division":"Mau","Location":"Upper Melili","Sub_Locati":"Parkarara","Constituen":"NAROK NORTH","Nearest_To":"Narok","Latitude":"-0.90513","Longitude":"35.96867"},"geometry":{"type":"Point","coordinates":[35.96867,-0.90513]}},{"type":"Feature","properties":{"OBJECTID":"7709","Facility_N":"Olepolos Dispensary","Type":"Dispensary","Owner":"Ministry of Health","County":"Narok","Sub_County":"Narok South","Division":"Ololulunga","Location":"Olashapani","Sub_Locati":"Olashapani","Constituen":"NAROK SOUTH","Nearest_To":"Ololulunga","Latitude":"-1.594003","Longitude":"35.41397"},"geometry":{"type":"Point","coordinates":[35.41397,-1.594003]}},{"type":"Feature","properties":{"OBJECTID":"7710","Facility_N":"Olepolos Dispensary Narok North","Type":"Dispensary","Owner":"Ministry of Health","County":"Narok","Sub_County":"Narok North","Division":"Olokurto","Location":"Olorropil","Sub_Locati":"Olorropil","Constituen":"NAROK NORTH","Nearest_To":"Mwisho wa Lami","Latitude":"-0.7526","Longitude":"35.98156"},"geometry":{"type":"Point","coordinates":[35.98156,-0.7526]}},{"type":"Feature","properties":{"OBJECTID":"7712","Facility_N":"Olereko Dispensary","Type":"Dispensary","Owner":"Ministry of Health","County":"Narok","Sub_County":"Trans Mara West - Dikirr","Division":"Kilgoris","Location":"Shankoe","Sub_Locati":"Olereko","Constituen":"KILGORIS","Nearest_To":"Kilgoris","Latitude":"-0.99027","Longitude":"34.75665"},"geometry":{"type":"Point","coordinates":[34.75665,-0.99027]}},{"type":"Feature","properties":{"OBJECTID":"7713","Facility_N":"Olesere Dispensary","Type":"Dispensary","Owner":"Ministry of Health","County":"Narok","Sub_County":"Narok South","Division":"Mara","Location":"Olesere","Sub_Locati":"Olesere","Constituen":"NAROK SOUTH","Nearest_To":"Ololulunga","Latitude":"-1.5213","Longitude":"35.40057"},"geometry":{"type":"Point","coordinates":[35.40057,-1.5213]}},{"type":"Feature","properties":{"OBJECTID":"7714","Facility_N":"Oletukat Dispensary","Type":"Dispensary","Owner":"Ministry of Health","County":"Narok","Sub_County":"Narok North","Division":"Mau","Location":"Oletukat","Sub_Locati":"Enkorika","Constituen":"NAROK NORTH","Nearest_To":"Narok","Latitude":"-1.2166","Longitude":"35.93599"},"geometry":{"type":"Point","coordinates":[35.93599,-1.2166]}},{"type":"Feature","properties":{"OBJECTID":"7730","Facility_N":"Olkinyei Dispensary","Type":"Dispensary","Owner":"Ministry of Health","County":"Narok","Sub_County":"Narok South","Division":"Mara","Location":"Olkinyei","Sub_Locati":"Olkinyei","Constituen":"NAROK SOUTH","Nearest_To":"Olkinyei","Latitude":"-1.190488","Longitude":"35.372112"},"geometry":{"type":"Point","coordinates":[35.372112,-1.190488]}},{"type":"Feature","properties":{"OBJECTID":"7733","Facility_N":"Olkoroi Dispensary","Type":"Dispensary","Owner":"Ministry of Health","County":"Narok","Sub_County":"Narok South","Division":"Loita","Location":"Olkoroi","Sub_Locati":"Olkoroi","Constituen":"NAROK SOUTH","Nearest_To":"Oloolaimutia","Latitude":"-1.6978","Longitude":"35.55714"},"geometry":{"type":"Point","coordinates":[35.55714,-1.6978]}},{"type":"Feature","properties":{"OBJECTID":"7739","Facility_N":"Olmekenyu Dispensary","Type":"Dispensary","Owner":"Ministry of Health","County":"Narok","Sub_County":"Narok South","Division":"Sogoo","Location":"Olmekenyu","Sub_Locati":"Olmekenyu","Constituen":"NAROK SOUTH","Nearest_To":"Ololulunga","Latitude":"-0.86712","Longitude":"35.63241"},"geometry":{"type":"Point","coordinates":[35.63241,-0.86712]}},{"type":"Feature","properties":{"OBJECTID":"7740","Facility_N":"Olmesutie Dispensary","Type":"Dispensary","Owner":"Ministry of Health","County":"Narok","Sub_County":"Narok South","Division":"Loita","Location":"Olmesutie","Sub_Locati":"Olmesutie","Constituen":"NAROK SOUTH","Nearest_To":"Ololulunga","Latitude":"-1.9071","Longitude":"35.6802"},"geometry":{"type":"Point","coordinates":[35.6802,-1.9071]}},{"type":"Feature","properties":{"OBJECTID":"7750","Facility_N":"Olokurto Health Centre","Type":"Health Centre","Owner":"Ministry of Health","County":"Narok","Sub_County":"Narok North","Division":"Olokurto","Location":"Olokurto","Sub_Locati":"Olokurto","Constituen":"NAROK NORTH","Nearest_To":"Narok","Latitude":"-1.59523","Longitude":"35.33392"},"geometry":{"type":"Point","coordinates":[35.33392,-1.59523]}},{"type":"Feature","properties":{"OBJECTID":"7752","Facility_N":"Ololchani Dispensary","Type":"Dispensary","Owner":"Ministry of Health","County":"Narok","Sub_County":"Trans Mara West - Dikirr","Division":"Kilgoris","Location":"Ololchani","Sub_Locati":"Ololchani","Constituen":"KILGORIS","Nearest_To":"Kilgoris","Latitude":"-0.99027","Longitude":"34.75665"},"geometry":{"type":"Point","coordinates":[34.75665,-0.99027]}},{"type":"Feature","properties":{"OBJECTID":"7753","Facility_N":"Ololpironito Health Centre","Type":"Health Centre","Owner":"Ministry of Health","County":"Narok","Sub_County":"Narok North","Division":"Mau","Location":"Ololpironito","Sub_Locati":"Olombokishi","Constituen":"NAROK NORTH","Nearest_To":"Narok","Latitude":"-0.96669","Longitude":"36.08278"},"geometry":{"type":"Point","coordinates":[36.08278,-0.96669]}},{"type":"Feature","properties":{"OBJECTID":"7754","Facility_N":"Ololulunga District Hospital","Type":"District Hospital","Owner":"Ministry of Health","County":"Narok","Sub_County":"Narok South","Division":"Ololulunga","Location":"Ololulunga","Sub_Locati":"Ololulunga","Constituen":"NAROK SOUTH","Nearest_To":"Ololulunga","Latitude":"-1.00872","Longitude":"35.6611"},"geometry":{"type":"Point","coordinates":[35.6611,-1.00872]}},{"type":"Feature","properties":{"OBJECTID":"7755","Facility_N":"Ololulunga VCT","Type":"VCT Centre (Stand-Alone)","Owner":"Other Faith Based","County":"Narok","Sub_County":"Narok South","Division":"Ololulunga","Location":"Ololulunga","Sub_Locati":"Ololulunga","Constituen":"NAROK SOUTH","Nearest_To":"Ololulunga","Latitude":"-1.01957","Longitude":"35.65334"},"geometry":{"type":"Point","coordinates":[35.65334,-1.01957]}},{"type":"Feature","properties":{"OBJECTID":"7757","Facility_N":"Olooltoto Dispensary","Type":"Dispensary","Owner":"Christian Health Association of Kenya","County":"Narok","Sub_County":"Narok North","Division":"Central","Location":"Nkareta","Sub_Locati":"Oleleshwa","Constituen":"NAROK NORTH","Nearest_To":"Ewaso ngiro","Latitude":"-1.18715","Longitude":"35.83348"},"geometry":{"type":"Point","coordinates":[35.83348,-1.18715]}},{"type":"Feature","properties":{"OBJECTID":"7762","Facility_N":"Oloropil Dispensary","Type":"Dispensary","Owner":"Kenya Episcopal Conference-Catholic Secretariat","County":"Narok","Sub_County":"Narok North","Division":"olokurto","Location":"oloropil","Sub_Locati":"oloropil","Constituen":"NAROK NORTH","Nearest_To":"tipis centre","Latitude":"-0.7521","Longitude":"35.98152"},"geometry":{"type":"Point","coordinates":[35.98152,-0.7521]}},{"type":"Feature","properties":{"OBJECTID":"7763","Facility_N":"Olorte Dispensary","Type":"Dispensary","Owner":"Ministry of Health","County":"Narok","Sub_County":"Narok South","Division":"Loita","Location":"Olorte","Sub_Locati":"Olorte","Constituen":"NAROK SOUTH","Nearest_To":"Entasekera Market","Latitude":"-1.95716","Longitude":"35.83651"},"geometry":{"type":"Point","coordinates":[35.83651,-1.95716]}},{"type":"Feature","properties":{"OBJECTID":"7766","Facility_N":"Olposimoru Dispensary","Type":"Dispensary","Owner":"Ministry of Health","County":"Narok","Sub_County":"Narok North","Division":"Olokurto","Location":"Olposimoru","Sub_Locati":"Olposimoru","Constituen":"NAROK NORTH","Nearest_To":"Elbargon","Latitude":"-0.56168","Longitude":"35.76278"},"geometry":{"type":"Point","coordinates":[35.76278,-0.56168]}},{"type":"Feature","properties":{"OBJECTID":"7798","Facility_N":"Ongata Naado Dispensary","Type":"Dispensary","Owner":"Ministry of Health","County":"Narok","Sub_County":"Narok North","Division":"Mau","Location":"Ongata Naado","Sub_Locati":"Ongata Naado","Constituen":"NAROK NORTH","Nearest_To":"Narok","Latitude":"-1.25086","Longitude":"35.99404"},"geometry":{"type":"Point","coordinates":[35.99404,-1.25086]}},{"type":"Feature","properties":{"OBJECTID":"7841","Facility_N":"Osarara Dispensary","Type":"Dispensary","Owner":"Ministry of Health","County":"Narok","Sub_County":"Narok South","Division":"Mara","Location":"Naikara","Sub_Locati":"Osarara","Constituen":"NAROK SOUTH","Nearest_To":"Naikara","Latitude":"-1.58616","Longitude":"35.74279"},"geometry":{"type":"Point","coordinates":[35.74279,-1.58616]}},{"type":"Feature","properties":{"OBJECTID":"7846","Facility_N":"Osinoni Dispensary","Type":"Dispensary","Owner":"Ministry of Health","County":"Narok","Sub_County":"Trans Mara West - Dikirr","Division":"Kilgoris","Location":"Osinoni","Sub_Locati":"Osinoni","Constituen":"KILGORIS","Nearest_To":"Kilgoris","Latitude":"-1.01903","Longitude":"34.80542"},"geometry":{"type":"Point","coordinates":[34.80542,-1.01903]}},{"type":"Feature","properties":{"OBJECTID":"7850","Facility_N":"Osupuko Dispensary","Type":"Dispensary","Owner":"Ministry of Health","County":"Narok","Sub_County":"Trans Mara West - Dikirr","Division":"Kilgoris","Location":"Osupuko","Sub_Locati":"Osupuko","Constituen":"KILGORIS","Nearest_To":"Kilgoris","Latitude":"-0.93928","Longitude":"34.91081"},"geometry":{"type":"Point","coordinates":[34.91081,-0.93928]}},{"type":"Feature","properties":{"OBJECTID":"7984","Facility_N":"Pillar of Development","Type":"VCT Centre (Stand-Alone)","Owner":"Non-Governmental Organizations","County":"Narok","Sub_County":"Narok North","Division":"Central","Location":"Lower Melilil","Sub_Locati":"Town","Constituen":"NAROK NORTH","Nearest_To":"Narok town","Latitude":"-1.05129","Longitude":"35.52078"},"geometry":{"type":"Point","coordinates":[35.52078,-1.05129]}},{"type":"Feature","properties":{"OBJECTID":"8302","Facility_N":"Romosha Dispensary","Type":"Dispensary","Owner":"Ministry of Health","County":"Narok","Sub_County":"Trans Mara West - Dikirr","Division":"Pirrar","Location":"Meguara","Sub_Locati":"Romosha","Constituen":"KILGORIS","Nearest_To":"Romosha Market","Latitude":"-0.91372","Longitude":"34.96585"},"geometry":{"type":"Point","coordinates":[34.96585,-0.91372]}},{"type":"Feature","properties":{"OBJECTID":"8310","Facility_N":"Rongena Dispensary (Narok South)","Type":"Dispensary","Owner":"Ministry of Health","County":"Narok","Sub_County":"Narok South","Division":"Mulot","Location":"Enelerai","Sub_Locati":"Rongena","Constituen":"NAROK SOUTH","Nearest_To":"Mulot","Latitude":"-0.970351","Longitude":"35.433922"},"geometry":{"type":"Point","coordinates":[35.433922,-0.970351]}},{"type":"Feature","properties":{"OBJECTID":"8431","Facility_N":"Sagam Hospital","Type":"Other Hospital","Owner":"Private Practice - General Practitioner","County":"Narok","Sub_County":"Narok North","Division":"Central","Location":"Lower Melili","Sub_Locati":"Narok Town","Constituen":"NAROK NORTH","Nearest_To":"Narok Town","Latitude":"-1.09316","Longitude":"35.86946"},"geometry":{"type":"Point","coordinates":[35.86946,-1.09316]}},{"type":"Feature","properties":{"OBJECTID":"8443","Facility_N":"Saire Dispensary","Type":"Dispensary","Owner":"Ministry of Health","County":"Narok","Sub_County":"Narok South","Division":"Mulot","Location":"Saire","Sub_Locati":"Saire","Constituen":"NAROK SOUTH","Nearest_To":"Ololulunga","Latitude":"-0.85301","Longitude":"35.6378"},"geometry":{"type":"Point","coordinates":[35.6378,-0.85301]}},{"type":"Feature","properties":{"OBJECTID":"8448","Facility_N":"Sakutiek Health Centre","Type":"Health Centre","Owner":"Ministry of Health","County":"Narok","Sub_County":"Narok North","Division":"Mau","Location":"Upper Melili","Sub_Locati":"Sakutiek","Constituen":"NAROK NORTH","Nearest_To":"Naivasha","Latitude":"-0.84756","Longitude":"36.14842"},"geometry":{"type":"Point","coordinates":[36.14842,-0.84756]}},{"type":"Feature","properties":{"OBJECTID":"8452","Facility_N":"Salabwek Dispensary","Type":"Dispensary","Owner":"Ministry of Health","County":"Narok","Sub_County":"Narok South","Division":"Mulot","Location":"Enelerai","Sub_Locati":"Enelerai","Constituen":"NAROK SOUTH","Nearest_To":"Mulot","Latitude":"-1.0734","Longitude":"35.415434"},"geometry":{"type":"Point","coordinates":[35.415434,-1.0734]}},{"type":"Feature","properties":{"OBJECTID":"8524","Facility_N":"Sasa Centre","Type":"Medical Clinic","Owner":"Non-Governmental Organizations","County":"Narok","Sub_County":"Narok North","Division":"Central","Location":"Lower Melili","Sub_Locati":"Town","Constituen":"NAROK NORTH","Nearest_To":"Narok town","Latitude":"-1.05201","Longitude":"35.5213"},"geometry":{"type":"Point","coordinates":[35.5213,-1.05201]}},{"type":"Feature","properties":{"OBJECTID":"8538","Facility_N":"Savimbi Medical Clinic","Type":"Medical Clinic","Owner":"Private Enterprise (Institution)","County":"Narok","Sub_County":"Trans Mara East","Division":"Kirindon","Location":"Murgan","Sub_Locati":"Murgan","Constituen":"KILGORIS","Nearest_To":"Murgan","Latitude":"-1.05862","Longitude":"35.06037"},"geometry":{"type":"Point","coordinates":[35.06037,-1.05862]}},{"type":"Feature","properties":{"OBJECTID":"8564","Facility_N":"Sekenani Health Centre","Type":"Health Centre","Owner":"Ministry of Health","County":"Narok","Sub_County":"Narok South","Division":"Mara","Location":"Sekenani","Sub_Locati":"Sekenani","Constituen":"NAROK SOUTH","Nearest_To":"Sekenani Market","Latitude":"-1.44312","Longitude":"35.393"},"geometry":{"type":"Point","coordinates":[35.393,-1.44312]}},{"type":"Feature","properties":{"OBJECTID":"8629","Facility_N":"Shankoe Dispensary","Type":"Dispensary","Owner":"Ministry of Health","County":"Narok","Sub_County":"Trans Mara West - Dikirr","Division":"Kilgoris","Location":"Shankoe","Sub_Locati":"Shankoe","Constituen":"KILGORIS","Nearest_To":"Endonyokopit Market","Latitude":"-0.96931","Longitude":"34.79592"},"geometry":{"type":"Point","coordinates":[34.79592,-0.96931]}},{"type":"Feature","properties":{"OBJECTID":"8635","Facility_N":"Shartuka Dispensary","Type":"Dispensary","Owner":"Ministry of Health","County":"Narok","Sub_County":"Trans Mara West - Dikirr","Division":"Pirar","Location":"Shartuka","Sub_Locati":"Shartuka","Constituen":"KILGORIS","Nearest_To":"Shartuka Market","Latitude":"-0.96859","Longitude":"34.94777"},"geometry":{"type":"Point","coordinates":[34.94777,-0.96859]}},{"type":"Feature","properties":{"OBJECTID":"8698","Facility_N":"Siana Springs Dispensary","Type":"Dispensary","Owner":"Non-Governmental Organizations","County":"Narok","Sub_County":"Narok South","Division":"Mara","Location":"Siana","Sub_Locati":"Siana","Constituen":"NAROK SOUTH","Nearest_To":"Sekenani Market","Latitude":"-1.62098","Longitude":"35.4262"},"geometry":{"type":"Point","coordinates":[35.4262,-1.62098]}},{"type":"Feature","properties":{"OBJECTID":"8708","Facility_N":"Sigilai (Cmc) Clinic","Type":"Medical Clinic","Owner":"Private Enterprise (Institution)","County":"Narok","Sub_County":"Trans Mara East","Division":"Ololmasani","Location":"Njipship","Sub_Locati":"Njipship","Constituen":"KILGORIS","Nearest_To":"Njipship","Latitude":"-0.93594","Longitude":"35.00515"},"geometry":{"type":"Point","coordinates":[35.00515,-0.93594]}},{"type":"Feature","properties":{"OBJECTID":"8809","Facility_N":"Siyiapei (AIC) Dispensary","Type":"Dispensary","Owner":"Christian Health Association of Kenya","County":"Narok","Sub_County":"Narok North","Division":"Mau","Location":"Siyiapei","Sub_Locati":"Siyiapei","Constituen":"NAROK NORTH","Nearest_To":"Narok","Latitude":"-1.08896","Longitude":"35.95531"},"geometry":{"type":"Point","coordinates":[35.95531,-1.08896]}},{"type":"Feature","properties":{"OBJECTID":"8827","Facility_N":"Soget Dispensary","Type":"Dispensary","Owner":"Ministry of Health","County":"Narok","Sub_County":"Trans Mara East","Division":"Emurua Dikirr","Location":"Mogondo","Sub_Locati":"Mogor","Constituen":"KILGORIS","Nearest_To":"Murgan Market","Latitude":"-1.0378","Longitude":"35.0472"},"geometry":{"type":"Point","coordinates":[35.0472,-1.0378]}},{"type":"Feature","properties":{"OBJECTID":"8829","Facility_N":"Sogoo Health Centre","Type":"Health Centre","Owner":"Ministry of Health","County":"Narok","Sub_County":"Narok South","Division":"Sogoo","Location":"Sogoo","Sub_Locati":"Sogoo","Constituen":"NAROK SOUTH","Nearest_To":"Ololulunga","Latitude":"-0.81931","Longitude":"35.5809"},"geometry":{"type":"Point","coordinates":[35.5809,-0.81931]}},{"type":"Feature","properties":{"OBJECTID":"8867","Facility_N":"Sosiana Dispensary","Type":"Dispensary","Owner":"Ministry of Health","County":"Narok","Sub_County":"Trans Mara East","Division":"Kirindon","Location":"Mogor","Sub_Locati":"Mogor","Constituen":"KILGORIS","Nearest_To":"Murgan","Latitude":"-1.07158","Longitude":"35.03077"},"geometry":{"type":"Point","coordinates":[35.03077,-1.07158]}},{"type":"Feature","properties":{"OBJECTID":"8939","Facility_N":"St Anthony Lemek Dispensary","Type":"Dispensary","Owner":"Kenya Episcopal Conference-Catholic Secretariat","County":"Narok","Sub_County":"Narok South","Division":"Ololulunga","Location":"Lemek","Sub_Locati":"Lemek","Constituen":"NAROK SOUTH","Nearest_To":"Lemek Market","Latitude":"-1.61104","Longitude":"35.23889"},"geometry":{"type":"Point","coordinates":[35.23889,-1.61104]}},{"type":"Feature","properties":{"OBJECTID":"8943","Facility_N":"St Antony's Abossi Health Centre","Type":"Health Centre","Owner":"Kenya Episcopal Conference-Catholic Secretariat","County":"Narok","Sub_County":"Trans Mara East","Division":"Ololmasani","Location":"Ololmasani","Sub_Locati":"Abossi","Constituen":"KILGORIS","Nearest_To":"Abossi Market","Latitude":"-0.91528","Longitude":"35.05899"},"geometry":{"type":"Point","coordinates":[35.05899,-0.91528]}},{"type":"Feature","properties":{"OBJECTID":"8978","Facility_N":"St Elizabeth Health Centre","Type":"Health Centre","Owner":"Other Faith Based","County":"Narok","Sub_County":"Narok South","Division":"Osupuko","Location":"Naroosura","Sub_Locati":"Naroosura","Constituen":"NAROK SOUTH","Nearest_To":"Narok","Latitude":"-1.58868","Longitude":"35.8338"},"geometry":{"type":"Point","coordinates":[35.8338,-1.58868]}},{"type":"Feature","properties":{"OBJECTID":"9042","Facility_N":"St Joseph Hospital","Type":"Other Hospital","Owner":"Kenya Episcopal Conference-Catholic Secretariat","County":"Narok","Sub_County":"Trans Mara West - Dikirr","Division":"Kilgoris","Location":"Ololchani","Sub_Locati":"Ololchani","Constituen":"KILGORIS","Nearest_To":"Kilgoris","Latitude":"-1.00421","Longitude":"34.87382"},"geometry":{"type":"Point","coordinates":[34.87382,-1.00421]}},{"type":"Feature","properties":{"OBJECTID":"9219","Facility_N":"St Teresa Olokirikirai Dispensary","Type":"Dispensary","Owner":"Kenya Episcopal Conference-Catholic Secretariat","County":"Narok","Sub_County":"Narok North","Division":"Olokurto","Location":"Enabelbel","Sub_Locati":"Enegetia","Constituen":"NAROK NORTH","Nearest_To":"Narok","Latitude":"-0.74845","Longitude":"35.88687"},"geometry":{"type":"Point","coordinates":[35.88687,-0.74845]}},{"type":"Feature","properties":{"OBJECTID":"9231","Facility_N":"St Theresia of Jesus","Type":"Medical Clinic","Owner":"Private Enterprise (Institution)","County":"Narok","Sub_County":"Trans Mara West - Dikirr","Division":"Kirindon","Location":"Esoit","Sub_Locati":"Esoit","Constituen":"KILGORIS","Nearest_To":"Kilgoris","Latitude":"-1.08661","Longitude":"35.01188"},"geometry":{"type":"Point","coordinates":[35.01188,-1.08661]}},{"type":"Feature","properties":{"OBJECTID":"9389","Facility_N":"Tachasis Dispensary (Narok South)","Type":"Dispensary","Owner":"Ministry of Health","County":"Narok","Sub_County":"Narok South","Division":"Mulot","Location":"Tachasis","Sub_Locati":"Tachasis","Constituen":"NAROK SOUTH","Nearest_To":"Ololulunga","Latitude":"-0.78142","Longitude":"35.6425"},"geometry":{"type":"Point","coordinates":[35.6425,-0.78142]}},{"type":"Feature","properties":{"OBJECTID":"9401","Facility_N":"Takitech Dispensary","Type":"Dispensary","Owner":"Ministry of Health","County":"Narok","Sub_County":"Trans Mara East","Division":"Ololmasani","Location":"Olomasani","Sub_Locati":"Takitech","Constituen":"KILGORIS","Nearest_To":"Olchobosei Market","Latitude":"-0.96053","Longitude":"35.05436"},"geometry":{"type":"Point","coordinates":[35.05436,-0.96053]}},{"type":"Feature","properties":{"OBJECTID":"9406","Facility_N":"Talek Health Centre","Type":"Health Centre","Owner":"Other Faith Based","County":"Narok","Sub_County":"Narok South","Division":"Mara","Location":"Talek","Sub_Locati":"Talek","Constituen":"NAROK SOUTH","Nearest_To":"Talek Market","Latitude":"-1.35782","Longitude":"35.2244"},"geometry":{"type":"Point","coordinates":[35.2244,-1.35782]}},{"type":"Feature","properties":{"OBJECTID":"9627","Facility_N":"Tororek Dispensary","Type":"Dispensary","Owner":"Ministry of Health","County":"Narok","Sub_County":"Trans Mara West - Dikirr","Division":"Pirrar","Location":"Oronkai","Sub_Locati":"Oronkai","Constituen":"KILGORIS","Nearest_To":"Njipship","Latitude":"-1.00537","Longitude":"34.99665"},"geometry":{"type":"Point","coordinates":[34.99665,-1.00537]}},{"type":"Feature","properties":{"OBJECTID":"9640","Facility_N":"Transmara District Hospital","Type":"District Hospital","Owner":"Ministry of Health","County":"Narok","Sub_County":"Trans Mara West - Dikirr","Division":"Kilgoris","Location":"Ololchani","Sub_Locati":"Ololchani","Constituen":"KILGORIS","Nearest_To":"Kilgoris","Latitude":"-1.00471","Longitude":"34.87946"},"geometry":{"type":"Point","coordinates":[34.87946,-1.00471]}},{"type":"Feature","properties":{"OBJECTID":"9641","Facility_N":"Transmara Medicare","Type":"Other Hospital","Owner":"Private Enterprise (Institution)","County":"Narok","Sub_County":"Trans Mara West - Dikirr","Division":"Kilgoris","Location":"Olomismis","Sub_Locati":"Olomismis","Constituen":"KILGORIS","Nearest_To":"Kilgoris","Latitude":"-1.00797","Longitude":"34.88347"},"geometry":{"type":"Point","coordinates":[34.88347,-1.00797]}},{"type":"Feature","properties":{"OBJECTID":"10009","Facility_N":"Walking With Maasai Community Health Clinic (Olort","Type":"Medical Clinic","Owner":"Non-Governmental Organizations","County":"Narok","Sub_County":"Narok South","Division":"Loita","Location":"OLorte","Sub_Locati":"Olorte","Constituen":"NAROK SOUTH","Nearest_To":"Entasekera Market","Latitude":"-1.57335","Longitude":"35.50136"},"geometry":{"type":"Point","coordinates":[35.50136,-1.57335]}}]}