{"type":"FeatureCollection","features":[{"type":"Feature","properties":{"OBJECTID":"32","Facility_N":"Abidha Health Centre","Type":"Health Centre","Owner":"Ministry of Health","County":"Siaya","Sub_County":"Rarieda","Division":"Rarieda","Location":"East Asembo","Sub_Locati":"Omia Mwalo","Constituen":"RARIEDA","Nearest_To":"Asembo Bay","Latitude":"-0.15902","Longitude":"34.41064"},"geometry":{"type":"Point","coordinates":[34.41064,-0.15902]}},{"type":"Feature","properties":{"OBJECTID":"195","Facility_N":"Akala Health Centre","Type":"Health Centre","Owner":"Ministry of Health","County":"Siaya","Sub_County":"Gem","Division":"Wagai","Location":"South West Gem","Sub_Locati":"Ndori","Constituen":"GEM","Nearest_To":"Akala Market","Latitude":"0.05961","Longitude":"34.42139"},"geometry":{"type":"Point","coordinates":[34.42139,0.05961]}},{"type":"Feature","properties":{"OBJECTID":"256","Facility_N":"Almacy Medical  Clinic","Type":"Medical Clinic","Owner":"Private Practice - Nurse / Midwife","County":"Siaya","Sub_County":"Bondo","Division":"Usigu","Location":"W Yimbo","Sub_Locati":"Usenge","Constituen":"BONDO","Nearest_To":"Usenge","Latitude":"-0.06349","Longitude":"34.06152"},"geometry":{"type":"Point","coordinates":[34.06152,-0.06349]}},{"type":"Feature","properties":{"OBJECTID":"279","Facility_N":"Aluor Mission Health Centre","Type":"Health Centre","Owner":"Kenya Episcopal Conference-Catholic Secretariat","County":"Siaya","Sub_County":"Gem","Division":"Wagai","Location":"South Gem","Sub_Locati":"Onyinyore","Constituen":"GEM","Nearest_To":"Aluor Market","Latitude":"0.01047","Longitude":"34.465"},"geometry":{"type":"Point","coordinates":[34.465,0.01047]}},{"type":"Feature","properties":{"OBJECTID":"308","Facility_N":"Ambira Sub-District Hospital","Type":"Sub-District Hospital","Owner":"Ministry of Health","County":"Siaya","Sub_County":"Ugunja","Division":"Ugunja","Location":"Central Ugenya","Sub_Locati":"Ambira","Constituen":"UGENYA","Nearest_To":"Ugunja Market","Latitude":"0.17689","Longitude":"34.27269"},"geometry":{"type":"Point","coordinates":[34.27269,0.17689]}},{"type":"Feature","properties":{"OBJECTID":"363","Facility_N":"Anyuongi Dispensary","Type":"Dispensary","Owner":"Ministry of Health","County":"Siaya","Sub_County":"Bondo","Division":"Nyang'oma","Location":"South Sakwa","Sub_Locati":"East Miguena","Constituen":"BONDO","Nearest_To":"Anyuongi","Latitude":"-0.17618","Longitude":"34.27613"},"geometry":{"type":"Point","coordinates":[34.27613,-0.17618]}},{"type":"Feature","properties":{"OBJECTID":"368","Facility_N":"Apex Clinic","Type":"Dispensary","Owner":"Private Enterprise (Institution)","County":"Siaya","Sub_County":"Bondo","Division":"Usigu","Location":"W Yimbo","Sub_Locati":"Usenge","Constituen":"BONDO","Nearest_To":"Usenge","Latitude":"-0.06349","Longitude":"34.06152"},"geometry":{"type":"Point","coordinates":[34.06152,-0.06349]}},{"type":"Feature","properties":{"OBJECTID":"402","Facility_N":"Aro (SDA) Dispensary","Type":"Dispensary","Owner":"Christian Health Association of Kenya","County":"Siaya","Sub_County":"Bondo","Division":"Maranda","Location":"N Sakwa","Sub_Locati":"Abom","Constituen":"BONDO","Nearest_To":"Ndori","Latitude":"-0.06953","Longitude":"34.35579"},"geometry":{"type":"Point","coordinates":[34.35579,-0.06953]}},{"type":"Feature","properties":{"OBJECTID":"413","Facility_N":"Asayi Dispensary","Type":"Dispensary","Owner":"Ministry of Health","County":"Siaya","Sub_County":"Gem","Division":"Yala","Location":"Asayi","Sub_Locati":"Sirembe","Constituen":"GEM","Nearest_To":"Sirembe Market","Latitude":"0.1176","Longitude":"34.37246"},"geometry":{"type":"Point","coordinates":[34.37246,0.1176]}},{"type":"Feature","properties":{"OBJECTID":"414","Facility_N":"Asembo Bay Health Clinic (Rarieda)","Type":"Medical Clinic","Owner":"Private Practice - Clinical Officer","County":"Siaya","Sub_County":"Rarieda","Division":"Rarieda","Location":"East Asembo","Sub_Locati":"Omia Diere","Constituen":"RARIEDA","Nearest_To":"Kamito market","Latitude":"-0.1815","Longitude":"34.38582"},"geometry":{"type":"Point","coordinates":[34.38582,-0.1815]}},{"type":"Feature","properties":{"OBJECTID":"417","Facility_N":"Ashburn Ohuru Clinic","Type":"Medical Clinic","Owner":"Other Faith Based","County":"Siaya","Sub_County":"Siaya","Division":"Karemo","Location":"South East Alego","Sub_Locati":"siaya","Constituen":"ALEGO","Nearest_To":"Siaya Market","Latitude":"0.03228","Longitude":"34.31474"},"geometry":{"type":"Point","coordinates":[34.31474,0.03228]}},{"type":"Feature","properties":{"OBJECTID":"501","Facility_N":"Bama Hospital","Type":"Other Hospital","Owner":"Private Enterprise (Institution)","County":"Siaya","Sub_County":"Siaya","Division":"Karemo","Location":"Township","Sub_Locati":"Karapul","Constituen":"ALEGO","Nearest_To":"Siaya Town","Latitude":"0.05668","Longitude":"34.29407"},"geometry":{"type":"Point","coordinates":[34.29407,0.05668]}},{"type":"Feature","properties":{"OBJECTID":"520","Facility_N":"Bar Achuth Dispensary","Type":"Dispensary","Owner":"Ministry of Health","County":"Siaya","Sub_County":"Ugenya","Division":"Ukwala","Location":"North Ugenya","Sub_Locati":"Nyalenya","Constituen":"UGENYA","Nearest_To":"Ligingo","Latitude":"0.28968","Longitude":"34.17204"},"geometry":{"type":"Point","coordinates":[34.17204,0.28968]}},{"type":"Feature","properties":{"OBJECTID":"521","Facility_N":"Bar Agulu Dispensary","Type":"Dispensary","Owner":"Ministry of Health","County":"Siaya","Sub_County":"Siaya","Division":"Karemo","Location":"South East Alego","Sub_Locati":"Baragulu","Constituen":"ALEGO","Nearest_To":"Bar Agulu Market","Latitude":"0.04205","Longitude":"34.3338"},"geometry":{"type":"Point","coordinates":[34.3338,0.04205]}},{"type":"Feature","properties":{"OBJECTID":"522","Facility_N":"Bar Aluru Dispensary (Rarieda)","Type":"Dispensary","Owner":"Ministry of Health","County":"Siaya","Sub_County":"Rarieda","Division":"Rarieda","Location":"West Asembo","Sub_Locati":"Siger","Constituen":"RARIEDA","Nearest_To":"Lwak market","Latitude":"-0.119978","Longitude":"34.3383"},"geometry":{"type":"Point","coordinates":[34.3383,-0.119978]}},{"type":"Feature","properties":{"OBJECTID":"526","Facility_N":"Bar Ndege Dispensary","Type":"Dispensary","Owner":"Ministry of Health","County":"Siaya","Sub_County":"Ugenya","Division":"Ukwala","Location":"North East Ugenya","Sub_Locati":"Kathieno B","Constituen":"UGENYA","Nearest_To":"Kanyumba Market","Latitude":"-0.29962","Longitude":"34.34579"},"geometry":{"type":"Point","coordinates":[34.34579,-0.29962]}},{"type":"Feature","properties":{"OBJECTID":"527","Facility_N":"Bar Olengo Dispensary","Type":"Dispensary","Owner":"Ministry of Health","County":"Siaya","Sub_County":"Siaya","Division":"Karemo","Location":"South Alego","Sub_Locati":"Bar Olengo","Constituen":"ALEGO","Nearest_To":"Bar Olengo Market","Latitude":"0.015152","Longitude":"34.21078"},"geometry":{"type":"Point","coordinates":[34.21078,0.015152]}},{"type":"Feature","properties":{"OBJECTID":"560","Facility_N":"Barding Dispensary","Type":"Dispensary","Owner":"Ministry of Health","County":"Siaya","Sub_County":"Siaya","Division":"Karemo","Location":"South Alego","Sub_Locati":"Barding","Constituen":"ALEGO","Nearest_To":" Barding","Latitude":"0.01281","Longitude":"34.32742"},"geometry":{"type":"Point","coordinates":[34.32742,0.01281]}},{"type":"Feature","properties":{"OBJECTID":"574","Facility_N":"Bar-Sauri Dispensry","Type":"Health Centre","Owner":"Ministry of Health","County":"Siaya","Sub_County":"Gem","Division":"Yala","Location":"Township","Sub_Locati":"S.Gem","Constituen":"GEM","Nearest_To":"Sauri School","Latitude":"0.11125","Longitude":"34.52503"},"geometry":{"type":"Point","coordinates":[34.52503,0.11125]}},{"type":"Feature","properties":{"OBJECTID":"608","Facility_N":"Benga Bi Dispensary","Type":"Dispensary","Owner":"Ministry of Health","County":"Siaya","Sub_County":"Siaya","Division":"Uranga","Location":"South Alego","Sub_Locati":"Benga","Constituen":"ALEGO","Nearest_To":"Benga Market","Latitude":"0.09518","Longitude":"34.12491"},"geometry":{"type":"Point","coordinates":[34.12491,0.09518]}},{"type":"Feature","properties":{"OBJECTID":"727","Facility_N":"Bondo District Hospital","Type":"District Hospital","Owner":"Ministry of Health","County":"Siaya","Sub_County":"Bondo","Division":"Maranda","Location":"Bondo Township","Sub_Locati":"Nyawita","Constituen":"BONDO","Nearest_To":"Bondo","Latitude":"-0.09021","Longitude":"34.2745"},"geometry":{"type":"Point","coordinates":[34.2745,-0.09021]}},{"type":"Feature","properties":{"OBJECTID":"728","Facility_N":"Bondo Medical Clinic","Type":"Medical Clinic","Owner":"Private Enterprise (Institution)","County":"Siaya","Sub_County":"Bondo","Division":"Maranda","Location":"Bondo Township","Sub_Locati":"Bar Kowino","Constituen":"BONDO","Nearest_To":"Bondo","Latitude":"-0.0983","Longitude":"34.27539"},"geometry":{"type":"Point","coordinates":[34.27539,-0.0983]}},{"type":"Feature","properties":{"OBJECTID":"730","Facility_N":"Bondo University Clinic","Type":"Medical Clinic","Owner":"Academic (if registered)","County":"Siaya","Sub_County":"Bondo","Division":"Maranda","Location":"Bondo Township","Sub_Locati":"Barkowino","Constituen":"BONDO","Nearest_To":"Bondo Town","Latitude":"-0.0938","Longitude":"34.25786"},"geometry":{"type":"Point","coordinates":[34.25786,-0.0938]}},{"type":"Feature","properties":{"OBJECTID":"746","Facility_N":"Boro Dispensary","Type":"Dispensary","Owner":"Ministry of Health","County":"Siaya","Sub_County":"Siaya","Division":"Boro","Location":"Central","Sub_Locati":"Kakumu Kombewa","Constituen":"ALEGO","Nearest_To":"Boro Market Market","Latitude":"0.08843","Longitude":"34.23423"},"geometry":{"type":"Point","coordinates":[34.23423,0.08843]}},{"type":"Feature","properties":{"OBJECTID":"926","Facility_N":"CFW Clinic Ugunja","Type":"Medical Clinic","Owner":"Non-Governmental Organizations","County":"Siaya","Sub_County":"Ugunja","Division":"Ugunja","Location":"Ugunja","Sub_Locati":"Ugunja","Constituen":"UGENYA","Nearest_To":"Ugunja","Latitude":"0.180813","Longitude":"34.295271"},"geometry":{"type":"Point","coordinates":[34.295271,0.180813]}},{"type":"Feature","properties":{"OBJECTID":"1151","Facility_N":"Chianda Dispensary (Rarieda)","Type":"Dispensary","Owner":"Ministry of Health","County":"Siaya","Sub_County":"Rarieda","Division":"Madiany","Location":"East Uyoma","Sub_Locati":"West Katwenga","Constituen":"RARIEDA","Nearest_To":"Chianda market","Latitude":"-0.25589","Longitude":"34.35278"},"geometry":{"type":"Point","coordinates":[34.35278,-0.25589]}},{"type":"Feature","properties":{"OBJECTID":"1382","Facility_N":"Dienya Health Centre","Type":"Health Centre","Owner":"Ministry of Health","County":"Siaya","Sub_County":"Gem","Division":"Wagai","Location":"West Gem","Sub_Locati":"Dienya West","Constituen":"GEM","Nearest_To":"Dienya (Apuoyo) Market","Latitude":"0.00154","Longitude":"34.40699"},"geometry":{"type":"Point","coordinates":[34.40699,0.00154]}},{"type":"Feature","properties":{"OBJECTID":"1405","Facility_N":"Dolphil Nursing & Maternity Home","Type":"Other Hospital","Owner":"Christian Health Association of Kenya","County":"Siaya","Sub_County":"Gem","Division":"Yala","Location":"East Gem","Sub_Locati":"Lihanda","Constituen":"GEM","Nearest_To":"Luanda Market","Latitude":"0.04515","Longitude":"34.5611"},"geometry":{"type":"Point","coordinates":[34.5611,0.04515]}},{"type":"Feature","properties":{"OBJECTID":"2012","Facility_N":"Future Life Dispensary","Type":"Dispensary","Owner":"Other Faith Based","County":"Siaya","Sub_County":"Siaya","Division":"Karemo","Location":"south East Karemo","Sub_Locati":"Bar Agulu","Constituen":"ALEGO","Nearest_To":"Ndodi Market","Latitude":"0.03721","Longitude":"34.287"},"geometry":{"type":"Point","coordinates":[34.287,0.03721]}},{"type":"Feature","properties":{"OBJECTID":"2349","Facility_N":"Gobei  Health Centre","Type":"Health Centre","Owner":"Ministry of Health","County":"Siaya","Sub_County":"Bondo","Division":"Maranda","Location":"Bondo Township","Sub_Locati":"Ajigo","Constituen":"BONDO","Nearest_To":"Bondo","Latitude":"-0.09021","Longitude":"34.2905"},"geometry":{"type":"Point","coordinates":[34.2905,-0.09021]}},{"type":"Feature","properties":{"OBJECTID":"2358","Facility_N":"Gogo Disp","Type":"Dispensary","Owner":"Ministry of Health","County":"Siaya","Sub_County":"Gem","Division":"Yala","Location":"North Gem","Sub_Locati":"Lundha","Constituen":"GEM","Nearest_To":"Kodiaga Market","Latitude":"0.01772","Longitude":"34.42642"},"geometry":{"type":"Point","coordinates":[34.42642,0.01772]}},{"type":"Feature","properties":{"OBJECTID":"2360","Facility_N":"GOK Prison Siaya","Type":"Medical Clinic","Owner":"Other Public Institution","County":"Siaya","Sub_County":"Siaya","Division":"Karemo","Location":"Township","Sub_Locati":"Uogo","Constituen":"ALEGO","Nearest_To":"Siaya Town","Latitude":"0.05147","Longitude":"34.28706"},"geometry":{"type":"Point","coordinates":[34.28706,0.05147]}},{"type":"Feature","properties":{"OBJECTID":"2368","Facility_N":"Gongo Health Centre","Type":"Health Centre","Owner":"Ministry of Health","County":"Siaya","Sub_County":"Gem","Division":"Yala","Location":"central Gem","Sub_Locati":"Gongo","Constituen":"GEM","Nearest_To":"Migosi A","Latitude":"0.05877","Longitude":"34.47773"},"geometry":{"type":"Point","coordinates":[34.47773,0.05877]}},{"type":"Feature","properties":{"OBJECTID":"2394","Facility_N":"Got Agulu Sub-District Hospital","Type":"Sub-District Hospital","Owner":"Ministry of Health","County":"Siaya","Sub_County":"Bondo","Division":"Usigu","Location":"W Yimbo","Sub_Locati":"Got Agulu","Constituen":"BONDO","Nearest_To":"Usenge","Latitude":"-0.0341","Longitude":"34.0248"},"geometry":{"type":"Point","coordinates":[34.0248,-0.0341]}},{"type":"Feature","properties":{"OBJECTID":"2398","Facility_N":"Got Matar Dispensary","Type":"Dispensary","Owner":"Ministry of Health","County":"Siaya","Sub_County":"Bondo","Division":"Usigu","Location":"E Yimbo","Sub_Locati":"Othach","Constituen":"BONDO","Nearest_To":"Nyamonye","Latitude":"-0.0309","Longitude":"34.1315"},"geometry":{"type":"Point","coordinates":[34.1315,-0.0309]}},{"type":"Feature","properties":{"OBJECTID":"2401","Facility_N":"Got Regea Dispensary","Type":"Dispensary","Owner":"Ministry of Health","County":"Siaya","Sub_County":"Gem","Division":"Yala","Location":"North Gem","Sub_Locati":"Got Regea","Constituen":"GEM","Nearest_To":"Regea","Latitude":"0.13501","Longitude":"34.46762"},"geometry":{"type":"Point","coordinates":[34.46762,0.13501]}},{"type":"Feature","properties":{"OBJECTID":"2477","Facility_N":"Harmony Medical Clinic","Type":"Dispensary","Owner":"Private Practice - Nurse / Midwife","County":"Siaya","Sub_County":"Gem","Division":"Wagai","Location":"North West Gem","Sub_Locati":"Sirembe","Constituen":"GEM","Nearest_To":"Sirembe Market","Latitude":"0.09774","Longitude":"34.39921"},"geometry":{"type":"Point","coordinates":[34.39921,0.09774]}},{"type":"Feature","properties":{"OBJECTID":"2481","Facility_N":"Hawinga Health Centre","Type":"Health Centre","Owner":"Ministry of Health","County":"Siaya","Sub_County":"Siaya","Division":"Uranga","Location":"South West Alego","Sub_Locati":"Kaugagi","Constituen":"ALEGO","Nearest_To":"Hawinga Market","Latitude":"0.0876","Longitude":"34.16046"},"geometry":{"type":"Point","coordinates":[34.16046,0.0876]}},{"type":"Feature","properties":{"OBJECTID":"2515","Facility_N":"Hessed Clinic Masiro","Type":"Medical Clinic","Owner":"Private Practice - Nurse / Midwife","County":"Siaya","Sub_County":"Siaya","Division":"Sihay","Location":"Sihay","Sub_Locati":" ","Constituen":"UGENYA","Nearest_To":" ","Latitude":"0.15324","Longitude":"34.16074"},"geometry":{"type":"Point","coordinates":[34.16074,0.15324]}},{"type":"Feature","properties":{"OBJECTID":"2564","Facility_N":"Home Ground Nursing Home","Type":"Nursing Home","Owner":"Private Practice - Clinical Officer","County":"Siaya","Sub_County":"Ugunja","Division":"Ugunja","Location":"Central Ugenya","Sub_Locati":"Ugunja","Constituen":"UGENYA","Nearest_To":"Ugunja","Latitude":"0.10847","Longitude":"34.1707"},"geometry":{"type":"Point","coordinates":[34.1707,0.10847]}},{"type":"Feature","properties":{"OBJECTID":"2797","Facility_N":"Inuka Hospital & Maternity Home","Type":"Other Hospital","Owner":"Private Enterprise (Institution)","County":"Siaya","Sub_County":"Gem","Division":"Yala","Location":"North Gem","Sub_Locati":"Ndere","Constituen":"GEM","Nearest_To":"Ndere Market","Latitude":"0.14441","Longitude":"34.3982"},"geometry":{"type":"Point","coordinates":[34.3982,0.14441]}},{"type":"Feature","properties":{"OBJECTID":"2798","Facility_N":"Inuka Nursing Home","Type":"Medical Clinic","Owner":"Private Enterprise (Institution)","County":"Siaya","Sub_County":"Ugunja","Division":"Ugunja","Location":"West Uholo","Sub_Locati":"Ugunja","Constituen":"UGENYA","Nearest_To":"ugunja market","Latitude":"0.005","Longitude":"35.765"},"geometry":{"type":"Point","coordinates":[35.765,0.005]}},{"type":"Feature","properties":{"OBJECTID":"2908","Facility_N":"Jalsonga Medical Clinic","Type":"Medical Clinic","Owner":"Non-Governmental Organizations","County":"Siaya","Sub_County":"Siaya","Division":"Karemo","Location":"Township","Sub_Locati":"Township","Constituen":"ALEGO","Nearest_To":"Siaya Town","Latitude":"0.06086","Longitude":"34.28486"},"geometry":{"type":"Point","coordinates":[34.28486,0.06086]}},{"type":"Feature","properties":{"OBJECTID":"2923","Facility_N":"Jamii Clinical Services Clinic","Type":"Medical Clinic","Owner":"Private Practice - Clinical Officer","County":"Siaya","Sub_County":"Siaya","Division":"Karemo","Location":"Township","Sub_Locati":"Township","Constituen":"ALEGO","Nearest_To":"Siaya Town","Latitude":"0.06048","Longitude":"34.28555"},"geometry":{"type":"Point","coordinates":[34.28555,0.06048]}},{"type":"Feature","properties":{"OBJECTID":"2967","Facility_N":"Jera Dispensary","Type":"Dispensary","Owner":"Ministry of Health","County":"Siaya","Sub_County":"Ugenya","Division":"Ukwala","Location":"North East Ugenya","Sub_Locati":"Jera","Constituen":"UGENYA","Nearest_To":"Jera Market","Latitude":"0.2862","Longitude":"34.26382"},"geometry":{"type":"Point","coordinates":[34.26382,0.2862]}},{"type":"Feature","properties":{"OBJECTID":"3045","Facility_N":"Junction Clinic","Type":"Medical Clinic","Owner":"Private Practice - Clinical Officer","County":"Siaya","Sub_County":"Bondo","Division":"Maranda","Location":"Township","Sub_Locati":"Barkowino","Constituen":"BONDO","Nearest_To":"Bondo Town","Latitude":"-0.06117","Longitude":"34.16563"},"geometry":{"type":"Point","coordinates":[34.16563,-0.06117]}},{"type":"Feature","properties":{"OBJECTID":"3119","Facility_N":"Kabura Dispensary","Type":"Dispensary","Owner":"Ministry of Health","County":"Siaya","Sub_County":"Siaya","Division":"Uranga","Location":"South west alego","Sub_Locati":"Kabura Uhuji","Constituen":"ALEGO","Nearest_To":"Nduru market","Latitude":"0.13638","Longitude":"34.13259"},"geometry":{"type":"Point","coordinates":[34.13259,0.13638]}},{"type":"Feature","properties":{"OBJECTID":"3135","Facility_N":"Kadenge Ratuoro Health Centre","Type":"Health Centre","Owner":"Ministry of Health","County":"Siaya","Sub_County":"Siaya","Division":"Boro","Location":"Central Alego","Sub_Locati":"Kadenge","Constituen":"ALEGO","Nearest_To":"Kadenge Ratuoro","Latitude":"0.02373","Longitude":"34.17477"},"geometry":{"type":"Point","coordinates":[34.17477,0.02373]}},{"type":"Feature","properties":{"OBJECTID":"3175","Facility_N":"Kagwa Health Centre","Type":"Health Centre","Owner":"Ministry of Health","County":"Siaya","Sub_County":"Rarieda","Division":"Madiany","Location":"West Uyoma","Sub_Locati":"Kagwa","Constituen":"RARIEDA","Nearest_To":"Amoyo","Latitude":"-0.22851","Longitude":"34.25665"},"geometry":{"type":"Point","coordinates":[34.25665,-0.22851]}},{"type":"Feature","properties":{"OBJECTID":"3320","Facility_N":"Kaluo Dispensary","Type":"Dispensary","Owner":"Ministry of Health","County":"Siaya","Sub_County":"Siaya","Division":"Boro","Location":"Central Alego","Sub_Locati":"Nyalgunga","Constituen":"ALEGO","Nearest_To":"Hono Market","Latitude":"0.11195","Longitude":"34.33441"},"geometry":{"type":"Point","coordinates":[34.33441,0.11195]}},{"type":"Feature","properties":{"OBJECTID":"3358","Facility_N":"Kambajo Dispensary","Type":"Dispensary","Owner":"Ministry of Health","County":"Siaya","Sub_County":"Bondo","Division":"Maranda","Location":"W Sakwa","Sub_Locati":"Maranda","Constituen":"BONDO","Nearest_To":"Kambajo","Latitude":"-0.078944","Longitude":"34.21136"},"geometry":{"type":"Point","coordinates":[34.21136,-0.078944]}},{"type":"Feature","properties":{"OBJECTID":"3360","Facility_N":"Kambare Dispensary","Type":"Dispensary","Owner":"Ministry of Health","County":"Siaya","Sub_County":"Gem","Division":"Wagai","Location":"South Gem","Sub_Locati":"Kambare","Constituen":"GEM","Nearest_To":" ","Latitude":"-0.03225","Longitude":"34.4665"},"geometry":{"type":"Point","coordinates":[34.4665,-0.03225]}},{"type":"Feature","properties":{"OBJECTID":"3540","Facility_N":"Kapiyo Dispensary","Type":"Dispensary","Owner":"Ministry of Health","County":"Siaya","Sub_County":"Bondo","Division":"Maranda","Location":"Sw Sakwa","Sub_Locati":"Kapiyo","Constituen":"BONDO","Nearest_To":"Maranda","Latitude":"-0.08601","Longitude":"34.17491"},"geometry":{"type":"Point","coordinates":[34.17491,-0.08601]}},{"type":"Feature","properties":{"OBJECTID":"3773","Facility_N":"Karuoth Dispensary","Type":"Dispensary","Owner":"Ministry of Health","County":"Siaya","Sub_County":"Siaya","Division":"Boro","Location":"Central Alego","Sub_Locati":"Kakum Kombewa","Constituen":"ALEGO","Nearest_To":"Ndere Market","Latitude":"0.10758","Longitude":"34.28015"},"geometry":{"type":"Point","coordinates":[34.28015,0.10758]}},{"type":"Feature","properties":{"OBJECTID":"4774","Facility_N":"Kogelo Dispensary","Type":"Dispensary","Owner":"Ministry of Health","County":"Siaya","Sub_County":"Siaya","Division":"Karemo","Location":"South East Alego","Sub_Locati":"Nyangoma","Constituen":"ALEGO","Nearest_To":"Ng'Iya Township","Latitude":"0.00716","Longitude":"34.3448"},"geometry":{"type":"Point","coordinates":[34.3448,0.00716]}},{"type":"Feature","properties":{"OBJECTID":"4842","Facility_N":"Kopiata Beach Dispensary (Rarieda)","Type":"Dispensary","Owner":"Ministry of Health","County":"Siaya","Sub_County":"Rarieda","Division":"Madiany","Location":"East Uyoma","Sub_Locati":"East Katwenga","Constituen":"RARIEDA","Nearest_To":"Kopiata Beach","Latitude":"-0.31889","Longitude":"34.37009"},"geometry":{"type":"Point","coordinates":[34.37009,-0.31889]}},{"type":"Feature","properties":{"OBJECTID":"4843","Facility_N":"Kopolo Clinic","Type":"Dispensary","Owner":"Private Enterprise (Institution)","County":"Siaya","Sub_County":"Bondo","Division":"Nyang'oma","Location":"C Sakwa","Sub_Locati":"Nyangoma","Constituen":"BONDO","Nearest_To":"Nyang'oma","Latitude":"-0.009188","Longitude":"34.3469"},"geometry":{"type":"Point","coordinates":[34.3469,-0.009188]}},{"type":"Feature","properties":{"OBJECTID":"4895","Facility_N":"Kunya Dispensary","Type":"Dispensary","Owner":"Ministry of Health","County":"Siaya","Sub_County":"Rarieda","Division":"Madiany","Location":"East Uyoma","Sub_Locati":"Ragengni","Constituen":"RARIEDA","Nearest_To":"Ragengni","Latitude":"-0.28581","Longitude":"34.39937"},"geometry":{"type":"Point","coordinates":[34.39937,-0.28581]}},{"type":"Feature","properties":{"OBJECTID":"5115","Facility_N":"Lieta Health Centre (Rarieda)","Type":"Health Centre","Owner":"Ministry of Health","County":"Siaya","Sub_County":"Rarieda","Division":"Madiany","Location":"South Uyoma","Sub_Locati":"Lieta","Constituen":"RARIEDA","Nearest_To":" ","Latitude":"-0.28374","Longitude":"34.32313"},"geometry":{"type":"Point","coordinates":[34.32313,-0.28374]}},{"type":"Feature","properties":{"OBJECTID":"5120","Facility_N":"Ligega Health Centre","Type":"Health Centre","Owner":"Ministry of Health","County":"Siaya","Sub_County":"Ugunja","Division":"Ugunja","Location":"Central Ugenya","Sub_Locati":"Ligega","Constituen":"UGENYA","Nearest_To":"Ligega Market","Latitude":"0.2119","Longitude":"34.244"},"geometry":{"type":"Point","coordinates":[34.244,0.2119]}},{"type":"Feature","properties":{"OBJECTID":"5125","Facility_N":"Lihanda Health Centre","Type":"Health Centre","Owner":"Non-Governmental Organizations","County":"Siaya","Sub_County":"Gem","Division":"Yala","Location":"East Gem","Sub_Locati":"Lihanda","Constituen":"GEM","Nearest_To":"Lwanda Market","Latitude":"0.0404","Longitude":"34.50559"},"geometry":{"type":"Point","coordinates":[34.50559,0.0404]}},{"type":"Feature","properties":{"OBJECTID":"5338","Facility_N":"Mabinju Dispensary","Type":"Dispensary","Owner":"Ministry of Health","County":"Siaya","Sub_County":"Bondo","Division":"Nyang'oma","Location":"C Sakwa","Sub_Locati":"West Migwena","Constituen":"BONDO","Nearest_To":"Bondo","Latitude":"-0.13472","Longitude":"34.24136"},"geometry":{"type":"Point","coordinates":[34.24136,-0.13472]}},{"type":"Feature","properties":{"OBJECTID":"5362","Facility_N":"Madiany Sub County  Hospital","Type":"Sub-District Hospital","Owner":"Ministry of Health","County":"Siaya","Sub_County":"Rarieda","Division":"Madiany","Location":"East Uyoma","Sub_Locati":"W Katweng'A","Constituen":"RARIEDA","Nearest_To":"Madiany market","Latitude":"-0.28396","Longitude":"34.32304"},"geometry":{"type":"Point","coordinates":[34.32304,-0.28396]}},{"type":"Feature","properties":{"OBJECTID":"5383","Facility_N":"Mageta Dispensary","Type":"Dispensary","Owner":"Ministry of Health","County":"Siaya","Sub_County":"Bondo","Division":"Usigu","Location":"Mageta Island","Sub_Locati":"Mahanga","Constituen":"BONDO","Nearest_To":"Usenge","Latitude":"-0.1325","Longitude":"34.0103"},"geometry":{"type":"Point","coordinates":[34.0103,-0.1325]}},{"type":"Feature","properties":{"OBJECTID":"5404","Facility_N":"Mahaya Health Centre (Rarieda)","Type":"Health Centre","Owner":"Ministry of Health","County":"Siaya","Sub_County":"Rarieda","Division":"Rarieda","Location":"West Asembo","Sub_Locati":"Mahaya","Constituen":"RARIEDA","Nearest_To":"Kalandini","Latitude":"-0.16223","Longitude":"34.34066"},"geometry":{"type":"Point","coordinates":[34.34066,-0.16223]}},{"type":"Feature","properties":{"OBJECTID":"5510","Facility_N":"Malanga Health Centre","Type":"Health Centre","Owner":"Ministry of Health","County":"Siaya","Sub_County":"Gem","Division":"Yala","Location":"North Gem","Sub_Locati":"Malanga","Constituen":"GEM","Nearest_To":"Malanga Shopping Centre","Latitude":"0.11703","Longitude":"34.44843"},"geometry":{"type":"Point","coordinates":[34.44843,0.11703]}},{"type":"Feature","properties":{"OBJECTID":"5516","Facility_N":"Maliera Mission Dispensary","Type":"Dispensary","Owner":"Other Faith Based","County":"Siaya","Sub_County":"Gem","Division":"Yala","Location":"Yala Township","Sub_Locati":"North Gem","Constituen":"GEM","Nearest_To":"Kodiaga Market","Latitude":"0.06485","Longitude":"34.27233"},"geometry":{"type":"Point","coordinates":[34.27233,0.06485]}},{"type":"Feature","properties":{"OBJECTID":"5532","Facility_N":"Mama Anns Odede Community Health Centre","Type":"Health Centre","Owner":"Other Public Institution","County":"Siaya","Sub_County":"Rarieda","Division":"Madiany","Location":"North Uyoma","Sub_Locati":"Ochieng'a","Constituen":"RARIEDA","Nearest_To":"Rageng'ni","Latitude":"0.2474","Longitude":"34.35437"},"geometry":{"type":"Point","coordinates":[34.35437,0.2474]}},{"type":"Feature","properties":{"OBJECTID":"5595","Facility_N":"Manyuanda Health Centre (Rarieda)","Type":"Health Centre","Owner":"Ministry of Health","County":"Siaya","Sub_County":"Rarieda","Division":"Madiany","Location":"West Uyoma","Sub_Locati":"Uyoma Kokwiri","Constituen":"RARIEDA","Nearest_To":"Manyuanda","Latitude":"-0.25252","Longitude":"34.27609"},"geometry":{"type":"Point","coordinates":[34.27609,-0.25252]}},{"type":"Feature","properties":{"OBJECTID":"5596","Facility_N":"Manyuanda St Teresas CFW Clinic (Rarieda)","Type":"Medical Clinic","Owner":"Private Enterprise (Institution)","County":"Siaya","Sub_County":"Rarieda","Division":"Madiany","Location":"West Uyoma","Sub_Locati":"Nyabera","Constituen":"RARIEDA","Nearest_To":"Manyuanda","Latitude":"-0.326112","Longitude":"34.276"},"geometry":{"type":"Point","coordinates":[34.276,-0.326112]}},{"type":"Feature","properties":{"OBJECTID":"5629","Facility_N":"Marenyo Health Centre","Type":"Health Centre","Owner":"Ministry of Health","County":"Siaya","Sub_County":"Gem","Division":"Yala","Location":"Yala Township","Sub_Locati":"Marenyo","Constituen":"GEM","Nearest_To":"Yala Market","Latitude":"0.07641","Longitude":"34.55194"},"geometry":{"type":"Point","coordinates":[34.55194,0.07641]}},{"type":"Feature","properties":{"OBJECTID":"5737","Facility_N":"Masala Dispensary","Type":"Dispensary","Owner":"Ministry of Health","County":"Siaya","Sub_County":"Rarieda","Division":"Madiany","Location":"Central Uyoma","Sub_Locati":"Masala","Constituen":"RARIEDA","Nearest_To":"Anyuongi","Latitude":"-0.20811","Longitude":"34.29273"},"geometry":{"type":"Point","coordinates":[34.29273,-0.20811]}},{"type":"Feature","properties":{"OBJECTID":"5771","Facility_N":"Masumbi Dispensary","Type":"Dispensary","Owner":"Ministry of Health","County":"Siaya","Sub_County":"Siaya","Division":"Karemo","Location":"Nduru","Sub_Locati":"Nduru","Constituen":"ALEGO","Nearest_To":"Ngiya Market","Latitude":"0.0106","Longitude":"34.36116"},"geometry":{"type":"Point","coordinates":[34.36116,0.0106]}},{"type":"Feature","properties":{"OBJECTID":"5778","Facility_N":"Matangwe Community Health Centre","Type":"Health Centre","Owner":"Private Enterprise (Institution)","County":"Siaya","Sub_County":"Bondo","Division":"Maranda","Location":"Bondo Township","Sub_Locati":"Bar Kowino","Constituen":"BONDO","Nearest_To":"Bondo","Latitude":"-0.153782","Longitude":"34.289877"},"geometry":{"type":"Point","coordinates":[34.289877,-0.153782]}},{"type":"Feature","properties":{"OBJECTID":"5808","Facility_N":"Matibabu Nzoia Clinic","Type":"Dispensary","Owner":"Non-Governmental Organizations","County":"Siaya","Sub_County":"Ugunja","Division":"Ugunja","Location":"Central Ugenya","Sub_Locati":"Umala","Constituen":"UGENYA","Nearest_To":"Nzoia Market","Latitude":"0.17416","Longitude":"34.22775"},"geometry":{"type":"Point","coordinates":[34.22775,0.17416]}},{"type":"Feature","properties":{"OBJECTID":"5809","Facility_N":"Matibabu Ukwala Clinic","Type":"Dispensary","Owner":"Private Practice - General Practitioner","County":"Siaya","Sub_County":"Ugenya","Division":"Ukwala","Location":"Ukwala","Sub_Locati":"Doho East","Constituen":"UGENYA","Nearest_To":"Ukwala Market","Latitude":"0.20658","Longitude":"34.17871"},"geometry":{"type":"Point","coordinates":[34.17871,0.20658]}},{"type":"Feature","properties":{"OBJECTID":"5872","Facility_N":"Mawere Dispensary","Type":"Dispensary","Owner":"Ministry of Health","County":"Siaya","Sub_County":"Bondo","Division":"Maranda","Location":"N Sakwa","Sub_Locati":"Abom","Constituen":"BONDO","Nearest_To":"Ndori","Latitude":"-0.04655","Longitude":"34.3443"},"geometry":{"type":"Point","coordinates":[34.3443,-0.04655]}},{"type":"Feature","properties":{"OBJECTID":"5892","Facility_N":"Mbaga Health Centre","Type":"Health Centre","Owner":"Kenya Episcopal Conference-Catholic Secretariat","County":"Siaya","Sub_County":"Siaya","Division":"Boro","Location":"Central Alego","Sub_Locati":"Mbaga","Constituen":"ALEGO","Nearest_To":"Mbaga Shopping Centre","Latitude":"0.08298","Longitude":"34.27626"},"geometry":{"type":"Point","coordinates":[34.27626,0.08298]}},{"type":"Feature","properties":{"OBJECTID":"6110","Facility_N":"Midhine Dispensary","Type":"Dispensary","Owner":"Ministry of Health","County":"Siaya","Sub_County":"Gem","Division":"Yala","Location":"East Gem","Sub_Locati":"Lihanda","Constituen":"GEM","Nearest_To":"Sagam Shopping Centre","Latitude":"0.0475","Longitude":"34.53381"},"geometry":{"type":"Point","coordinates":[34.53381,0.0475]}},{"type":"Feature","properties":{"OBJECTID":"6191","Facility_N":"Misori Dispensary","Type":"Dispensary","Owner":"Ministry of Health","County":"Siaya","Sub_County":"Rarieda","Division":"Madiany","Location":"West Uyoma","Sub_Locati":"Nyabera","Constituen":"RARIEDA","Nearest_To":"Misori Beach","Latitude":"-0.31856","Longitude":"34.278"},"geometry":{"type":"Point","coordinates":[34.278,-0.31856]}},{"type":"Feature","properties":{"OBJECTID":"6521","Facility_N":"Mulaha Dispensary","Type":"Dispensary","Owner":"Ministry of Health","County":"Siaya","Sub_County":"Siaya","Division":"Karemo","Location":"Township","Sub_Locati":"Mulaha","Constituen":"ALEGO","Nearest_To":"Awelo Market","Latitude":"0.02967","Longitude":"34.15618"},"geometry":{"type":"Point","coordinates":[34.15618,0.02967]}},{"type":"Feature","properties":{"OBJECTID":"6591","Facility_N":"Mur Malanga Dispensary","Type":"Dispensary","Owner":"Ministry of Health","County":"Siaya","Sub_County":"Siaya","Division":"Kaermo","Location":"South Alego","Sub_Locati":"Mur Malanga","Constituen":"ALEGO","Nearest_To":"Mur Malanga Market","Latitude":"-0.00248","Longitude":"34.25229"},"geometry":{"type":"Point","coordinates":[34.25229,-0.00248]}},{"type":"Feature","properties":{"OBJECTID":"6811","Facility_N":"Mwer Dispensary","Type":"Dispensary","Owner":"Ministry of Health","County":"Siaya","Sub_County":"Siaya","Division":"Uranga","Location":"Central Alego","Sub_Locati":"Mwer","Constituen":"ALEGO","Nearest_To":"Mwer Shopping Centre","Latitude":"0.10804","Longitude":"34.1864"},"geometry":{"type":"Point","coordinates":[34.1864,0.10804]}},{"type":"Feature","properties":{"OBJECTID":"7002","Facility_N":"Naya Health Centre","Type":"Health Centre","Owner":"Ministry of Health","County":"Siaya","Sub_County":"Rarieda","Division":"Madiany","Location":"South Uyoma","Sub_Locati":"Naya","Constituen":"RARIEDA","Nearest_To":"Lwanda Kotieno","Latitude":"-0.36255","Longitude":"34.3121"},"geometry":{"type":"Point","coordinates":[34.3121,-0.36255]}},{"type":"Feature","properties":{"OBJECTID":"7034","Facility_N":"Ndeda Dispensary","Type":"Dispensary","Owner":"Ministry of Health","County":"Siaya","Sub_County":"Bondo","Division":"Nyang'oma","Location":"C Sakwa","Sub_Locati":"Ndeda /Oyamo","Constituen":"BONDO","Nearest_To":"Liunda Beach","Latitude":"-0.218546","Longitude":"34.118499"},"geometry":{"type":"Point","coordinates":[34.118499,-0.218546]}},{"type":"Feature","properties":{"OBJECTID":"7045","Facility_N":"Ndere Health Centre","Type":"Health Centre","Owner":"Ministry of Health","County":"Siaya","Sub_County":"Gem","Division":"Yala","Location":"North Gem","Sub_Locati":"Ndere","Constituen":"GEM","Nearest_To":"Sidindi Shopping Centre","Latitude":"0.13766","Longitude":"34.38299"},"geometry":{"type":"Point","coordinates":[34.38299,0.13766]}},{"type":"Feature","properties":{"OBJECTID":"7069","Facility_N":"Ndori Health Centre","Type":"Health Centre","Owner":"Ministry of Health","County":"Siaya","Sub_County":"Rarieda","Division":"Rarieda","Location":"Central Asembo","Sub_Locati":"Ramba North","Constituen":"RARIEDA","Nearest_To":"Ndori","Latitude":"-0.06975","Longitude":"34.37752"},"geometry":{"type":"Point","coordinates":[34.37752,-0.06975]}},{"type":"Feature","properties":{"OBJECTID":"7235","Facility_N":"Ng'iya Health Centre","Type":"Health Centre","Owner":"Kenya Episcopal Conference-Catholic Secretariat","County":"Siaya","Sub_County":"Siaya","Division":"Karemo","Location":"South East Alego","Sub_Locati":"Mur Ngiya","Constituen":"ALEGO","Nearest_To":"Ng'Iya Township","Latitude":"-0.04497","Longitude":"34.37273"},"geometry":{"type":"Point","coordinates":[34.37273,-0.04497]}},{"type":"Feature","properties":{"OBJECTID":"7263","Facility_N":"Nguge Dispensary","Type":"Dispensary","Owner":"Ministry of Health","County":"Siaya","Sub_County":"Gem","Division":"Wagai","Location":"West Gem","Sub_Locati":"Nguge","Constituen":"GEM","Nearest_To":" ","Latitude":"0.00187","Longitude":"34.42391"},"geometry":{"type":"Point","coordinates":[34.42391,0.00187]}},{"type":"Feature","properties":{"OBJECTID":"7417","Facility_N":"Nyadhi Dispensary","Type":"Dispensary","Owner":"Ministry of Health","County":"Siaya","Sub_County":"Siaya","Division":"Boro","Location":"Central Alego","Sub_Locati":"Kakum Kombewa","Constituen":"ALEGO","Nearest_To":"Kobare Market","Latitude":"0.08238","Longitude":"34.18002"},"geometry":{"type":"Point","coordinates":[34.18002,0.08238]}},{"type":"Feature","properties":{"OBJECTID":"7425","Facility_N":"Nyagoko Dispensary","Type":"Dispensary","Owner":"Ministry of Health","County":"Siaya","Sub_County":"Rarieda","Division":"Rarieda","Location":"South Asembo","Sub_Locati":"Nyagoko","Constituen":"RARIEDA","Nearest_To":"Anyuongi","Latitude":"-0.17535","Longitude":"34.29557"},"geometry":{"type":"Point","coordinates":[34.29557,-0.17535]}},{"type":"Feature","properties":{"OBJECTID":"7429","Facility_N":"Nyaguda Dispensary","Type":"Dispensary","Owner":"Ministry of Health","County":"Siaya","Sub_County":"Bondo","Division":"Nyang'oma","Location":"S Sakwa","Sub_Locati":"Nyaguda","Constituen":"BONDO","Nearest_To":" Wich lum Beach","Latitude":"-0.21243","Longitude":"34.21883"},"geometry":{"type":"Point","coordinates":[34.21883,-0.21243]}},{"type":"Feature","properties":{"OBJECTID":"7479","Facility_N":"Nyambare Health Centre","Type":"Health Centre","Owner":"Christian Health Association of Kenya","County":"Siaya","Sub_County":"Siaya","Division":"Uranga","Location":"Usonga","Sub_Locati":"Nyadorera A","Constituen":"ALEGO","Nearest_To":"Nyadorera Market","Latitude":"0.13342","Longitude":"34.10204"},"geometry":{"type":"Point","coordinates":[34.10204,0.13342]}},{"type":"Feature","properties":{"OBJECTID":"7496","Facility_N":"Nyamonye Mission Dispensary","Type":"Dispensary","Owner":"Kenya Episcopal Conference-Catholic Secretariat","County":"Siaya","Sub_County":"Bondo","Division":"Usigu","Location":"N Yimbo","Sub_Locati":"Nyamonye","Constituen":"BONDO","Nearest_To":"Nyamonye","Latitude":"-0.05125","Longitude":"34.13787"},"geometry":{"type":"Point","coordinates":[34.13787,-0.05125]}},{"type":"Feature","properties":{"OBJECTID":"7507","Facility_N":"Nyandusi","Type":"Maternity Home","Owner":"Private Practice - Nurse / Midwife","County":"Siaya","Sub_County":"Bondo","Division":"Maranda","Location":"South West Sakwa","Sub_Locati":"Kapiyo","Constituen":"BONDO","Nearest_To":"Nyandusi Village","Latitude":"-0.10618","Longitude":"34.14956"},"geometry":{"type":"Point","coordinates":[34.14956,-0.10618]}},{"type":"Feature","properties":{"OBJECTID":"7508","Facility_N":"Nyandwela Medical Clinic","Type":"Medical Clinic","Owner":"Private Practice - Clinical Officer","County":"Siaya","Sub_County":"Bondo","Division":"Nyang'oma","Location":"North Sakwa","Sub_Locati":"Nyaguda","Constituen":"BONDO","Nearest_To":"Wichlum Beach Market","Latitude":"0.23757","Longitude":"34.21159"},"geometry":{"type":"Point","coordinates":[34.21159,0.23757]}},{"type":"Feature","properties":{"OBJECTID":"7518","Facility_N":"Nyang'oma Mission Health Centre","Type":"Health Centre","Owner":"Kenya Episcopal Conference-Catholic Secretariat","County":"Siaya","Sub_County":"Bondo","Division":"Nyang'oma","Location":"C Sakwa","Sub_Locati":"Nyangoma","Constituen":"BONDO","Nearest_To":"Nyang'oma","Latitude":"-0.15457","Longitude":"34.19475"},"geometry":{"type":"Point","coordinates":[34.19475,-0.15457]}},{"type":"Feature","properties":{"OBJECTID":"7521","Facility_N":"Nyangu Dispensary","Type":"Dispensary","Owner":"Ministry of Health","County":"Siaya","Sub_County":"Ugenya","Division":"Ukwala","Location":"North W Ugenya","Sub_Locati":"Ramunde","Constituen":"UGENYA","Nearest_To":"Ukwala Shopping Centre","Latitude":"0.22488","Longitude":"34.13531"},"geometry":{"type":"Point","coordinates":[34.13531,0.22488]}},{"type":"Feature","properties":{"OBJECTID":"7548","Facility_N":"Nyathengo Dispensary","Type":"Dispensary","Owner":"Ministry of Health","County":"Siaya","Sub_County":"Siaya","Division":"Karemo","Location":"East Alego","Sub_Locati":"Olwa","Constituen":"ALEGO","Nearest_To":"Nyagondo Shopping Centre","Latitude":"0.05181","Longitude":"34.36196"},"geometry":{"type":"Point","coordinates":[34.36196,0.05181]}},{"type":"Feature","properties":{"OBJECTID":"7554","Facility_N":"Nyawara Health Centre","Type":"Health Centre","Owner":"Ministry of Health","County":"Siaya","Sub_County":"Gem","Division":"Yala","Location":"Central Gem","Sub_Locati":"Nyyawara","Constituen":"GEM","Nearest_To":"Yala Township","Latitude":"0.09451","Longitude":"34.4888"},"geometry":{"type":"Point","coordinates":[34.4888,0.09451]}},{"type":"Feature","properties":{"OBJECTID":"7558","Facility_N":"Nyayiera Dispensary","Type":"Dispensary","Owner":"Ministry of Health","County":"Siaya","Sub_County":"Rarieda","Division":"Rarieda","Location":"Central Asembo","Sub_Locati":"South Ramba","Constituen":"RARIEDA","Nearest_To":"Oyude market","Latitude":"-0.10514","Longitude":"34.38304"},"geometry":{"type":"Point","coordinates":[34.38304,-0.10514]}},{"type":"Feature","properties":{"OBJECTID":"7559","Facility_N":"Nyenye Misori Dispensary","Type":"Dispensary","Owner":"Ministry of Health","County":"Siaya","Sub_County":"Bondo","Division":"Usigu","Location":"W Yimbo","Sub_Locati":"Usenge","Constituen":"BONDO","Nearest_To":"Usenge","Latitude":"-0.10144","Longitude":"34.06874"},"geometry":{"type":"Point","coordinates":[34.06874,-0.10144]}},{"type":"Feature","properties":{"OBJECTID":"7650","Facility_N":"Oding Dispensary","Type":"Dispensary","Owner":"Ministry of Health","County":"Siaya","Sub_County":"Gem","Division":"Yala","Location":"East Gem","Sub_Locati":"Uranga","Constituen":"GEM","Nearest_To":"Lwanda Market","Latitude":"0.02241","Longitude":"34.49949"},"geometry":{"type":"Point","coordinates":[34.49949,0.02241]}},{"type":"Feature","properties":{"OBJECTID":"7653","Facility_N":"Ogam Dispensary","Type":"Dispensary","Owner":"Ministry of Health","County":"Siaya","Sub_County":"Bondo","Division":"Usigu","Location":"N Yimbo","Sub_Locati":"Bar Kanyango","Constituen":"BONDO","Nearest_To":"Nyamonye","Latitude":"-0.02632","Longitude":"34.12472"},"geometry":{"type":"Point","coordinates":[34.12472,-0.02632]}},{"type":"Feature","properties":{"OBJECTID":"7661","Facility_N":"Ogero Dispensary","Type":"Dispensary","Owner":"Ministry of Health","County":"Siaya","Sub_County":"Gem","Division":"Wagai","Location":"South Gem","Sub_Locati":"Gombe","Constituen":"GEM","Nearest_To":"Migosi Market","Latitude":"0.00552","Longitude":"34.4828"},"geometry":{"type":"Point","coordinates":[34.4828,0.00552]}},{"type":"Feature","properties":{"OBJECTID":"7802","Facility_N":"Ong'ielo Health Centre","Type":"Health Centre","Owner":"Ministry of Health","County":"Siaya","Sub_County":"Rarieda","Division":"Rarieda","Location":"East Asembo","Sub_Locati":"Omia Malo","Constituen":"RARIEDA","Nearest_To":"Kalandin","Latitude":"-0.16875","Longitude":"34.37778"},"geometry":{"type":"Point","coordinates":[34.37778,-0.16875]}},{"type":"Feature","properties":{"OBJECTID":"7854","Facility_N":"Othach Dispensary","Type":"Dispensary","Owner":"Ministry of Health","County":"Siaya","Sub_County":"Bondo","Division":"Usigu","Location":"E Yimbo","Sub_Locati":"Othach","Constituen":"BONDO","Nearest_To":"Nyamonye","Latitude":"-0.050586","Longitude":"34.20696"},"geometry":{"type":"Point","coordinates":[34.20696,-0.050586]}},{"type":"Feature","properties":{"OBJECTID":"7870","Facility_N":"Ouya Dispensary","Type":"Dispensary","Owner":"Ministry of Health","County":"Siaya","Sub_County":"Bondo","Division":"Nyang'Oma","Location":"S Sakwa","Sub_Locati":"Got Abiero","Constituen":"BONDO","Nearest_To":"Anyuongi","Latitude":"-0.18844","Longitude":"34.24527"},"geometry":{"type":"Point","coordinates":[34.24527,-0.18844]}},{"type":"Feature","properties":{"OBJECTID":"7871","Facility_N":"Owens Nursing Home","Type":"Nursing Home","Owner":"Private Enterprise (Institution)","County":"Siaya","Sub_County":"Bondo","Division":"Maranda","Location":"Towwnship","Sub_Locati":"Bar Kowino","Constituen":"BONDO","Nearest_To":"Bondo","Latitude":"-0.10985","Longitude":"34.2696"},"geometry":{"type":"Point","coordinates":[34.2696,-0.10985]}},{"type":"Feature","properties":{"OBJECTID":"7872","Facility_N":"Oyamo Dispensary","Type":"Dispensary","Owner":"Ministry of Health","County":"Siaya","Sub_County":"Bondo","Division":"Nyang'Oma","Location":"C Sakwa","Sub_Locati":"Ndeda/Oyamo","Constituen":"BONDO","Nearest_To":"Liunda Beach","Latitude":"-0.190999","Longitude":"34.2387"},"geometry":{"type":"Point","coordinates":[34.2387,-0.190999]}},{"type":"Feature","properties":{"OBJECTID":"7905","Facility_N":"Pap Kodero Health Centre","Type":"Health Centre","Owner":"Ministry of Health","County":"Siaya","Sub_County":"Rarieda","Division":"Madiany","Location":"Central Uyoma","Sub_Locati":"Kobong'","Constituen":"RARIEDA","Nearest_To":"Madiany","Latitude":"-0.24657","Longitude":"34.32236"},"geometry":{"type":"Point","coordinates":[34.32236,-0.24657]}},{"type":"Feature","properties":{"OBJECTID":"7928","Facility_N":"Paula Nursing Home","Type":"Health Centre","Owner":"Private Enterprise (Institution)","County":"Siaya","Sub_County":"Siaya","Division":"Karemo","Location":"Township","Sub_Locati":"Township","Constituen":"ALEGO","Nearest_To":"Siaya Town","Latitude":"0.05291","Longitude":"34.28883"},"geometry":{"type":"Point","coordinates":[34.28883,0.05291]}},{"type":"Feature","properties":{"OBJECTID":"8030","Facility_N":"Port Florence Clinic","Type":"Medical Clinic","Owner":"Private Practice - General Practitioner","County":"Siaya","Sub_County":"Siaya","Division":"Karemo","Location":"Township","Sub_Locati":"Township","Constituen":"ALEGO","Nearest_To":"Siaya","Latitude":"0.05627","Longitude":"34.29105"},"geometry":{"type":"Point","coordinates":[34.29105,0.05627]}},{"type":"Feature","properties":{"OBJECTID":"8119","Facility_N":"Rabar Dispensary","Type":"Dispensary","Owner":"Ministry of Health","County":"Siaya","Sub_County":"Siaya","Division":"Uranga","Location":"West Alego","Sub_Locati":"Uradi","Constituen":"ALEGO","Nearest_To":"Rabar Shopping Centre","Latitude":"0.14334","Longitude":"34.19299"},"geometry":{"type":"Point","coordinates":[34.19299,0.14334]}},{"type":"Feature","properties":{"OBJECTID":"8131","Facility_N":"Radier Dispensary","Type":"Dispensary","Owner":"Ministry of Health","County":"Siaya","Sub_County":"Bondo","Division":"Usigu","Location":"C Yimbo","Sub_Locati":"Got Ramogi","Constituen":"BONDO","Nearest_To":"Usenge","Latitude":"-0.02495","Longitude":"34.07347"},"geometry":{"type":"Point","coordinates":[34.07347,-0.02495]}},{"type":"Feature","properties":{"OBJECTID":"8140","Facility_N":"Rageng'ni Dispensary","Type":"Dispensary","Owner":"Ministry of Health","County":"Siaya","Sub_County":"Rarieda","Division":"Madiany","Location":"East Uyoma","Sub_Locati":"Ragengni","Constituen":"RARIEDA","Nearest_To":"Ragengni","Latitude":"-0.28196","Longitude":"34.38472"},"geometry":{"type":"Point","coordinates":[34.38472,-0.28196]}},{"type":"Feature","properties":{"OBJECTID":"8159","Facility_N":"Rambugu Dispensary (Rarieda)","Type":"Dispensary","Owner":"Ministry of Health","County":"Siaya","Sub_County":"Rarieda","Division":"Rarieda","Location":"West Asembo","Sub_Locati":"Siger","Constituen":"RARIEDA","Nearest_To":"Ajigo Market","Latitude":"-0.09399","Longitude":"34.35616"},"geometry":{"type":"Point","coordinates":[34.35616,-0.09399]}},{"type":"Feature","properties":{"OBJECTID":"8160","Facility_N":"Rambula Dispensary","Type":"Dispensary","Owner":"Ministry of Health","County":"Siaya","Sub_County":"Ugunja","Division":"Ugunja","Location":"N West Ugenya","Sub_Locati":"Rambula","Constituen":"UGENYA","Nearest_To":"Rambula Market","Latitude":"0.20667","Longitude":"34.3044"},"geometry":{"type":"Point","coordinates":[34.3044,0.20667]}},{"type":"Feature","properties":{"OBJECTID":"8163","Facility_N":"Ramula Health Centre","Type":"Health Centre","Owner":"Ministry of Health","County":"Siaya","Sub_County":"Gem","Division":"Yala","Location":"East Gem","Sub_Locati":"Ramula","Constituen":"GEM","Nearest_To":"Ramula Shoping C","Latitude":"0.00116","Longitude":"34.52851"},"geometry":{"type":"Point","coordinates":[34.52851,0.00116]}},{"type":"Feature","properties":{"OBJECTID":"8164","Facility_N":"Randago Dispensary","Type":"Dispensary","Owner":"Ministry of Health","County":"Siaya","Sub_County":"Siaya","Division":"Karemo","Location":"South Alego","Sub_Locati":"Randago","Constituen":"ALEGO","Nearest_To":"Randago Market","Latitude":"0.01429","Longitude":"34.29287"},"geometry":{"type":"Point","coordinates":[34.29287,0.01429]}},{"type":"Feature","properties":{"OBJECTID":"8167","Facility_N":"Rangala Health Centre","Type":"Health Centre","Owner":"Kenya Episcopal Conference-Catholic Secretariat","County":"Siaya","Sub_County":"Ugunja","Division":"Ugunja","Location":"South Ugenya","Sub_Locati":"Rangala","Constituen":"UGENYA","Nearest_To":"Rang'Ala Shopping Centre","Latitude":"0.15529","Longitude":"34.33179"},"geometry":{"type":"Point","coordinates":[34.33179,0.15529]}},{"type":"Feature","properties":{"OBJECTID":"8225","Facility_N":"Relief Medical Clinic","Type":"Medical Clinic","Owner":"Private Practice - Clinical Officer","County":"Siaya","Sub_County":"Bondo","Division":"Maranda","Location":"Bondo Township","Sub_Locati":"Barkowino","Constituen":"BONDO","Nearest_To":"Bondo town area","Latitude":"0.09862","Longitude":"34.27522"},"geometry":{"type":"Point","coordinates":[34.27522,0.09862]}},{"type":"Feature","properties":{"OBJECTID":"8232","Facility_N":"Rera Dispensary","Type":"Dispensary","Owner":"Ministry of Health","County":"Siaya","Sub_County":"Gem","Division":"Wagai","Location":"South Gem","Sub_Locati":"Rera","Constituen":"GEM","Nearest_To":"Aluor Market","Latitude":"-0.00521","Longitude":"34.448"},"geometry":{"type":"Point","coordinates":[34.448,-0.00521]}},{"type":"Feature","properties":{"OBJECTID":"8284","Facility_N":"Riyadh Medical Clinic","Type":"Medical Clinic","Owner":"Private Practice - Nurse / Midwife","County":"Siaya","Sub_County":"Ugenya","Division":"Ukwala","Location":"Ukwala","Sub_Locati":"Ukwala","Constituen":"UGENYA","Nearest_To":"Ukwala Market","Latitude":"0.21003","Longitude":"34.18606"},"geometry":{"type":"Point","coordinates":[34.18606,0.21003]}},{"type":"Feature","properties":{"OBJECTID":"8369","Facility_N":"Ruma Youth Friendly VCT (Rarieda)","Type":"VCT Centre (Stand-Alone)","Owner":"Private Enterprise (Institution)","County":"Siaya","Sub_County":"Rarieda","Division":"Madiany","Location":"Central Uyoma","Sub_Locati":"Masala","Constituen":"RARIEDA","Nearest_To":"Aram Market","Latitude":"-0.22119","Longitude":"34.33526"},"geometry":{"type":"Point","coordinates":[34.33526,-0.22119]}},{"type":"Feature","properties":{"OBJECTID":"8393","Facility_N":"Rwambwa Health Centre","Type":"Health Centre","Owner":"Ministry of Health","County":"Siaya","Sub_County":"Siaya","Division":"Uranga","Location":"Usonga","Sub_Locati":"Nyadorera","Constituen":"ALEGO","Nearest_To":"Nyadorera Market","Latitude":"0.11455","Longitude":"34.09324"},"geometry":{"type":"Point","coordinates":[34.09324,0.11455]}},{"type":"Feature","properties":{"OBJECTID":"8430","Facility_N":"Sagam Community Hospital","Type":"Other Hospital","Owner":"Private Enterprise (Institution)","County":"Siaya","Sub_County":"Gem","Division":"Yala","Location":"East Gem","Sub_Locati":"Lihanda","Constituen":"GEM","Nearest_To":"Sagam","Latitude":"0.05607","Longitude":"34.54176"},"geometry":{"type":"Point","coordinates":[34.54176,0.05607]}},{"type":"Feature","properties":{"OBJECTID":"8514","Facility_N":"Saradidi Dispensary","Type":"Dispensary","Owner":"Ministry of Health","County":"Siaya","Sub_County":"Rarieda","Division":"Rarieda","Location":"Central Asembo","Sub_Locati":"Memba","Constituen":"RARIEDA","Nearest_To":"Nyilima","Latitude":"-0.11288","Longitude":"34.39692"},"geometry":{"type":"Point","coordinates":[34.39692,-0.11288]}},{"type":"Feature","properties":{"OBJECTID":"8551","Facility_N":"Sega Cottage Hospital","Type":"Dispensary","Owner":"Ministry of Health","County":"Siaya","Sub_County":"Ugenya","Division":"Ukwala","Location":"North Ugenya","Sub_Locati":"Sega","Constituen":"UGENYA","Nearest_To":"Sega Township","Latitude":"0.25934","Longitude":"34.22549"},"geometry":{"type":"Point","coordinates":[34.22549,0.25934]}},{"type":"Feature","properties":{"OBJECTID":"8552","Facility_N":"Sega Dispensary","Type":"Health Centre","Owner":"Kenya Episcopal Conference-Catholic Secretariat","County":"Siaya","Sub_County":"Ugenya","Division":"Ukwala","Location":"North Ugenya","Sub_Locati":"Sega","Constituen":"UGENYA","Nearest_To":"Sega Township","Latitude":"0.26353","Longitude":"34.2271"},"geometry":{"type":"Point","coordinates":[34.2271,0.26353]}},{"type":"Feature","properties":{"OBJECTID":"8553","Facility_N":"Sega Health Centre","Type":"Other Hospital","Owner":"Private Enterprise (Institution)","County":"Siaya","Sub_County":"Ugenya","Division":"Ukwala","Location":"North Ugenya","Sub_Locati":"Sega","Constituen":"UGENYA","Nearest_To":"Sega Township","Latitude":"0.26353","Longitude":"34.2271"},"geometry":{"type":"Point","coordinates":[34.2271,0.26353]}},{"type":"Feature","properties":{"OBJECTID":"8555","Facility_N":"Segere Dispensary","Type":"Dispensary","Owner":"Ministry of Health","County":"Siaya","Sub_County":"Siaya","Division":"Boro","Location":"Boro","Sub_Locati":"S.Alego","Constituen":"ALEGO","Nearest_To":"Boro Market","Latitude":"0.11233","Longitude":"34.24462"},"geometry":{"type":"Point","coordinates":[34.24462,0.11233]}},{"type":"Feature","properties":{"OBJECTID":"8576","Facility_N":"Serawongo Dispensary","Type":"Dispensary","Owner":"Ministry of Health","County":"Siaya","Sub_County":"Bondo","Division":"Nyang'Oma","Location":"C Sakwa","Sub_Locati":"Uyawi","Constituen":"BONDO","Nearest_To":"Nango","Latitude":"-0.15221","Longitude":"34.13437"},"geometry":{"type":"Point","coordinates":[34.13437,-0.15221]}},{"type":"Feature","properties":{"OBJECTID":"8697","Facility_N":"Siala Kaduol","Type":"Dispensary","Owner":"Ministry of Health","County":"Siaya","Sub_County":"Gem","Division":"Wagai","Location":"South Gem","Sub_Locati":"Onyinyore","Constituen":"GEM","Nearest_To":"Akala","Latitude":"0.0122","Longitude":"34.46104"},"geometry":{"type":"Point","coordinates":[34.46104,0.0122]}},{"type":"Feature","properties":{"OBJECTID":"8699","Facility_N":"Siaya County Referral Beyond Zero Moble Clinic Dispensary","Type":"Dispensary","Owner":"Ministry of Health","County":"Siaya","Sub_County":"Siaya","Division":" ","Location":" ","Sub_Locati":" ","Constituen":"ALEGO","Nearest_To":" ","Latitude":"0.06313","Longitude":"34.2839"},"geometry":{"type":"Point","coordinates":[34.2839,0.06313]}},{"type":"Feature","properties":{"OBJECTID":"8700","Facility_N":"Siaya District Hospital","Type":"District Hospital","Owner":"Ministry of Health","County":"Siaya","Sub_County":"Siaya","Division":"Karemo","Location":"Township","Sub_Locati":"Mulaha","Constituen":"ALEGO","Nearest_To":"Siaya","Latitude":"0.06313","Longitude":"34.2839"},"geometry":{"type":"Point","coordinates":[34.2839,0.06313]}},{"type":"Feature","properties":{"OBJECTID":"8701","Facility_N":"Siaya Medical Centre","Type":"Other Hospital","Owner":"Private Enterprise (Institution)","County":"Siaya","Sub_County":"Siaya","Division":"Karemo","Location":"Township","Sub_Locati":"Mulaha","Constituen":"ALEGO","Nearest_To":"Siaya Town","Latitude":"0.06702","Longitude":"34.28735"},"geometry":{"type":"Point","coordinates":[34.28735,0.06702]}},{"type":"Feature","properties":{"OBJECTID":"8707","Facility_N":"Sifuyo Dispensary","Type":"Dispensary","Owner":"Ministry of Health","County":"Siaya","Sub_County":"Ugenya","Division":"Ukwala","Location":"West Ugenya","Sub_Locati":"Sifuyo","Constituen":"UGENYA","Nearest_To":"Sifuyo Shopping Centre","Latitude":"0.15086","Longitude":"34.12707"},"geometry":{"type":"Point","coordinates":[34.12707,0.15086]}},{"type":"Feature","properties":{"OBJECTID":"8709","Facility_N":"Sigomere Health Centre","Type":"Health Centre","Owner":"Ministry of Health","County":"Siaya","Sub_County":"Ugunja","Division":"Ugunja","Location":"East Uholo","Sub_Locati":"Sigomere","Constituen":"UGENYA","Nearest_To":"Sigomere Market","Latitude":"0.1963","Longitude":"34.3645"},"geometry":{"type":"Point","coordinates":[34.3645,0.1963]}},{"type":"Feature","properties":{"OBJECTID":"8716","Facility_N":"Sikalame Dispensary","Type":"Dispensary","Owner":"Ministry of Health","County":"Siaya","Sub_County":"Ugunja","Division":"Ugunja","Location":"South Ugenya","Sub_Locati":"Yiro East","Constituen":"UGENYA","Nearest_To":"Sigomere Market","Latitude":"0.16876","Longitude":"34.4051"},"geometry":{"type":"Point","coordinates":[34.4051,0.16876]}},{"type":"Feature","properties":{"OBJECTID":"8748","Facility_N":"Simenya Dispensary","Type":"Dispensary","Owner":"Ministry of Health","County":"Siaya","Sub_County":"Ugunja","Division":"Ugunja","Location":"South Ugenya","Sub_Locati":"Simenya","Constituen":"UGENYA","Nearest_To":"Sega Township","Latitude":"0.15676","Longitude":"34.36433"},"geometry":{"type":"Point","coordinates":[34.36433,0.15676]}},{"type":"Feature","properties":{"OBJECTID":"8782","Facility_N":"Sirembe Dispensary","Type":"Dispensary","Owner":"Ministry of Health","County":"Siaya","Sub_County":"Gem","Division":"Wagai","Location":"North West Gem","Sub_Locati":"Sirembe","Constituen":"GEM","Nearest_To":"Wagai(Ondisore)Shopping Centre","Latitude":"0.09503","Longitude":"34.4"},"geometry":{"type":"Point","coordinates":[34.4,0.09503]}},{"type":"Feature","properties":{"OBJECTID":"8807","Facility_N":"Siwadhe Medical Clinic","Type":"Medical Clinic","Owner":"Private Practice - General Practitioner","County":"Siaya","Sub_County":"Siaya","Division":"Karemo","Location":"Township","Sub_Locati":"Mulaha","Constituen":"ALEGO","Nearest_To":"Siaya Town","Latitude":"0.0742","Longitude":"34.18147"},"geometry":{"type":"Point","coordinates":[34.18147,0.0742]}},{"type":"Feature","properties":{"OBJECTID":"8980","Facility_N":"St Elizabeth Lwak Mission Health Centre","Type":"Health Centre","Owner":"Kenya Episcopal Conference-Catholic Secretariat","County":"Siaya","Sub_County":"Rarieda","Division":"Rarieda","Location":"West Asembo","Sub_Locati":"Siger","Constituen":"RARIEDA","Nearest_To":"Lwak","Latitude":"-0.13","Longitude":"34.35"},"geometry":{"type":"Point","coordinates":[34.35,-0.13]}},{"type":"Feature","properties":{"OBJECTID":"9062","Facility_N":"St Joseph's Obaga Dispensary","Type":"Dispensary","Owner":"Ministry of Health","County":"Siaya","Sub_County":"Rarieda","Division":"Rarieda","Location":"South Asembo","Sub_Locati":"Akom","Constituen":"RARIEDA","Nearest_To":"Aram","Latitude":"-0.20671","Longitude":"34.32469"},"geometry":{"type":"Point","coordinates":[34.32469,-0.20671]}},{"type":"Feature","properties":{"OBJECTID":"9148","Facility_N":"St Mary's Yala Dispensary","Type":"Dispensary","Owner":"Ministry of Health","County":"Siaya","Sub_County":"Gem","Division":"Yala","Location":"Yala Township","Sub_Locati":"Marenyo","Constituen":"GEM","Nearest_To":"Yala Township","Latitude":"0.09468","Longitude":"34.53172"},"geometry":{"type":"Point","coordinates":[34.53172,0.09468]}},{"type":"Feature","properties":{"OBJECTID":"9150","Facility_N":"St Mathews Kandaria Dispensary","Type":"Dispensary","Owner":"Ministry of Health","County":"Siaya","Sub_County":"Rarieda","Division":"Rarieda","Location":"East Asembo","Sub_Locati":"Omia Malo","Constituen":"RARIEDA","Nearest_To":"Nyilima","Latitude":"-0.1261","Longitude":"34.41533"},"geometry":{"type":"Point","coordinates":[34.41533,-0.1261]}},{"type":"Feature","properties":{"OBJECTID":"9181","Facility_N":"St Paul Dispensary","Type":"Dispensary","Owner":"Kenya Episcopal Conference-Catholic Secretariat","County":"Siaya","Sub_County":"Ugunja","Division":"Ugunja","Location":"Central Ugenya","Sub_Locati":"Ambira","Constituen":"ALEGO","Nearest_To":"Ugunja Township","Latitude":"0.16325","Longitude":"34.29315"},"geometry":{"type":"Point","coordinates":[34.29315,0.16325]}},{"type":"Feature","properties":{"OBJECTID":"9315","Facility_N":"Sumba Community Dispensary","Type":"Dispensary","Owner":"Ministry of Health","County":"Siaya","Sub_County":"Siaya","Division":"Uranga","Location":"South Alego","Sub_Locati":"Usonga","Constituen":"ALEGO","Nearest_To":"Nyadorera Market","Latitude":"0.0856","Longitude":"34.09344"},"geometry":{"type":"Point","coordinates":[34.09344,0.0856]}},{"type":"Feature","properties":{"OBJECTID":"9591","Facility_N":"Tingare Dispensary","Type":"Dispensary","Owner":"Ministry of Health","County":"Siaya","Sub_County":"Ugunja","Division":"Ugunja","Location":"North Uholo","Sub_Locati":"Tingare East","Constituen":"UGENYA","Nearest_To":"Sigomere Market","Latitude":"0.2588","Longitude":"34.3857"},"geometry":{"type":"Point","coordinates":[34.3857,0.2588]}},{"type":"Feature","properties":{"OBJECTID":"9592","Facility_N":"Ting'wangi Health Centre","Type":"Health Centre","Owner":"Ministry of Health","County":"Siaya","Sub_County":"Siaya","Division":"Karemo","Location":"South Alego","Sub_Locati":"Nyajuok","Constituen":"ALEGO","Nearest_To":"Ting'Wangi Market","Latitude":"0.02448","Longitude":"34.28293"},"geometry":{"type":"Point","coordinates":[34.28293,0.02448]}},{"type":"Feature","properties":{"OBJECTID":"9690","Facility_N":"Tumaini DiSC -  Asembo Bay","Type":"VCT Centre (Stand-Alone)","Owner":"Non-Governmental Organizations","County":"Siaya","Sub_County":"Rarieda","Division":"Rarieda","Location":"Kamito","Sub_Locati":"Kamito","Constituen":"RARIEDA","Nearest_To":"Kamito Market","Latitude":"-0.18348","Longitude":"34.38666"},"geometry":{"type":"Point","coordinates":[34.38666,-0.18348]}},{"type":"Feature","properties":{"OBJECTID":"9773","Facility_N":"Ubuntu Afya Ninalakeside Clinic","Type":"Medical Clinic","Owner":"Christian Health Association of Kenya","County":"Siaya","Sub_County":"Bondo","Division":"Nyangoma","Location":"Central Sakwa","Sub_Locati":"Nyangoma","Constituen":"BONDO","Nearest_To":"Nango Centre,Nina village,Warianda Beach","Latitude":"-0.13567","Longitude":"34.16296"},"geometry":{"type":"Point","coordinates":[34.16296,-0.13567]}},{"type":"Feature","properties":{"OBJECTID":"9779","Facility_N":"Uhembo Dispensary","Type":"Dispensary","Owner":"Ministry of Health","County":"Siaya","Sub_County":"Siaya","Division":"Uranga","Location":"Usonga","Sub_Locati":"Uhembo","Constituen":"ALEGO","Nearest_To":"Sidundo Market","Latitude":"0.08326","Longitude":"34.11391"},"geometry":{"type":"Point","coordinates":[34.11391,0.08326]}},{"type":"Feature","properties":{"OBJECTID":"9782","Facility_N":"Uhuyi Dispensary","Type":"Dispensary","Owner":"Ministry of Health","County":"Siaya","Sub_County":"Ugunja","Division":"Ugunja","Location":" ","Sub_Locati":"South Ugenya","Constituen":"UGENYA","Nearest_To":"Ugunja Township","Latitude":"0.092553","Longitude":"34.3911"},"geometry":{"type":"Point","coordinates":[34.3911,0.092553]}},{"type":"Feature","properties":{"OBJECTID":"9790","Facility_N":"Ukwala Sub County Hospital","Type":"District Hospital","Owner":"Ministry of Health","County":"Siaya","Sub_County":"Ugenya","Division":"Ukwala","Location":"Ukwala","Sub_Locati":"Yenga","Constituen":"UGENYA","Nearest_To":"Ukwala Shopping Centre","Latitude":"0.1931","Longitude":"34.18806"},"geometry":{"type":"Point","coordinates":[34.18806,0.1931]}},{"type":"Feature","properties":{"OBJECTID":"9792","Facility_N":"Ulafu Dispensary","Type":"Dispensary","Owner":"Ministry of Health","County":"Siaya","Sub_County":"Siaya","Division":"Karemo","Location":"East Alego","Sub_Locati":"Ulafu","Constituen":"ALEGO","Nearest_To":"Ng'iya Market","Latitude":"0.04048","Longitude":"34.20876"},"geometry":{"type":"Point","coordinates":[34.20876,0.04048]}},{"type":"Feature","properties":{"OBJECTID":"9796","Facility_N":"Ulungo Dispensary","Type":"Dispensary","Owner":"Ministry of Health","County":"Siaya","Sub_County":"Bondo","Division":"Usigu","Location":"N Yimbo","Sub_Locati":"Bar Kanyango","Constituen":"BONDO","Nearest_To":"Nyamonye","Latitude":"0.01815","Longitude":"34.10807"},"geometry":{"type":"Point","coordinates":[34.10807,0.01815]}},{"type":"Feature","properties":{"OBJECTID":"9797","Facility_N":"Uluthe Dispensary","Type":"Dispensary","Owner":"Ministry of Health","County":"Siaya","Sub_County":"Ugunja","Division":"Ugunja","Location":"South Ugenya","Sub_Locati":"Masiro","Constituen":"UGENYA","Nearest_To":"Masiro Market","Latitude":"0.296224","Longitude":"34.3196"},"geometry":{"type":"Point","coordinates":[34.3196,0.296224]}},{"type":"Feature","properties":{"OBJECTID":"9798","Facility_N":"Umala Dispensary","Type":"Dispensary","Owner":"Ministry of Health","County":"Siaya","Sub_County":"Siaya","Division":"Karemo","Location":"Karemo","Sub_Locati":"Yenga","Constituen":"ALEGO","Nearest_To":"Siaya","Latitude":"0.03286","Longitude":"34.3424"},"geometry":{"type":"Point","coordinates":[34.3424,0.03286]}},{"type":"Feature","properties":{"OBJECTID":"9854","Facility_N":"Uradi Health Centre","Type":"Health Centre","Owner":"Kenya Episcopal Conference-Catholic Secretariat","County":"Siaya","Sub_County":"Siaya","Division":"Uranga","Location":"East Alego","Sub_Locati":"Uraga","Constituen":"ALEGO","Nearest_To":"Uraga Market","Latitude":"0.12156","Longitude":"34.15762"},"geometry":{"type":"Point","coordinates":[34.15762,0.12156]}},{"type":"Feature","properties":{"OBJECTID":"9858","Facility_N":"Urenga Dispensary","Type":"Dispensary","Owner":"Ministry of Health","County":"Siaya","Sub_County":"Ugenya","Division":"Ukwala","Location":"North East Ugenya","Sub_Locati":"Jera","Constituen":"UGENYA","Nearest_To":"Sigomere Market","Latitude":"0.0161","Longitude":"34.4397"},"geometry":{"type":"Point","coordinates":[34.4397,0.0161]}},{"type":"Feature","properties":{"OBJECTID":"9860","Facility_N":"Uriri Dispensary","Type":"Dispensary","Owner":"Ministry of Health","County":"Siaya","Sub_County":"Gem","Division":"Wagai","Location":"North East Gem","Sub_Locati":"Uriri","Constituen":"GEM","Nearest_To":"Wagai(Ondisore)Shopping Centre","Latitude":"0.02944","Longitude":"34.4546"},"geometry":{"type":"Point","coordinates":[34.4546,0.02944]}},{"type":"Feature","properties":{"OBJECTID":"9867","Facility_N":"Usenge Dispensary","Type":"Dispensary","Owner":"Ministry of Health","County":"Siaya","Sub_County":"Bondo","Division":"Usigu","Location":"W Yimbo","Sub_Locati":"Usenge","Constituen":"BONDO","Nearest_To":"Usenge","Latitude":"-0.066475","Longitude":"34.055226"},"geometry":{"type":"Point","coordinates":[34.055226,-0.066475]}},{"type":"Feature","properties":{"OBJECTID":"9871","Facility_N":"Usigu Dispensary","Type":"Dispensary","Owner":"Ministry of Health","County":"Siaya","Sub_County":"Bondo","Division":"Usigu","Location":"C Yimbo","Sub_Locati":"Usigu","Constituen":"BONDO","Nearest_To":"Usigu","Latitude":"-0.0568","Longitude":"34.0994"},"geometry":{"type":"Point","coordinates":[34.0994,-0.0568]}},{"type":"Feature","properties":{"OBJECTID":"9890","Facility_N":"Uyawi Dispensary","Type":"Dispensary","Owner":"Ministry of Health","County":"Siaya","Sub_County":"Bondo","Division":"Nyang'Oma","Location":"C Sakwa","Sub_Locati":"Uyawi","Constituen":"BONDO","Nearest_To":"Nango","Latitude":"-0.16139","Longitude":"34.16597"},"geometry":{"type":"Point","coordinates":[34.16597,-0.16139]}},{"type":"Feature","properties":{"OBJECTID":"9891","Facility_N":"Uzima Clinic","Type":"Medical Clinic","Owner":"Private Practice - General Practitioner","County":"Siaya","Sub_County":"Ugunja","Division":"Ugunja","Location":" ","Sub_Locati":" ","Constituen":"ALEGO","Nearest_To":"Ugunja  Township","Latitude":"0.015644","Longitude":"34.3637"},"geometry":{"type":"Point","coordinates":[34.3637,0.015644]}},{"type":"Feature","properties":{"OBJECTID":"9978","Facility_N":"Wagai Dispensary","Type":"Dispensary","Owner":"Ministry of Health","County":"Siaya","Sub_County":"Gem","Division":"Wagai","Location":"North E Gem","Sub_Locati":"Wagai","Constituen":"GEM","Nearest_To":"Wagai Market","Latitude":"0.05102","Longitude":"34.41679"},"geometry":{"type":"Point","coordinates":[34.41679,0.05102]}},{"type":"Feature","properties":{"OBJECTID":"9982","Facility_N":"Wagoro Dispensary (Rarieda)","Type":"Dispensary","Owner":"Ministry of Health","County":"Siaya","Sub_County":"Rarieda","Division":"Madiany","Location":"West Uyoma","Sub_Locati":"Kokwiri","Constituen":"RARIEDA","Nearest_To":"Nyakongo Market","Latitude":"-0.26793","Longitude":"34.28912"},"geometry":{"type":"Point","coordinates":[34.28912,-0.26793]}}]}