{"type":"FeatureCollection","features":[{"type":"Feature","properties":{"OBJECTID":"154","Facility_N":"Agma Clinic","Type":"Medical Clinic","Owner":"Private Practice - Nurse / Midwife","County":"Vihiga","Sub_County":"Hamisi","Division":"Shaviringa","Location":"Shaviringa","Sub_Locati":"Shiru","Constituen":"HAMISI","Nearest_To":"Shiru","Latitude":"0.15523","Longitude":"34.91108"},"geometry":{"type":"Point","coordinates":[34.91108,0.15523]}},{"type":"Feature","properties":{"OBJECTID":"251","Facility_N":"Alliance Clinic","Type":"Medical Clinic","Owner":"Private Practice - Nurse / Midwife","County":"Vihiga","Sub_County":"Sabatia","Division":"Chavakali","Location":"Chavakali","Sub_Locati":"Walodeya","Constituen":"SABATIA","Nearest_To":"Chavakali","Latitude":"0.11834","Longitude":"34.73399"},"geometry":{"type":"Point","coordinates":[34.73399,0.11834]}},{"type":"Feature","properties":{"OBJECTID":"267","Facility_N":"Alpha Medical Agency","Type":"Medical Clinic","Owner":"Private Practice - Unspecified","County":"Vihiga","Sub_County":"Sabatia","Division":"Chavakali","Location":"Chavakali","Sub_Locati":" ","Constituen":"SABATIA","Nearest_To":"Chavakali Market","Latitude":"0.116212","Longitude":"34.72601"},"geometry":{"type":"Point","coordinates":[34.72601,0.116212]}},{"type":"Feature","properties":{"OBJECTID":"514","Facility_N":"Banja Health Centre","Type":"Health Centre","Owner":"Ministry of Health","County":"Vihiga","Sub_County":"Hamisi","Division":"Tambua","Location":"Banja","Sub_Locati":"Gashianga","Constituen":"HAMISI","Nearest_To":" ","Latitude":"0.04438","Longitude":"34.8298"},"geometry":{"type":"Point","coordinates":[34.8298,0.04438]}},{"type":"Feature","properties":{"OBJECTID":"597","Facility_N":"Bay Way Medical Clinic","Type":"Medical Clinic","Owner":"Private Practice - Nurse / Midwife","County":"Vihiga","Sub_County":"Emuhaya","Division":"Luanda","Location":"South Bunyore","Sub_Locati":"Mwitubwi","Constituen":"EMUHAYA","Nearest_To":"Luanda","Latitude":"0.00125","Longitude":"34.56958"},"geometry":{"type":"Point","coordinates":[34.56958,0.00125]}},{"type":"Feature","properties":{"OBJECTID":"756","Facility_N":"Boyani Dispensary","Type":"Dispensary","Owner":"Other Faith Based","County":"Vihiga","Sub_County":"Hamisi","Division":"Tambua","Location":"Tambua","Sub_Locati":"Gimarakwa","Constituen":"HAMISI","Nearest_To":" ","Latitude":"-0.01333","Longitude":"34.73471"},"geometry":{"type":"Point","coordinates":[34.73471,-0.01333]}},{"type":"Feature","properties":{"OBJECTID":"776","Facility_N":"Bugamangi Dispensary","Type":"Dispensary","Owner":"Ministry of Health","County":"Vihiga","Sub_County":"Vihiga","Division":"Vihiga","Location":"Lugaga","Sub_Locati":"Magui","Constituen":"VIHIGA","Nearest_To":"Majengo","Latitude":"0.06011","Longitude":"34.71465"},"geometry":{"type":"Point","coordinates":[34.71465,0.06011]}},{"type":"Feature","properties":{"OBJECTID":"778","Facility_N":"Bugina Health Centre","Type":"Health Centre","Owner":"Ministry of Health","County":"Vihiga","Sub_County":"Sabatia","Division":"Sabatia","Location":"Busali West","Sub_Locati":"Busali","Constituen":"SABATIA","Nearest_To":"Sabatia","Latitude":"0.149","Longitude":"34.76777"},"geometry":{"type":"Point","coordinates":[34.76777,0.149]}},{"type":"Feature","properties":{"OBJECTID":"859","Facility_N":"Buyangu Health Centre","Type":"Health Centre","Owner":"Other Faith Based","County":"Vihiga","Sub_County":"Hamisi","Division":"Jepkoyai","Location":"Jepkoyai","Sub_Locati":"Givole","Constituen":"HAMISI","Nearest_To":" ","Latitude":"0.03923","Longitude":"34.74595"},"geometry":{"type":"Point","coordinates":[34.74595,0.03923]}},{"type":"Feature","properties":{"OBJECTID":"894","Facility_N":"Carol Afandi Clinic","Type":"Medical Clinic","Owner":"Private Practice - Nurse / Midwife","County":"Vihiga","Sub_County":"Sabatia","Division":"Chavakali","Location":"Chavakali","Sub_Locati":"IGUNGA","Constituen":"SABATIA","Nearest_To":"Chavakali","Latitude":"0.114128","Longitude":"34.711"},"geometry":{"type":"Point","coordinates":[34.711,0.114128]}},{"type":"Feature","properties":{"OBJECTID":"942","Facility_N":"Chamakanga Mission","Type":"Dispensary","Owner":"Christian Health Association of Kenya","County":"Vihiga","Sub_County":"Sabatia","Division":"Sabatia","Location":"Chamakanga","Sub_Locati":"Busali West","Constituen":"SABATIA","Nearest_To":"Sabatia","Latitude":"0.14687","Longitude":"34.79545"},"geometry":{"type":"Point","coordinates":[34.79545,0.14687]}},{"type":"Feature","properties":{"OBJECTID":"944","Facility_N":"Chamamo Medical Clinic","Type":"Medical Clinic","Owner":"Private Practice - Nurse / Midwife","County":"Vihiga","Sub_County":"Sabatia","Division":"Sabatia","Location":" ","Sub_Locati":" ","Constituen":"SABATIA","Nearest_To":"Mudete Market","Latitude":"0.11642","Longitude":"34.76868"},"geometry":{"type":"Point","coordinates":[34.76868,0.11642]}},{"type":"Feature","properties":{"OBJECTID":"963","Facility_N":"Chavogere Mission","Type":"Dispensary","Owner":"Christian Health Association of Kenya","County":"Vihiga","Sub_County":"Sabatia","Division":"Sabatia","Location":"Busali East","Sub_Locati":"Chavogere","Constituen":"SABATIA","Nearest_To":"Sabatia","Latitude":"0.15104","Longitude":"34.8105"},"geometry":{"type":"Point","coordinates":[34.8105,0.15104]}},{"type":"Feature","properties":{"OBJECTID":"1158","Facility_N":"Children's Support Centre Emurembe","Type":"Medical Centre","Owner":"Non-Governmental Organizations","County":"Vihiga","Sub_County":"Emuhaya","Division":"Elukongo","Location":"Echichibulu","Sub_Locati":"Emurembe","Constituen":"EMUHAYA","Nearest_To":"Kilingili","Latitude":"0.10508","Longitude":"34.67416"},"geometry":{"type":"Point","coordinates":[34.67416,0.10508]}},{"type":"Feature","properties":{"OBJECTID":"1180","Facility_N":"Christian Partners Development Agency VCT","Type":"VCT Centre (Stand-Alone)","Owner":"Non-Governmental Organizations","County":"Vihiga","Sub_County":"Sabatia","Division":"Chavakali","Location":"chavakali","Sub_Locati":"walodeya","Constituen":"SABATIA","Nearest_To":"chavakali","Latitude":"0.12105","Longitude":"34.73582"},"geometry":{"type":"Point","coordinates":[34.73582,0.12105]}},{"type":"Feature","properties":{"OBJECTID":"1247","Facility_N":"Coptic Nursing Home","Type":"Nursing Home","Owner":"Other Faith Based","County":"Vihiga","Sub_County":"Emuhaya","Division":"Luanda","Location":"South Bunyore","Sub_Locati":"Ebusakami","Constituen":"EMUHAYA","Nearest_To":"Luanda","Latitude":"0.01081","Longitude":"34.60541"},"geometry":{"type":"Point","coordinates":[34.60541,0.01081]}},{"type":"Feature","properties":{"OBJECTID":"1644","Facility_N":"Ebukanga Dispensary","Type":"Dispensary","Owner":"Ministry of Health","County":"Vihiga","Sub_County":"Emuhaya","Division":"Luanda","Location":"Central Bunyore","Sub_Locati":"Ebukanga","Constituen":"EMUHAYA","Nearest_To":"Luanda","Latitude":"0.08468","Longitude":"34.57881"},"geometry":{"type":"Point","coordinates":[34.57881,0.08468]}},{"type":"Feature","properties":{"OBJECTID":"1645","Facility_N":"Ebukoolo Dispensary","Type":"Dispensary","Owner":"Ministry of Health","County":"Vihiga","Sub_County":"Emuhaya","Division":"Luanda","Location":"West Bunyore","Sub_Locati":"Emmukola","Constituen":"EMUHAYA","Nearest_To":"Luanda  (Town) Ebuyangu Market","Latitude":"0.07013","Longitude":"34.56275"},"geometry":{"type":"Point","coordinates":[34.56275,0.07013]}},{"type":"Feature","properties":{"OBJECTID":"1648","Facility_N":"Ebusiratsi Health Centre","Type":"Health Centre","Owner":"Ministry of Health","County":"Vihiga","Sub_County":"Emuhaya","Division":"Emuhaya","Location":"North Bunyore","Sub_Locati":"Ebusiratsi","Constituen":"EMUHAYA","Nearest_To":"Luanda","Latitude":"0.07941","Longitude":"34.63435"},"geometry":{"type":"Point","coordinates":[34.63435,0.07941]}},{"type":"Feature","properties":{"OBJECTID":"1649","Facility_N":"Ebusyubi Dispensary","Type":"Dispensary","Owner":"Ministry of Health","County":"Vihiga","Sub_County":"Emuhaya","Division":"Luanda","Location":"South West Bunyore","Sub_Locati":"Ebutanyi","Constituen":"EMUHAYA","Nearest_To":"Luanda","Latitude":"0.015824","Longitude":"34.5563"},"geometry":{"type":"Point","coordinates":[34.5563,0.015824]}},{"type":"Feature","properties":{"OBJECTID":"1664","Facility_N":"Egago Dispensary","Type":"Dispensary","Owner":"Ministry of Health","County":"Vihiga","Sub_County":"Vihiga","Division":"Vihiga","Location":"S Maragoli","Sub_Locati":"Chagenda","Constituen":"VIHIGA","Nearest_To":"Lusiola Mkt","Latitude":"-0.000603","Longitude":"34.6735"},"geometry":{"type":"Point","coordinates":[34.6735,-0.000603]}},{"type":"Feature","properties":{"OBJECTID":"1672","Facility_N":"Ekamanji Dispensary","Type":"Dispensary","Owner":"Ministry of Health","County":"Vihiga","Sub_County":"Emuhaya","Division":"Luanda","Location":"West Bunyore","Sub_Locati":"Ebusikhale","Constituen":"EMUHAYA","Nearest_To":"Luanda","Latitude":"0.03427","Longitude":"34.5926"},"geometry":{"type":"Point","coordinates":[34.5926,0.03427]}},{"type":"Feature","properties":{"OBJECTID":"1673","Facility_N":"Ekambuli Health Centre","Type":"Health Centre","Owner":"Ministry of Health","County":"Vihiga","Sub_County":"Emuhaya","Division":" ","Location":" ","Sub_Locati":" ","Constituen":"EMUHAYA","Nearest_To":" ","Latitude":"-0.106466","Longitude":"34.57092"},"geometry":{"type":"Point","coordinates":[34.57092,-0.106466]}},{"type":"Feature","properties":{"OBJECTID":"1681","Facility_N":"Ekwanda Health Centre","Type":"Health Centre","Owner":"Ministry of Health","County":"Vihiga","Sub_County":"Emuhaya","Division":"Luanda","Location":"South Bunyore","Sub_Locati":"Ekwanda","Constituen":"EMUHAYA","Nearest_To":"Luanda","Latitude":"0.01411","Longitude":"34.57131"},"geometry":{"type":"Point","coordinates":[34.57131,0.01411]}},{"type":"Feature","properties":{"OBJECTID":"1747","Facility_N":"Ematsuli Dispensary","Type":"Dispensary","Owner":"Ministry of Health","County":"Vihiga","Sub_County":"Emuhaya","Division":"Emuhaya","Location":"North Bunyore","Sub_Locati":"Emmukunzi","Constituen":"EMUHAYA","Nearest_To":"Luanda","Latitude":"0.11624","Longitude":"34.63229"},"geometry":{"type":"Point","coordinates":[34.63229,0.11624]}},{"type":"Feature","properties":{"OBJECTID":"1785","Facility_N":"Emuhaya Sub County Referral Hospital","Type":"Sub-District Hospital","Owner":"Ministry of Health","County":"Vihiga","Sub_County":"Emuhaya","Division":"Emuhaya","Location":"Wekhomo","Sub_Locati":"Iboona","Constituen":"EMUHAYA","Nearest_To":"Luanda","Latitude":"0.11259","Longitude":"34.63297"},"geometry":{"type":"Point","coordinates":[34.63297,0.11259]}},{"type":"Feature","properties":{"OBJECTID":"1792","Facility_N":"Emusenjeli Dispensary","Type":"Dispensary","Owner":"Ministry of Health","County":"Vihiga","Sub_County":"Emuhaya","Division":"Emuhaya","Location":"East Bunyore","Sub_Locati":"Emutsalwa","Constituen":"EMUHAYA","Nearest_To":"Luanda","Latitude":"0.0406","Longitude":"34.64638"},"geometry":{"type":"Point","coordinates":[34.64638,0.0406]}},{"type":"Feature","properties":{"OBJECTID":"1793","Facility_N":"Emusire Health Centre","Type":"Health Centre","Owner":"Ministry of Health","County":"Vihiga","Sub_County":"Emuhaya","Division":"Luanda","Location":"Central Bunyore","Sub_Locati":"Emusire","Constituen":"EMUHAYA","Nearest_To":"Luanda/Emusire/Mwichio","Latitude":"0.0843","Longitude":"34.6068"},"geometry":{"type":"Point","coordinates":[34.6068,0.0843]}},{"type":"Feature","properties":{"OBJECTID":"1838","Facility_N":"Enzaro Health Centre","Type":"Health Centre","Owner":"Ministry of Health","County":"Vihiga","Sub_County":"Vihiga","Division":"Vihiga","Location":"S Maragoli","Sub_Locati":"Idereli","Constituen":"VIHIGA","Nearest_To":"Boyani","Latitude":"0.00135","Longitude":"34.70239"},"geometry":{"type":"Point","coordinates":[34.70239,0.00135]}},{"type":"Feature","properties":{"OBJECTID":"1843","Facility_N":"Equator Nursing and Maternity Home","Type":"Nursing Home","Owner":"Private Practice - Unspecified","County":"Vihiga","Sub_County":"Emuhaya","Division":"Luanda","Location":"West Bunyore","Sub_Locati":"Ebusikhale","Constituen":"EMUHAYA","Nearest_To":"Luanda","Latitude":"0.03427","Longitude":"34.5926"},"geometry":{"type":"Point","coordinates":[34.5926,0.03427]}},{"type":"Feature","properties":{"OBJECTID":"1870","Facility_N":"Esiarambatsi Health Centre","Type":"Health Centre","Owner":"Ministry of Health","County":"Vihiga","Sub_County":"Emuhaya","Division":"Emuhaya","Location":"North East Bunyore","Sub_Locati":"Ebunangwe","Constituen":"EMUHAYA","Nearest_To":"Luanda","Latitude":"0.08084","Longitude":"34.60738"},"geometry":{"type":"Point","coordinates":[34.60738,0.08084]}},{"type":"Feature","properties":{"OBJECTID":"1872","Facility_N":"Esirulo Imani Medical Clinic","Type":"Medical Clinic","Owner":"Private Practice - Clinical Officer","County":"Vihiga","Sub_County":"Emuhaya","Division":"Luanda","Location":"Central Bunyore","Sub_Locati":"Esirulo","Constituen":"EMUHAYA","Nearest_To":"Luanda","Latitude":"0.116213","Longitude":"34.6144"},"geometry":{"type":"Point","coordinates":[34.6144,0.116213]}},{"type":"Feature","properties":{"OBJECTID":"1873","Facility_N":"Esitsaba Dispensary","Type":"Dispensary","Owner":"Ministry of Health","County":"Vihiga","Sub_County":"Emuhaya","Division":"Emuhaya","Location":"Wekhomo","Sub_Locati":"Ebuhando","Constituen":"EMUHAYA","Nearest_To":"Luanda","Latitude":"0.00975","Longitude":"34.61374"},"geometry":{"type":"Point","coordinates":[34.61374,0.00975]}},{"type":"Feature","properties":{"OBJECTID":"2293","Facility_N":"Givole Dispensary","Type":"Dispensary","Owner":"Ministry of Health","County":"Vihiga","Sub_County":"Hamisi","Division":"Jepkoyai","Location":"Jepkoyai","Sub_Locati":"Givole","Constituen":"HAMISI","Nearest_To":"Majengo","Latitude":"0.073","Longitude":"34.80199"},"geometry":{"type":"Point","coordinates":[34.80199,0.073]}},{"type":"Feature","properties":{"OBJECTID":"2294","Facility_N":"Givudimbuli Health Centre","Type":"Health Centre","Owner":"Ministry of Health","County":"Vihiga","Sub_County":"Sabatia","Division":"Sabatia","Location":"N Maragoli","Sub_Locati":"DIgula","Constituen":"SABATIA","Nearest_To":"Sabatia","Latitude":"0.08814","Longitude":"34.7807"},"geometry":{"type":"Point","coordinates":[34.7807,0.08814]}},{"type":"Feature","properties":{"OBJECTID":"2316","Facility_N":"GK Prison Mbale","Type":"Dispensary","Owner":"Ministry of Health","County":"Vihiga","Sub_County":"Vihiga","Division":"Municipality","Location":"wamuluma","Sub_Locati":"Kegoye","Constituen":"VIHIGA","Nearest_To":"Inside Mbale GK Prison","Latitude":"0.07981","Longitude":"34.72208"},"geometry":{"type":"Point","coordinates":[34.72208,0.07981]}},{"type":"Feature","properties":{"OBJECTID":"2411","Facility_N":"Gram's Medical Clinic","Type":"Medical Clinic","Owner":"Private Practice - General Practitioner","County":"Vihiga","Sub_County":"Emuhaya","Division":"Ekwanda","Location":"Ebusakami","Sub_Locati":"Enyaita","Constituen":"EMUHAYA","Nearest_To":"Luanda Town","Latitude":"0.015824","Longitude":"34.5855"},"geometry":{"type":"Point","coordinates":[34.5855,0.015824]}},{"type":"Feature","properties":{"OBJECTID":"2419","Facility_N":"Green Valley Clinic","Type":"Medical Clinic","Owner":"Private Practice - Nurse / Midwife","County":"Vihiga","Sub_County":"Emuhaya","Division":"Luanda","Location":"West Bunyore","Sub_Locati":"Emwatsi","Constituen":"EMUHAYA","Nearest_To":"Buyangu Market","Latitude":"0.05","Longitude":"34.5803"},"geometry":{"type":"Point","coordinates":[34.5803,0.05]}},{"type":"Feature","properties":{"OBJECTID":"2462","Facility_N":"Hamisi Sub District Hospital","Type":"Sub-District Hospital","Owner":"Ministry of Health","County":"Vihiga","Sub_County":"Hamisi","Division":"Jepkoyai","Location":"Gisambai","Sub_Locati":"Gavudunyi","Constituen":"HAMISI","Nearest_To":"Mbale","Latitude":"0.07351","Longitude":"34.80206"},"geometry":{"type":"Point","coordinates":[34.80206,0.07351]}},{"type":"Feature","properties":{"OBJECTID":"2504","Facility_N":"Hema Medical Clinic","Type":"Medical Clinic","Owner":"Private Practice - Nurse / Midwife","County":"Vihiga","Sub_County":"Hamisi","Division":"Tambua","Location":"Tambua","Sub_Locati":"Gamalenga","Constituen":"HAMISI","Nearest_To":"Gambogi","Latitude":"0.00025","Longitude":"34.73726"},"geometry":{"type":"Point","coordinates":[34.73726,0.00025]}},{"type":"Feature","properties":{"OBJECTID":"2656","Facility_N":"Iduku Dispensary","Type":"Dispensary","Owner":"Ministry of Health","County":"Vihiga","Sub_County":"Vihiga","Division":"Vihiga","Location":"Wamuluma","Sub_Locati":"Mbihi","Constituen":"VIHIGA","Nearest_To":"Mbale","Latitude":"0.07738","Longitude":"34.69369"},"geometry":{"type":"Point","coordinates":[34.69369,0.07738]}},{"type":"Feature","properties":{"OBJECTID":"2799","Facility_N":"Inyali Dispensary","Type":"Dispensary","Owner":"Ministry of Health","County":"Vihiga","Sub_County":"Sabatia","Division":"Sabatia","Location":"N Maragoli","Sub_Locati":"Diluga","Constituen":"SABATIA","Nearest_To":"Sabatia","Latitude":"0.08883","Longitude":"34.75611"},"geometry":{"type":"Point","coordinates":[34.75611,0.08883]}},{"type":"Feature","properties":{"OBJECTID":"2803","Facility_N":"Ipali Health Centre","Type":"Health Centre","Owner":"Ministry of Health","County":"Vihiga","Sub_County":"Emuhaya","Division":"Luanda","Location":"West Bunyore","Sub_Locati":"Ebusiekwe","Constituen":"EMUHAYA","Nearest_To":"Luanda","Latitude":"0.0505","Longitude":"34.58067"},"geometry":{"type":"Point","coordinates":[34.58067,0.0505]}},{"type":"Feature","properties":{"OBJECTID":"2844","Facility_N":"Itando Mission of Hope and Health Centre","Type":"Health Centre","Owner":"Christian Health Association of Kenya","County":"Vihiga","Sub_County":"Sabatia","Division":"Chavakali","Location":"Idzava North","Sub_Locati":"Munoywa","Constituen":"SABATIA","Nearest_To":"Mbale","Latitude":"0.09916","Longitude":"34.73476"},"geometry":{"type":"Point","coordinates":[34.73476,0.09916]}},{"type":"Feature","properties":{"OBJECTID":"2939","Facility_N":"Jamii Medical Clinic Vihiga","Type":"Medical Clinic","Owner":"Private Practice - Clinical Officer","County":"Vihiga","Sub_County":"Vihiga","Division":"vihiga","Location":"Central maragoli","Sub_Locati":"Emanda","Constituen":"VIHIGA","Nearest_To":"Majengo town","Latitude":"0.0455","Longitude":"34.72"},"geometry":{"type":"Point","coordinates":[34.72,0.0455]}},{"type":"Feature","properties":{"OBJECTID":"2951","Facility_N":"Jasho Medical Clinic","Type":"Medical Clinic","Owner":"Private Practice - Nurse / Midwife","County":"Vihiga","Sub_County":"Vihiga","Division":"Vihiga","Location":"wamuluma","Sub_Locati":"mbihi","Constituen":"VIHIGA","Nearest_To":"Mbale","Latitude":"0.0795","Longitude":"34.7192"},"geometry":{"type":"Point","coordinates":[34.7192,0.0795]}},{"type":"Feature","properties":{"OBJECTID":"2966","Facility_N":"Jepkoyai Dispensary","Type":"Dispensary","Owner":"Ministry of Health","County":"Vihiga","Sub_County":"Hamisi","Division":"Jepkoyai","Location":"Gisambai","Sub_Locati":"Kapchemgum","Constituen":"HAMISI","Nearest_To":" ","Latitude":"0.00584","Longitude":"34.72548"},"geometry":{"type":"Point","coordinates":[34.72548,0.00584]}},{"type":"Feature","properties":{"OBJECTID":"2996","Facility_N":"Joint Partner Medical Clinic","Type":"Dispensary","Owner":"Private Practice - Nurse / Midwife","County":"Vihiga","Sub_County":"Hamisi","Division":"Jepkoyai","Location":"Shaviringa","Sub_Locati":"Shiru","Constituen":"HAMISI","Nearest_To":" ","Latitude":"0.14149","Longitude":"34.8809"},"geometry":{"type":"Point","coordinates":[34.8809,0.14149]}},{"type":"Feature","properties":{"OBJECTID":"3046","Facility_N":"Junction Medical Clinic","Type":"Medical Clinic","Owner":"Private Practice - Nurse / Midwife","County":"Vihiga","Sub_County":"Sabatia","Division":"Chavakali","Location":"Chavakali","Sub_Locati":"Walodeya","Constituen":"SABATIA","Nearest_To":"Chavakali","Latitude":"0.115198","Longitude":"34.7328"},"geometry":{"type":"Point","coordinates":[34.7328,0.115198]}},{"type":"Feature","properties":{"OBJECTID":"3212","Facility_N":"Kaimosi Mission Hospital","Type":"Other Hospital","Owner":"Other Faith Based","County":"Vihiga","Sub_County":"Hamisi","Division":"Shaviringa","Location":"Shaviringa","Sub_Locati":"Cheptulu","Constituen":"HAMISI","Nearest_To":"Cheptulu","Latitude":"0.13183","Longitude":"34.84834"},"geometry":{"type":"Point","coordinates":[34.84834,0.13183]}},{"type":"Feature","properties":{"OBJECTID":"3526","Facility_N":"Kapchemwani Dispensary","Type":"Dispensary","Owner":"Ministry of Health","County":"Vihiga","Sub_County":"Hamisi","Division":"Jepkoyai","Location":"Gisambai","Sub_Locati":"Galona","Constituen":"HAMISI","Nearest_To":" ","Latitude":"0.037819","Longitude":"34.762784"},"geometry":{"type":"Point","coordinates":[34.762784,0.037819]}},{"type":"Feature","properties":{"OBJECTID":"3660","Facility_N":"Kaptech Dispensary","Type":"Dispensary","Owner":"Ministry of Health","County":"Vihiga","Sub_County":"Hamisi","Division":"Shaviringa","Location":"Shaviringa","Sub_Locati":"Muhudu","Constituen":"HAMISI","Nearest_To":" ","Latitude":"0.16416","Longitude":"34.82459"},"geometry":{"type":"Point","coordinates":[34.82459,0.16416]}},{"type":"Feature","properties":{"OBJECTID":"3674","Facility_N":"Kaptisi Dispensary","Type":"Dispensary","Owner":"Ministry of Health","County":"Vihiga","Sub_County":"Hamisi","Division":"Shaviringa","Location":"Shaviringa","Sub_Locati":"Shiru","Constituen":"HAMISI","Nearest_To":"Shiru /Sirwa","Latitude":"0.18418","Longitude":"34.92219"},"geometry":{"type":"Point","coordinates":[34.92219,0.18418]}},{"type":"Feature","properties":{"OBJECTID":"3958","Facility_N":"Kegondi Health Centre","Type":"Health Centre","Owner":"Ministry of Health","County":"Vihiga","Sub_County":"Sabatia","Division":"Chavakali","Location":"W Maragoli","Sub_Locati":"Kegondi","Constituen":"SABATIA","Nearest_To":"Chavakali","Latitude":"0.13037","Longitude":"34.73081"},"geometry":{"type":"Point","coordinates":[34.73081,0.13037]}},{"type":"Feature","properties":{"OBJECTID":"4361","Facility_N":"Kima Mission Hospital","Type":"Other Hospital","Owner":"Christian Health Association of Kenya","County":"Vihiga","Sub_County":"Emuhaya","Division":"Emuhaya","Location":"Wekhomo","Sub_Locati":"Iboona","Constituen":"EMUHAYA","Nearest_To":"Luanda","Latitude":"0.0261","Longitude":"34.6237"},"geometry":{"type":"Point","coordinates":[34.6237,0.0261]}},{"type":"Feature","properties":{"OBJECTID":"4396","Facility_N":"Kimogoi Dispensary","Type":"Dispensary","Owner":"Ministry of Health","County":"Vihiga","Sub_County":"Hamisi","Division":"Jepkoyai","Location":"Gisambai","Sub_Locati":" ","Constituen":"HAMISI","Nearest_To":" ","Latitude":"0.05252","Longitude":"34.7792"},"geometry":{"type":"Point","coordinates":[34.7792,0.05252]}},{"type":"Feature","properties":{"OBJECTID":"4604","Facility_N":"Kisangula Medical Clinic","Type":"Medical Clinic","Owner":"Private Practice - Unspecified","County":"Vihiga","Sub_County":"Sabatia","Division":" ","Location":" ","Sub_Locati":" ","Constituen":"SABATIA","Nearest_To":" ","Latitude":"0.08126","Longitude":"34.76703"},"geometry":{"type":"Point","coordinates":[34.76703,0.08126]}},{"type":"Feature","properties":{"OBJECTID":"5129","Facility_N":"Likindu Dispensary","Type":"Dispensary","Owner":"Ministry of Health","County":"Vihiga","Sub_County":"Hamisi","Division":"Tambua","Location":"Tambua","Sub_Locati":"Mwembe","Constituen":"HAMISI","Nearest_To":" ","Latitude":"0.01703","Longitude":"34.6594"},"geometry":{"type":"Point","coordinates":[34.6594,0.01703]}},{"type":"Feature","properties":{"OBJECTID":"5265","Facility_N":"Luanda Mch/Fp Clinic","Type":"Medical Clinic","Owner":"Private Practice - Nurse / Midwife","County":"Vihiga","Sub_County":"Emuhaya","Division":"Luanda","Location":"West Bunyore","Sub_Locati":"Ebusikhale","Constituen":"EMUHAYA","Nearest_To":"Luanda","Latitude":"0.02562","Longitude":"34.58494"},"geometry":{"type":"Point","coordinates":[34.58494,0.02562]}},{"type":"Feature","properties":{"OBJECTID":"5266","Facility_N":"Luanda Town Dispensary","Type":"Dispensary","Owner":"Ministry of Health","County":"Vihiga","Sub_County":"Emuhaya","Division":"Luanda","Location":"West Bunyore","Sub_Locati":"Ebusikhale","Constituen":"EMUHAYA","Nearest_To":"Luanda","Latitude":"0.02453","Longitude":"34.58669"},"geometry":{"type":"Point","coordinates":[34.58669,0.02453]}},{"type":"Feature","properties":{"OBJECTID":"5267","Facility_N":"Luanda Wayside Clinic","Type":"Medical Clinic","Owner":"Private Practice - Clinical Officer","County":"Vihiga","Sub_County":"Emuhaya","Division":"Luanda","Location":"West Bunyore","Sub_Locati":"Ebusikhale","Constituen":"EMUHAYA","Nearest_To":"Luanda Market","Latitude":"0.02825","Longitude":"34.58465"},"geometry":{"type":"Point","coordinates":[34.58465,0.02825]}},{"type":"Feature","properties":{"OBJECTID":"5324","Facility_N":"Lyanaginga Health Centre","Type":"Health Centre","Owner":"Ministry of Health","County":"Vihiga","Sub_County":"Vihiga","Division":"Vihiga","Location":"Mungoma","Sub_Locati":"Vigulu","Constituen":"VIHIGA","Nearest_To":"Mahanga Mkt","Latitude":"0.0165","Longitude":"34.65925"},"geometry":{"type":"Point","coordinates":[34.65925,0.0165]}},{"type":"Feature","properties":{"OBJECTID":"5387","Facility_N":"Mago Care Health Centre","Type":"Health Centre","Owner":"Non-Governmental Organizations","County":"Vihiga","Sub_County":"Hamisi","Division":"Shamakhokho","Location":"Shamakhokho","Sub_Locati":"Givovoli","Constituen":"HAMISI","Nearest_To":"Mago market","Latitude":"0.1324","Longitude":"34.78924"},"geometry":{"type":"Point","coordinates":[34.78924,0.1324]}},{"type":"Feature","properties":{"OBJECTID":"5443","Facility_N":"Majve Medical Clinic","Type":"Medical Clinic","Owner":"Private Practice - Unspecified","County":"Vihiga","Sub_County":"Sabatia","Division":" ","Location":" ","Sub_Locati":" ","Constituen":"SABATIA","Nearest_To":" ","Latitude":"0.14272","Longitude":"34.7962"},"geometry":{"type":"Point","coordinates":[34.7962,0.14272]}},{"type":"Feature","properties":{"OBJECTID":"5491","Facility_N":"Makutano Medical Clinic","Type":"Medical Clinic","Owner":"Private Practice - Clinical Officer","County":"Vihiga","Sub_County":"Emuhaya","Division":"Luanda","Location":"West Bunyore","Sub_Locati":"Ebusiralo(2)","Constituen":"EMUHAYA","Nearest_To":"Luanda","Latitude":"0.045481","Longitude":"34.6043"},"geometry":{"type":"Point","coordinates":[34.6043,0.045481]}},{"type":"Feature","properties":{"OBJECTID":"5660","Facility_N":"Marie Stopes Clinic (Vihiga)","Type":"Medical Clinic","Owner":"Non-Governmental Organizations","County":"Vihiga","Sub_County":"Sabatia","Division":"Chavakali","Location":"Idzava","Sub_Locati":"Mbale","Constituen":"SABATIA","Nearest_To":"Mbale","Latitude":"0.092417","Longitude":"34.7286"},"geometry":{"type":"Point","coordinates":[34.7286,0.092417]}},{"type":"Feature","properties":{"OBJECTID":"5899","Facility_N":"Mbale Rural Health Training Centre","Type":"Health Centre","Owner":"Ministry of Health","County":"Vihiga","Sub_County":"Vihiga","Division":"Vihiga","Location":"Wamuluma","Sub_Locati":"Mbihi","Constituen":"VIHIGA","Nearest_To":"Mbale","Latitude":"0.08033","Longitude":"34.72189"},"geometry":{"type":"Point","coordinates":[34.72189,0.08033]}},{"type":"Feature","properties":{"OBJECTID":"5900","Facility_N":"Mbale Specialist Health Centre","Type":"Health Centre","Owner":"Private Practice - Medical Specialist","County":"Vihiga","Sub_County":"Vihiga","Division":"Vihiga","Location":"wamuluma","Sub_Locati":"Kegoye","Constituen":"VIHIGA","Nearest_To":"Mbale","Latitude":"0.08078","Longitude":"34.72164"},"geometry":{"type":"Point","coordinates":[34.72164,0.08078]}},{"type":"Feature","properties":{"OBJECTID":"5901","Facility_N":"Mbaleway Side Clinic","Type":"Medical Clinic","Owner":"Private Practice - Clinical Officer","County":"Vihiga","Sub_County":"Vihiga","Division":"Vihiga","Location":"Wamuluma","Sub_Locati":"Mbihi","Constituen":"VIHIGA","Nearest_To":"Mbale","Latitude":"0.07966","Longitude":"34.72021"},"geometry":{"type":"Point","coordinates":[34.72021,0.07966]}},{"type":"Feature","properties":{"OBJECTID":"6132","Facility_N":"Mijay Clinic","Type":"Medical Clinic","Owner":"Private Practice - Nurse / Midwife","County":"Vihiga","Sub_County":"Sabatia","Division":"Chavakali","Location":"Demesi","Sub_Locati":"Mukingi","Constituen":"SABATIA","Nearest_To":"Mbale","Latitude":"0.092417","Longitude":"34.7286"},"geometry":{"type":"Point","coordinates":[34.7286,0.092417]}},{"type":"Feature","properties":{"OBJECTID":"6397","Facility_N":"Mt Everest Medical Clinic","Type":"Medical Clinic","Owner":"Private Practice - General Practitioner","County":"Vihiga","Sub_County":"Sabatia","Division":"Chavakali","Location":" ","Sub_Locati":" ","Constituen":"SABATIA","Nearest_To":"Mbale","Latitude":"0.09256","Longitude":"34.7013"},"geometry":{"type":"Point","coordinates":[34.7013,0.09256]}},{"type":"Feature","properties":{"OBJECTID":"6470","Facility_N":"Muhabini Medical Clinic","Type":"Medical Clinic","Owner":"Private Practice - Nurse / Midwife","County":"Vihiga","Sub_County":"Emuhaya","Division":"Emuhaya","Location":"North Bunyore","Sub_Locati":"Emmukunzi","Constituen":"EMUHAYA","Nearest_To":"Luanda","Latitude":"0.11487","Longitude":"34.63271"},"geometry":{"type":"Point","coordinates":[34.63271,0.11487]}},{"type":"Feature","properties":{"OBJECTID":"6524","Facility_N":"Mulele Dispensary","Type":"Dispensary","Owner":"Ministry of Health","County":"Vihiga","Sub_County":"Vihiga","Division":"Vihiga","Location":"Lugaga","Sub_Locati":"Muhanda","Constituen":"VIHIGA","Nearest_To":"Bukuga Mkt","Latitude":"0.04537","Longitude":"34.68658"},"geometry":{"type":"Point","coordinates":[34.68658,0.04537]}},{"type":"Feature","properties":{"OBJECTID":"6553","Facility_N":"Mummy's Medical Clinic","Type":"Medical Clinic","Owner":"Private Practice - Nurse / Midwife","County":"Vihiga","Sub_County":"Emuhaya","Division":"Luanda","Location":"South Bunyore","Sub_Locati":"Maseno","Constituen":"EMUHAYA","Nearest_To":"Luanda","Latitude":"0.01913","Longitude":"34.57765"},"geometry":{"type":"Point","coordinates":[34.57765,0.01913]}},{"type":"Feature","properties":{"OBJECTID":"6577","Facility_N":"Munoywa Dispensary","Type":"Dispensary","Owner":"Ministry of Health","County":"Vihiga","Sub_County":"Sabatia","Division":"Chavakali","Location":"Idzava North","Sub_Locati":"Munoywa","Constituen":"SABATIA","Nearest_To":"Chavakali","Latitude":"0.098079","Longitude":"34.751059"},"geometry":{"type":"Point","coordinates":[34.751059,0.098079]}},{"type":"Feature","properties":{"OBJECTID":"6638","Facility_N":"Musitinyi Dispensary","Type":"Dispensary","Owner":"Ministry of Health","County":"Vihiga","Sub_County":"Emuhaya","Division":"Emuhaya","Location":"East Bunyore","Sub_Locati":"Ebubayi","Constituen":"EMUHAYA","Nearest_To":"Luanda","Latitude":"0.05669","Longitude":"34.65628"},"geometry":{"type":"Point","coordinates":[34.65628,0.05669]}},{"type":"Feature","properties":{"OBJECTID":"6817","Facility_N":"Mwichio Amua Medical Clinic","Type":"Medical Clinic","Owner":"Private Practice - Nurse / Midwife","County":"Vihiga","Sub_County":"Emuhaya","Division":"Luanda","Location":"Central Bunyore","Sub_Locati":"Essunza","Constituen":"EMUHAYA","Nearest_To":"Luanda","Latitude":"0.07349","Longitude":"34.60972"},"geometry":{"type":"Point","coordinates":[34.60972,0.07349]}},{"type":"Feature","properties":{"OBJECTID":"6850","Facility_N":"Nadanya Dispensary","Type":"Dispensary","Owner":"Ministry of Health","County":"Vihiga","Sub_County":"Sabatia","Division":"Chavakali","Location":"Idzava","Sub_Locati":"DEMESI","Constituen":"SABATIA","Nearest_To":"Mbale","Latitude":"0.1","Longitude":"34.68"},"geometry":{"type":"Point","coordinates":[34.68,0.1]}},{"type":"Feature","properties":{"OBJECTID":"7520","Facility_N":"Nyang'ori Health Centre","Type":"Health Centre","Owner":"Other Faith Based","County":"Vihiga","Sub_County":"Hamisi","Division":"Tambua","Location":"Tambua","Sub_Locati":"Gamalenga","Constituen":"HAMISI","Nearest_To":" ","Latitude":"0.02","Longitude":"34.78"},"geometry":{"type":"Point","coordinates":[34.78,0.02]}},{"type":"Feature","properties":{"OBJECTID":"7671","Facility_N":"Ojm Medical Clinic","Type":"Medical Clinic","Owner":"Private Practice - Nurse / Midwife","County":"Vihiga","Sub_County":"Emuhaya","Division":"Luanda","Location":"Central Bunyore","Sub_Locati":"Emusire","Constituen":"EMUHAYA","Nearest_To":"Luanda","Latitude":"0.08379","Longitude":"34.60697"},"geometry":{"type":"Point","coordinates":[34.60697,0.08379]}},{"type":"Feature","properties":{"OBJECTID":"8217","Facility_N":"Rehema VCT Centre","Type":"VCT Centre (Stand-Alone)","Owner":"Other Public Institution","County":"Vihiga","Sub_County":"Hamisi","Division":"Shaviringa","Location":"Shaviringa","Sub_Locati":"Shiru","Constituen":"HAMISI","Nearest_To":" ","Latitude":"0.12859","Longitude":"34.8596"},"geometry":{"type":"Point","coordinates":[34.8596,0.12859]}},{"type":"Feature","properties":{"OBJECTID":"8221","Facility_N":"Rejoice Medical Clinic Lusiola","Type":"Medical Clinic","Owner":"Private Practice - Nurse / Midwife","County":"Vihiga","Sub_County":"Vihiga","Division":"vihiga","Location":"South Maragoli","Sub_Locati":"Idereri","Constituen":"VIHIGA","Nearest_To":"Lusiola-off Majengo-Luanda Road","Latitude":"0.01765","Longitude":"34.69858"},"geometry":{"type":"Point","coordinates":[34.69858,0.01765]}},{"type":"Feature","properties":{"OBJECTID":"8329","Facility_N":"Rotary Doctors Clinic","Type":"Medical Clinic","Owner":"Non-Governmental Organizations","County":"Vihiga","Sub_County":"Emuhaya","Division":"Luanda","Location":"Central Bunyore","Sub_Locati":"Emusire","Constituen":"EMUHAYA","Nearest_To":"Luanda","Latitude":"0.11257","Longitude":"34.59418"},"geometry":{"type":"Point","coordinates":[34.59418,0.11257]}},{"type":"Feature","properties":{"OBJECTID":"8405","Facility_N":"Sabatia Eye Hospital Mission","Type":"Eye Centre","Owner":"Christian Health Association of Kenya","County":"Vihiga","Sub_County":"Sabatia","Division":"Sabatia","Location":"Wodanga","Sub_Locati":"Vokoli","Constituen":"SABATIA","Nearest_To":"Sabatia","Latitude":"0.120517","Longitude":"34.7902"},"geometry":{"type":"Point","coordinates":[34.7902,0.120517]}},{"type":"Feature","properties":{"OBJECTID":"8406","Facility_N":"Sabatia Health Centre","Type":"Health Centre","Owner":"Ministry of Health","County":"Vihiga","Sub_County":"Sabatia","Division":"Sabatia","Location":"Wodanga","Sub_Locati":"Vokoli","Constituen":"SABATIA","Nearest_To":"Sabatia","Latitude":"0.1209","Longitude":"34.7874"},"geometry":{"type":"Point","coordinates":[34.7874,0.1209]}},{"type":"Feature","properties":{"OBJECTID":"8579","Facility_N":"Serem Health Centre","Type":"Health Centre","Owner":"Ministry of Health","County":"Vihiga","Sub_County":"Hamisi","Division":"Shamakhokho","Location":"Shamakhokho","Sub_Locati":"Serem","Constituen":"HAMISI","Nearest_To":" ","Latitude":"0.08013","Longitude":"34.85275"},"geometry":{"type":"Point","coordinates":[34.85275,0.08013]}},{"type":"Feature","properties":{"OBJECTID":"8678","Facility_N":"Shiru Health Centre","Type":"Health Centre","Owner":"Ministry of Health","County":"Vihiga","Sub_County":"Hamisi","Division":"Shaviringa","Location":"Shaviringa","Sub_Locati":"Shiru","Constituen":"HAMISI","Nearest_To":" ","Latitude":"0.16167","Longitude":"34.91163"},"geometry":{"type":"Point","coordinates":[34.91163,0.16167]}},{"type":"Feature","properties":{"OBJECTID":"8820","Facility_N":"Snocx Medical Clinic","Type":"Medical Clinic","Owner":"Private Practice - Unspecified","County":"Vihiga","Sub_County":"Sabatia","Division":" ","Location":" ","Sub_Locati":" ","Constituen":"SABATIA","Nearest_To":" ","Latitude":"0.11684","Longitude":"34.77104"},"geometry":{"type":"Point","coordinates":[34.77104,0.11684]}},{"type":"Feature","properties":{"OBJECTID":"9505","Facility_N":"The Great Lakes Medical Centre","Type":"Medical Centre","Owner":"Private Enterprise (Institution)","County":"Vihiga","Sub_County":"Emuhaya","Division":"Luanda Division","Location":"Masaba","Sub_Locati":"Esiandumba","Constituen":"EMUHAYA","Nearest_To":"Luanda Town","Latitude":"0.0268","Longitude":"34.5855"},"geometry":{"type":"Point","coordinates":[34.5855,0.0268]}},{"type":"Feature","properties":{"OBJECTID":"9564","Facility_N":"Tigoi Health Centre","Type":"Health Centre","Owner":"Ministry of Health","County":"Vihiga","Sub_County":"Hamisi","Division":"Jepkoyai","Location":"Jepkoyai","Sub_Locati":"Tigoi","Constituen":"HAMISI","Nearest_To":"Gambogi","Latitude":"0.00591","Longitude":"34.72554"},"geometry":{"type":"Point","coordinates":[34.72554,0.00591]}},{"type":"Feature","properties":{"OBJECTID":"9931","Facility_N":"Vigetse Women Group Medical Clinic","Type":"Dispensary","Owner":"Private Practice - Nurse / Midwife","County":"Vihiga","Sub_County":"Vihiga","Division":"Vihiga","Location":"S Maragoli","Sub_Locati":"Lusiola MKT","Constituen":"VIHIGA","Nearest_To":"Lusiola Mkt","Latitude":"-0.000603","Longitude":"34.6735"},"geometry":{"type":"Point","coordinates":[34.6735,-0.000603]}},{"type":"Feature","properties":{"OBJECTID":"9934","Facility_N":"Vihiga District Hosptial","Type":"District Hospital","Owner":"Ministry of Health","County":"Vihiga","Sub_County":"Vihiga","Division":"Municipality","Location":"Wamuluma","Sub_Locati":"Kegoye","Constituen":"VIHIGA","Nearest_To":"Mbale","Latitude":"0.07981","Longitude":"34.72208"},"geometry":{"type":"Point","coordinates":[34.72208,0.07981]}},{"type":"Feature","properties":{"OBJECTID":"9935","Facility_N":"Vihiga Health Centre","Type":"Health Centre","Owner":"Ministry of Health","County":"Vihiga","Sub_County":"Vihiga","Division":"Vihiga","Location":"C Maragoli","Sub_Locati":"Imanda","Constituen":"VIHIGA","Nearest_To":"Majengo","Latitude":"0.03903","Longitude":"34.71465"},"geometry":{"type":"Point","coordinates":[34.71465,0.03903]}},{"type":"Feature","properties":{"OBJECTID":"9953","Facility_N":"Vision Medical Clinic- Esibuye","Type":"Medical Clinic","Owner":"Private Practice - Nurse / Midwife","County":"Vihiga","Sub_County":"Emuhaya","Division":"Elukongo","Location":"Ebusamia","Sub_Locati":"Esibuye","Constituen":"EMUHAYA","Nearest_To":"Esibuye Market","Latitude":"0.07943","Longitude":"34.63436"},"geometry":{"type":"Point","coordinates":[34.63436,0.07943]}}]}